#GPSEPHEMA,COM1,12,59.5,SATTIME,1761,317010.000,00000000,9145,9570;1,317010.0,0,46,46,1761,1761,324000.0,2.656042496e+07,5.016994692e-09,2.202551220e+00,2.4175213184e-03,4.0835285082e-01,-4.284083843e-07,6.416812539e-06,2.55187500e+02,-8.93750000e+00,-7.264316082e-08,2.793967724e-08,9.6044927450e-01,-7.500312418e-12,2.438194543e+00,-8.18712674e-09,46,324000.0,8.381903172e-09,8.32425e-05,3.75167e-12,0.00000,TRUE,1.458583610e-04,4.00000000e+00*401b7b93
#GPSEPHEMA,COM1,11,59.5,SATTIME,1761,317010.000,00000000,9145,9570;2,317010.0,0,44,44,1761,1761,324000.0,2.656094866e+07,5.359151802e-09,3.044141497e+00,1.2637993321e-02,-2.553265965e+00,-5.289912224e-07,6.292015314e-06,2.44500000e+02,-8.59375000e+00,-1.117587090e-07,-1.825392246e-07,9.3894420465e-01,6.428839216e-12,2.413612370e+00,-8.20927052e-09,44,324000.0,-1.722946763e-08,4.55135e-04,1.81899e-12,0.00000,TRUE,1.458543895e-04,4.00000000e+00*0d6452e3
#GPSEPHEMA,COM1,10,59.5,SATTIME,1761,317010.000,00000000,9145,9570;4,317010.0,0,77,77,1761,1761,324000.0,2.655966468e+07,5.572732127e-09,3.6891196644e-02,1.0628628195e-02,1.035272366e+00,-1.545995474e-07,6.178393960e-06,2.47656250e+02,-6.96875000e+00,-6.519258022e-08,1.080334187e-07,9.3798840858e-01,-3.107272288e-11,2.429904002e+00,-8.67286126e-09,77,324000.0,-6.053596735e-09,1.81235e-06,4.54747e-13,0.00000,TRUE,1.458651794e-04,4.00000000e+00*c512851c
#GPSEPHEMA,COM1,9,59.5,SATTIME,1761,316320.000,00000000,9145,9570;7,316320.0,0,48,48,1761,1761,316800.0,2.656026876e+07,4.429470219e-09,6.0180875433e-01,6.9770587143e-03,-2.864033742e+00,4.153698683e-07,2.460554242e-06,3.38687500e+02,7.62500000e+00,1.117587090e-08,1.378357410e-07,9.7482666515e-01,5.714523747e-12,-6.8425508538e-01,-8.40320717e-09,48,316800.0,-1.071020961e-08,2.67641e-04,4.20641e-12,0.00000,TRUE,1.458590600e-04,4.00000000e+00*4daa70fb
#GPSEPHEMA,COM1,8,59.5,SATTIME,1761,317040.000,00000000,9145,9570;8,317040.0,0,58,58,1761,1761,324000.0,2.656044753e+07,3.889804883e-09,1.082089710e+00,1.3477348373e-02,-2.824466736e+00,-2.011656761e-07,2.894550562e-06,3.43437500e+02,-6.43750000e+00,-1.490116119e-07,2.086162567e-07,9.9782064621e-01,-1.803646558e-10,-5.9005804334e-01,-8.12355266e-09,58,324000.0,-3.725290298e-09,8.98121e-06,2.27374e-13,0.00000,TRUE,1.458570479e-04,4.00000000e+00*07d24ddb
#GPSEPHEMA,COM1,7,59.5,SATTIME,1761,317010.000,00000000,9145,9570;9,317010.0,0,67,67,1761,1761,324000.0,2.656078914e+07,4.149101398e-09,2.829930744e+00,1.6849673237e-02,1.732590499e+00,7.078051567e-07,2.117827535e-06,3.48250000e+02,1.22187500e+01,1.825392246e-07,-1.303851604e-08,9.8340362803e-01,-3.821587756e-11,-7.0653224243e-01,-7.96747473e-09,67,324000.0,-5.587935448e-09,2.74319e-04,2.72848e-12,0.00000,TRUE,1.458544934e-04,7.84000000e+00*b0bbe703
#GPSEPHEMA,COM1,6,59.5,SATTIME,1761,316530.000,00000000,9145,9570;11,316530.0,0,57,57,1761,1761,316800.0,2.656043392e+07,6.797783155e-09,8.3619183043e-01,1.4668348944e-02,1.224238066e+00,2.998858690e-07,6.301328540e-06,2.23375000e+02,3.40625000e+00,-1.806765795e-07,5.587935448e-08,8.8926424399e-01,1.100045821e-10,2.131292655e+00,-9.36824737e-09,57,316800.0,-1.164153218e-08,-4.27132e-04,-3.41061e-12,0.00000,TRUE,1.458600679e-04,4.00000000e+00*59acb335
#GPSEPHEMA,COM1,5,59.5,SATTIME,1761,317040.000,00000000,9145,9570;17,317040.0,0,12,12,1761,1761,324000.0,2.656053338e+07,4.425898642e-09,-1.781774207e+00,8.5887842579e-03,-2.190452221e+00,-1.117587090e-06,9.715557098e-06,1.92593750e+02,-2.32500000e+01,1.564621925e-07,1.676380634e-08,9.6621620875e-01,5.768097407e-10,1.428808649e+00,-7.79282460e-09,12,324000.0,-1.024454832e-08,-2.93832e-05,-3.63798e-12,0.00000,TRUE,1.458568768e-04,4.00000000e+00*c9f7edb9
#GPSEPHEMA,COM1,4,59.5,SATTIME,1761,317010.000,00000000,9145,9570;20,317010.0,0,4,4,1761,1761,323984.0,2.656026853e+07,5.350937174e-09,2.1779969568e-01,5.6309584761e-03,1.284218550e+00,5.867332220e-07,9.777024388e-06,1.72687500e+02,1.12812500e+01,-7.450580597e-09,3.352761269e-08,9.2796567009e-01,-5.250218693e-10,-2.857435879e+00,-8.45356641e-09,4,323984.0,-7.916241884e-09,1.28162e-04,2.72848e-12,0.00000,TRUE,1.458599835e-04,4.00000000e+00*9f01c6f2
#GPSEPHEMA,COM1,3,59.5,SATTIME,1761,317040.000,00000000,9145,9570;24,317040.0,0,56,56,1761,1761,324000.0,2.656013458e+07,4.726982612e-09,2.667018702e+00,1.1337259784e-03,1.3296966398e-01,8.530914783e-07,2.423301339e-06,3.29000000e+02,1.54375000e+01,-1.117587090e-08,3.166496754e-08,9.5827283129e-01,4.214461264e-11,-7.1510211455e-01,-8.45892378e-09,56,324000.0,3.259629011e-09,-1.52267e-05,-6.82121e-13,0.00000,TRUE,1.458604628e-04,7.84000000e+00*8a11c9ec
#GPSEPHEMA,COM1,2,59.5,SATTIME,1761,315390.000,00000000,9145,9570;26,315390.0,0,2,2,1761,1761,316784.0,2.656048128e+07,3.969808216e-09,2.187369768e+00,2.1079818718e-02,1.252201226e+00,4.768371582e-06,7.718801498e-06,2.34812500e+02,9.66875000e+01,2.011656761e-07,-3.799796104e-07,9.7723704358e-01,1.839362331e-10,-1.658595223e+00,-7.66781940e-09,2,316784.0,-5.587935448e-09,2.30192e-04,1.89857e-11,0.00000,TRUE,1.458568498e-04,4.00000000e+00*1070ab04
#GPSEPHEMA,COM1,1,59.5,SATTIME,1761,317040.000,00000000,9145,9570;28,317040.0,0,19,19,1761,1761,324000.0,2.656017170e+07,3.980165790e-09,-9.8825678854e-01,1.8845119048e-02,-1.762026741e+00,-4.811212420e-06,8.760020137e-06,2.26500000e+02,-9.86250000e+01,-1.695007086e-07,3.762543201e-07,9.8483024088e-01,-2.785830327e-11,3.9992204807e-01,-8.08747973e-09,19,324000.0,-1.071020961e-08,2.99238e-04,3.06954e-12,0.00000,TRUE,1.458594102e-04,4.00000000e+00*b8955e81
#GPSEPHEMA,COM1,0,59.5,SATTIME,1761,317010.000,00000000,9145,9570;32,317010.0,0,98,98,1761,1761,324000.0,2.655940903e+07,4.663408535e-09,2.176481080e+00,1.1627037893e-02,-2.7599505232e-01,1.631677151e-06,1.070834696e-05,1.65406250e+02,3.04375000e+01,4.097819328e-08,2.607703209e-07,9.4901526479e-01,-5.614519582e-10,-2.715001890e+00,-7.94854537e-09,98,324000.0,-2.793967724e-09,-5.41972e-04,3.52429e-12,0.00000,TRUE,1.458663760e-04,4.00000000e+00*1a519b01
#BESTXYZA,COM1,0,56.0,FINESTEERING,1761,317077.000,00000000,d821,9570;SOL_COMPUTED,SINGLE,423321.3381,-5361646.3261,3417281.3290,1.3590,2.2250,1.6346,SOL_COMPUTED,DOPPLER_VELOCITY,0.0092,-0.0169,0.0049,0.1624,0.2659,0.1954,"",0.150,0.000,0.000,18,18,0,0,0,06,0,33*14114288
#BESTXYZA,COM1,0,52.0,FINESTEERING,1761,317078.000,00000000,d821,9570;SOL_COMPUTED,SINGLE,423321.3414,-5361646.3396,3417281.3407,1.3591,2.2250,1.6346,SOL_COMPUTED,DOPPLER_VELOCITY,-0.0105,-0.0175,-0.0023,0.1624,0.2659,0.1954,"",0.150,0.000,0.000,18,18,0,0,0,06,0,33*afe14e6d
#BESTXYZA,COM1,0,52.0,FINESTEERING,1761,317079.000,00000000,d821,9570;SOL_COMPUTED,SINGLE,423321.3472,-5361646.3487,3417281.3502,1.3591,2.2250,1.6346,SOL_COMPUTED,DOPPLER_VELOCITY,-0.0076,-0.0291,0.0008,0.1624,0.2659,0.1954,"",0.150,0.000,0.000,18,18,0,0,0,06,0,33*dcc1452b
#BESTXYZA,COM1,0,57.0,FINESTEERING,1761,317080.000,00000000,d821,9570;SOL_COMPUTED,SINGLE,423321.3598,-5361646.3583,3417281.3599,1.3592,2.2251,1.6346,SOL_COMPUTED,DOPPLER_VELOCITY,0.0111,-0.0025,-0.0132,0.1625,0.2659,0.1954,"",0.150,0.000,0.000,18,18,0,0,0,06,0,33*b6b0925b
#BESTXYZA,COM1,0,57.0,FINESTEERING,1761,317081.000,00000000,d821,9570;SOL_COMPUTED,SINGLE,423321.3719,-5361646.3821,3417281.3731,1.3592,2.2251,1.6347,SOL_COMPUTED,DOPPLER_VELOCITY,-0.0067,-0.0047,-0.0137,0.1625,0.2659,0.1954,"",0.150,0.000,0.000,18,18,0,0,0,06,0,33*80342221
#BESTXYZA,COM1,0,55.5,FINESTEERING,1761,317082.000,00000000,d821,9570;SOL_COMPUTED,SINGLE,423321.3851,-5361646.4036,3417281.3859,1.3593,2.2251,1.6347,SOL_COMPUTED,DOPPLER_VELOCITY,0.0106,-0.0193,0.0029,0.1625,0.2659,0.1954,"",0.150,0.000,0.000,18,18,0,0,0,06,0,33*95d83873
#BESTXYZA,COM1,0,55.5,FINESTEERING,1761,317083.000,00000000,d821,9570;SOL_COMPUTED,SINGLE,423321.3909,-5361646.4152,3417281.3993,1.3593,2.2251,1.6348,SOL_COMPUTED,DOPPLER_VELOCITY,-0.0085,0.0128,0.0011,0.1625,0.2659,0.1954,"",0.150,0.000,0.000,18,18,0,0,0,06,0,33*dcaaeee0
#BESTXYZA,COM1,0,58.0,FINESTEERING,1761,317084.000,00000000,d821,9570;SOL_COMPUTED,SINGLE,423321.4023,-5361646.4415,3417281.4130,1.3594,2.2251,1.6348,SOL_COMPUTED,DOPPLER_VELOCITY,-0.0018,0.0298,-0.0026,0.1625,0.2660,0.1954,"",0.150,0.000,0.000,18,18,0,0,0,06,0,33*9b896347
#BESTXYZA,COM1,0,56.0,FINESTEERING,1761,317085.000,00000000,d821,9570;SOL_COMPUTED,SINGLE,423321.4075,-5361646.4575,3417281.4242,1.3594,2.2251,1.6348,SOL_COMPUTED,DOPPLER_VELOCITY,-0.0148,0.0145,-0.0126,0.1625,0.2660,0.1954,"",0.150,0.000,0.000,18,18,0,0,0,06,0,33*eac931a3
#BESTXYZA,COM1,0,56.0,FINESTEERING,1761,317086.000,00000000,d821,9570;SOL_COMPUTED,SINGLE,423321.4174,-5361646.4789,3417281.4361,1.3595,2.2251,1.6348,SOL_COMPUTED,DOPPLER_VELOCITY,-0.0057,-0.0165,0.0074,0.1625,0.2660,0.1954,"",0.150,0.000,0.000,18,18,0,0,0,06,0,33*a6f48764
#BESTXYZA,COM1,0,53.0,FINESTEERING,1761,317087.000,00000000,d821,9570;SOL_COMPUTED,SINGLE,423321.4205,-5361646.4973,3417281.4508,1.3595,2.2251,1.6349,SOL_COMPUTED,DOPPLER_VELOCITY,0.0011,0.0173,-0.0051,0.1625,0.2660,0.1954,"",0.150,0.000,0.000,18,18,0,0,0,06,0,33*007df208
#RANGECMPA,COM1,0,55.5,FINESTEERING,1761,317088.000,00000000,9691,9570;36,049c1018b2fe0ae0f6703f0accfbb7d9200462dfc0030000,0b9c30114691088010713f0ab31682ed200434dae0020000,249c10089f0efd9fbe6eb20b7dcc04d1402060d760030000,2b9c3001f4b4fd1fd96eb20b958949835220c6d640020000,449c100817c702c06992da0af818d1f35014adda80030000,4b9c3001182a02007492da0ad9b6c6f1511493d8a0020000,849c1008166609f00098a80b394d7bd7401825bc00030000,8b9c3001de5207103598a80b72b85288611896bb60020000,a49c100833aefe1f250ce009c1a86198201c9cdce0030000,ab9c3001c6f8fe2f220ce009ad28569e201c34da80030000,e49c1008fba20c90d9eec70b603de5c24002da6560030000,eb9c3001c5d809402befc70b581448f85102f56440020000,449d1008a467006097d7060a9dd6e5fe201104dee0030000,4b9d3001c15000409cd7060a46a37a8a201113daa0030000,649d10081085f1bfb501da0a666630f43008d5de80030000,6b9d300178b7f46fe701da0ab3fb649e310834daa0020000,849d10189e35f36f06bc2e0bb95d88bc40013cdf80030000,8b9d30118708f6ef1ebc2e0b418406f3410113da80020000,a49d10085311f15f1304270b13759ac13009d9de80030000,ab9d3001495df47f4c04270bcd0dfaf6310903daa0020000,049e1118a7660cb0aeab210b1b6d3393412b04a7600f0000,0b9eb1102ea509d003ac210b388899b9152b1aa6c00d0000,249e1118242dff8f71d05109f7d95dc620301dd9c01f0000,2b9eb110ff5bffbf96d0510921d081a804301dd9001e0000,649e110827aaf0af8a5f200a0e47a6c0202f1cd9c0030000,6b9eb1108e12f4bfe25f200aa03881c0152f1dd980010000,a49e11185506fd2ffad593092067f797203a1dd9c02f0000,ab9eb10097affd0f0bd693091a056b84153a1dd9a02d0000,c49e11182d390e506f76a50a8b2222e431311dd9a01b0000,cb9eb10006100b40a476a50a4e358cf815318bd6a0190000,049f11181d8c0350398f0a0beb634d9f412a1dd960230000,0b9fb1004ec202e0748f0a0b3b2703c3362a2cad40210000,249f11086091f5ff6b107b0a12708efe42391dd900270000,2b9fb110d7e2f7bf90107b0a9166198d15391dd9a0250000,449f1118009706a0a90c400a1b8a14a9313b1dd9a0130000,4b9fb1101d200570e60c400ab2442cae133b1dd940120000*1c45b136
#BESTXYZA,COM1,0,53.0,FINESTEERING,1761,317088.000,00000000,d821,9570;SOL_COMPUTED,SINGLE,423321.4199,-5361646.5077,3417281.4580,1.3596,2.2251,1.6349,SOL_COMPUTED,DOPPLER_VELOCITY,-0.0146,0.0295,-0.0118,0.1625,0.2660,0.1954,"",0.150,0.000,0.000,18,18,0,0,0,06,0,33*0be1a85a
#RANGECMPA,COM1,0,53.0,FINESTEERING,1761,317089.000,00000000,9691,9570;36,049c101870fe0a003a603f0a6bfac2d9200482dfc0030000,0b9c3011119108b053603f0ae9a78aed200454dae0020000,249c1008560efdff3973b20bd5da01d1502080d760030000,2b9c3001bab4fd4f5473b20b533e47836220e6d620020000,449c1008dec602302f8eda0a1fe0d3f35014cdda80030000,4b9c3001ec290280398eda0affe0c8f15114b3d8a0020000,849c1008ad650950b289a80b1cb384d7501845bc00030000,8b9c30018c520760e689a80b290b5a886218b6bb40020000,a49c1008edadfeaf270ee009ca566098201cbcdce0030000,ab9c300190f8feaf240ee0095521559e201c54da80030000,e49c1008f6a20c209ddbc70b4fe0f1c25002fa6560030000,eb9c3001c0d80970eedbc70b13ed51f86102156560020000,449d1008d3670090f9d6060a523ee6fe201124dee0030000,4b9d3001e6500050fed6060a14f47a8a201133da80030000,649d10080c85f1ffc017da0a75eb21f43008f5de80030000,6b9d300175b7f4bff217da0a2fb3599e310854daa0020000,849d10186f35f36f7fcf2e0b40937bbc40015cdf80030000,8b9d30116408f6ef97cf2e0bb78cfcf2410133da80020000,a49d10083911f1efce1a270b60868bc13009f9de80030000,ab9d3001345df42f081b270b146beef6310923da80020000,049e111899660c901799210b95d33f93412b24a7600f0000,0b9eb11023a509a06c99210b3f2da3b9142b3aa6c00d0000,249e1118482cffbfadd15109b9065dc630303dd9c01f0000,2b9eb110535bff0fd3d15109d52b81a804303dd9e01d0000,649e1108caa9f0bf8e76200a11f196c0202f3cd9c0030000,6b9eb1104612f4dfe676200a144b75c0152f3dd9a0010000,a49e11183406fd1f6dda93095f6df497203a3dd9c02f0000,ab9eb1007eaffd0f7eda9309a0b46884153a3dd9a02d0000,c49e111831390e302261a50aac5b30e431313dd9a01b0000,cb9eb10009100be05661a50a4b4597f80531abd6a0190000,049f1118a18b03c0ea890a0bc7ef509f412a3dd960230000,0b9fb100eec10260268a0a0b59e905c3352a4cad40210000,249f11088891f57f07207b0a610184fe52393dd920270000,2b9fb110f6e2f76f2c207b0a5f49118d14393dd9c0250000,449f1118c8960670c902400af7201ba9313b3dd9a0130000,4b9fb110f21f05400603400ab16431ae033b3dd960120000*6b7ea627
#BESTXYZA,COM1,0,53.0,FINESTEERING,1761,317089.000,00000000,d821,9570;SOL_COMPUTED,SINGLE,423321.4240,-5361646.5206,3417281.4682,1.3596,2.2252,1.6350,SOL_COMPUTED,DOPPLER_VELOCITY,-0.0020,0.0096,0.0036,0.1625,0.2660,0.1954,"",0.150,0.000,0.000,18,18,0,0,0,06,0,33*cec3f322
#RANGECMPA,COM1,0,53.0,FINESTEERING,1761,317090.000,00000000,9691,9570;36,049c10181afe0a707d4f3f0acef8cdd92004a2dfc0030000,0b9c3011ce900830974f3f0af03893ed200474dae0020000,249c1008c00dfddfb577b20bcae8fed05020a0d740030000,2b9c300146b4fd3fd077b20bc0f24483622006d720020000,449c100883c60220f589da0aeca6d6f34014edda80030000,4b9c3001a5290290ff89da0add0acbf14114d3d8a0020000,849c100842650900647ba80bc7188ed7501865bc00030000,8b9c30013a520720987ba80bb45d61886218d6bb40020000,a49c100877adfe7f2a10e0099a045f98201cdcdce0030000,ab9c300134f8fe7f2710e009cf19549e201c74da80030000,e49c1008dfa20c8060c8c70b4e83fec240021a6660030000,eb9c3001aed809a0b1c8c70bdac55bf85102356580020000,449d10087d6700c05bd6060a0ba6e6fe201144dee0030000,4b9d3001a350006060d6060ae7447b8a201153da80030000,649d1008d084f14fcc2dda0a7d7013f4300815df80030000,6b9d300145b7f43ffe2dda0aa66a4e9e310874daa0020000,849d10185835f35ff8e22e0bcac86ebc40017cdf80030000,8b9d30115108f6cf10e32e0b3095f2f2410153da80020000,a49d10084e11f15f8a31270bcc977cc1300919df80030000,ab9d3001455df48fc331270b74c8e2f6310943da80020000,049e111864660c608086210b163a4c93312b44a7600f0000,0b9eb110f9a40960d586210b4ad2acb9152b5aa6c00d0000,249e11188b2bff0febd25109c7325cc620305dd9c01f0000,2b9eb110c05aff4f10d35109fd8680a804305dd9e01d0000,649e110885a9f01f938d200adb9a87c0212f5cd9c0030000,6b9eb1101012f44feb8d200a5d5d69c0152f5dd980010000,a49e1118f405fd2fe0de93098f73f197203a5dd9c02f0000,ab9eb1004caffd2ff1de930918646684153a5dd9a02d0000,c49e111859380ea0d54ba50a77943ee431315dd9a01b0000,cb9eb100610f0b200a4ca50a0755a2f81531cbd6c0190000,049f1118f38a03109d840a0b257b549f412a5dd960230000,0b9fb10067c10290d8840a0b14ab08c3352a6cad40210000,249f11086791f59fa22f7b0ae39279fe52395dd920270000,2b9fb110dce2f7efc72f7b0a542c098d14395dd9c0250000,449f111880960680e9f83f0ab6b721a9313b5dd9c0130000,4b9fb110ba1f053026f93f0a998436ae033b5dd940120000*b32beb26
#BESTXYZA,COM1,0,53.0,FINESTEERING,1761,317090.000,00000000,d821,9570;SOL_COMPUTED,SINGLE,423321.4292,-5361646.5305,3417281.4745,1.3597,2.2252,1.6350,SOL_COMPUTED,DOPPLER_VELOCITY,0.0115,0.0201,-0.0193,0.1625,0.2660,0.1954,"",0.150,0.000,0.000,18,18,0,0,0,06,0,33*b707a358
#RANGECMPA,COM1,0,53.0,FINESTEERING,1761,317091.000,00000000,9691,9570;36,049c1018e5fd0aa0c13e3f0ac3f6d8d92004c2dfc0030000,0b9c3011a5900860db3e3f0aa1c99bed200494dae0020000,249c1008300dfdbf327cb20b29f6fbd05020c0d760030000,2b9c3001d6b3fd3f4d7cb20bbaa64283622026d720020000,449c1008fec502e0bb85da0a2b6dd9f340140ddb60030000,4b9c30013e290260c685da0a4c34cdf15114f3d880020000,849c1008f6640990166da80bfb7d97d7501885bc00030000,8b9c3001ff5107c04a6da80be4af68886118f6bb60020000,a49c100859adfe0f2e12e009fcb15d98201cfcdce0030000,ab9c30011cf8fe0f2b12e009f311539e201c94da80030000,e49c1008d6a20c1024b5c70b2d260bc340023a6660030000,eb9c3001a7d809e074b5c70b889e65f85102556580020000,449d10088c670030bed5060a960de7fe201164dee0030000,4b9d3001af5000c0c2d5060a97957b8a201173da80030000,649d1008ea84f1efd743da0a4cf504f4300835df80030000,6b9d30015ab7f4ef0944da0aef21439e310894daa0020000,849d10188235f39f71f62e0b1efe61bc40019cdf80030000,8b9d30117208f62f8af62e0b7f9de8f2510173da80020000,a49d10085411f1df4548270b21a96dc1300939df80030000,ab9d3001485df40f7f48270bc425d7f6310963da80020000,049e111860660c70e973210b66a05893412b64a7600f0000,0b9eb110f7a409703e74210b3077b6b9142b7aa6c00d0000,249e1118aa2aff9f29d45109e45d5bc620307dd9c01f0000,2b9eb110115aff1f4fd4510969e17fa804307dd9001e0000,649e110826a9f02f98a4200a2a4478c0212f7cd9a0030000,6b9eb110c611f48ff0a4200a486f5dc0152f7dd980010000,a49e1118dc05fd9f53e393097479ee97203a7dd9c02f0000,ab9eb10039affd8f64e3930959136484153a7dd9802d0000,c49e111823380ef08936a50ac7cc4ce431317dd9a01b0000,cb9eb100370f0b30be36a50a6264adf81531ebd6a0190000,049f1118568a0350507f0a0bcd05589f312a7dd960230000,0b9fb100edc002d08b7f0a0b426c0bc3262a8cad40210000,249f1108a891f5cf3d3f7b0a61246ffe52397dd920270000,2b9fb1100fe3f76f633f7b0a460f018d14397dd9c0250000,449f11185c9606200aef3f0a204e28a9303b7dd9c0130000,4b9fb1109e1f05c046ef3f0a40a43bae133b7dd960120000*dabdd56f
#BESTXYZA,COM1,0,53.0,FINESTEERING,1761,317091.000,00000000,d821,9570;SOL_COMPUTED,SINGLE,423321.4384,-5361646.5457,3417281.4754,1.3598,2.2252,1.6350,SOL_COMPUTED,DOPPLER_VELOCITY,0.0091,-0.0123,0.0024,0.1625,0.2660,0.1954,"",0.150,0.000,0.000,18,18,0,0,0,06,0,33*61295b13
#RANGECMPA,COM1,0,53.0,FINESTEERING,1761,317092.000,00000000,9691,9570;36,049c1018d8fd0af0052e3f0a94f4e3d92004e2dfc0030000,0b9c30119b9008b01f2e3f0a365aa4ed2004b4dae0020000,249c1008200dfd0fb080b20b4103f9d04020e0d740030000,2b9c3001c9b3fd8fca80b20b7b5a4083622046d740020000,449c100801c602208381da0a2333dcf340142ddb60030000,4b9c3001402902b08d81da0a865dcff1511413d9c0020000,849c10080d650930c95ea80b0ae3a0d75118a5bce0020000,8b9c300111520750fd5ea80bf5017088611816bc60020000,a49c100840adfecf3114e009395f5c98201c1cdde0030000,ab9c300109f8fedf2e14e009fa09529e201cb4da80030000,e49c100855a30c70e7a1c70b38c917c340025a6660030000,eb9c30010ad909f037a2c70b57776ff85102756560020000,449d1008da67006020d5060a4075e7fe201184dee0030000,4b9d3001eb5000e024d5060a5de67b8a201193da80030000,649d1008f884f18fe359da0a277af6f3300855df80030000,6b9d300164b7f47f155ada0a43d9379e3108b4daa0020000,849d10189435f3afea092f0b8f3355bc4001bcdf80030000,8b9d30118008f62f030a2f0be6a5def2410193daa0020000,a49d1008cd11f10f015f270ba9ba5ec1300959df80030000,ab9d3001a75df43f3a5f270b3b83cbf6410983da80020000,049e1118a3660c505261210bd6066593312b84a7600f0000,0b9eb1102ba50930a761210b2f1cc0b9152b9aa6c00d0000,249e1118402aff3f69d5510963885ac620309dd9c01f0000,2b9eb110bf59ffcf8ed551095b3b7fa804309dd9001e0000,649e11082ca9f06f9dbb200a52ed68c0312f9cd9a0030000,6b9eb110cb11f40ff6bb200a148151c0152f9dd980010000,a49e11181006fdffc6e793095f7feb97203a9dd9c02f0000,ab9eb10062affdefd7e793099dc26184153a9dd9a02d0000,c49e11183b380e603e21a50af0045be431319dd9a01b0000,cb9eb100490f0b507221a50a9f73b8f815310bd7a0190000,049f1118248a0350047a0a0b0a905b9f412a9dd960230000,0b9fb100c6c002f03f7a0a0b1c2d0ec3262aacad40210000,249f11080992f56fd84e7b0a2eb664fe52399dd920270000,2b9fb1105ae3f7affe4e7b0a75f2f88c14399dd9c0250000,449f11185d9606d02ae53f0a7ae42ea9213b9dd9c0130000,4b9fb1109f1f056067e53f0adcc340ae133b9dd940120000*f71d4f00
#BESTXYZA,COM1,0,53.0,FINESTEERING,1761,317092.000,00000000,d821,9570;SOL_COMPUTED,SINGLE,423321.4409,-5361646.5561,3417281.4839,1.3598,2.2252,1.6351,SOL_COMPUTED,DOPPLER_VELOCITY,-0.0027,0.0168,-0.0142,0.1625,0.2660,0.1954,"",0.150,0.000,0.000,18,18,0,0,0,06,0,33*95f34a32
#RANGECMPA,COM1,0,56.0,FINESTEERING,1761,317093.000,00000000,9691,9570;36,049c10184cfd0ac04a1d3f0a1bf2eed9200402e0c0030000,0b9c30112e900890641d3f0a91eaaced2004d4da00030000,249c1008730cfdef2d85b20bec0ff6d0502000d840030000,2b9c300141b3fd7f4885b20bea0d3e83622066d740020000,449c10082fc502004b7dda0aa9f8def350144ddb60030000,4b9c30019c2802b0557dda0a6586d1f1511433d9c0020000,849c10085b6409407c50a80bc947aad75118c5bce0020000,8b9c300185510760b050a80bca537788611836bc60020000,a49c1008d8acfeef3516e009310c5b98201c3cdde0030000,ab9c3001b8f7feff3216e009cc01519e201cd4da80030000,e49c100807a30cc0aa8ec70b436c24c350027a6660030000,eb9c3001ced809f0fa8ec70b235079f86102956560020000,449d10088e6700b082d4060adfdce7fe2011a4dee0030000,4b9d3001b050001087d4060a1d377c8a2011b3da80030000,649d10089d84f13fef6fda0aedfee7f3300875df80030000,6b9d30011eb7f44f2170da0a86902c9e3108d4daa0020000,849d10186435f3df631d2f0bf06848bc4001dcdf80030000,8b9d30115a08f64f7c1d2f0b41aed4f25101b3da80020000,a49d10088511f12fbc75270b3bcc4fc1300979df80030000,ab9d30016f5df48ff575270bb9e0bff63109a3daa0020000,049e11185b660c50bb4e210b386d7193412ba4a7600f0000,0b9eb110f3a40920104f210b23c1c9b9242bbaa6c00d0000,249e11185629ff0faad6510919b259c63030bdd9c01f0000,2b9eb1100959ff9fcfd65109b0947ea80430bdd9001e0000,649e1108a7a8f02fa3d2200a249659c0312fbcd9a0030000,6b9eb1106311f4effbd2200a9c9245c0152fbdd980010000,a49e1118ae05fd8f3aec93092a85e897203abdd9c02f0000,ab9eb10016affd8f4bec9309cb715f84153abdd9a02d0000,c49e1118b8370e30f30ba50ad03c69e43131bdd9a01b0000,cb9eb100e30e0b00270ca50aa282c3f815312bd7a0190000,049f111841890310b9740a0bb6195f9f412abdd940230000,0b9fb10016c002b0f4740a0b83ed10c3362accad40210000,249f1108d991f5ff725e7b0a1b485afe5239bdd940270000,2b9fb11035e3f78f995e7b0abcd5f08c1439bdd9c0250000,449f1118289606b04bdb3f0aab7a35a9313bbdd9c0130000,4b9fb110751f053088db3f0a56e345ae033bbdd960120000*8d3455e1
#BESTXYZA,COM1,0,56.0,FINESTEERING,1761,317093.000,00000000,d821,9570;SOL_COMPUTED,SINGLE,423321.4421,-5361646.5684,3417281.4954,1.3599,2.2252,1.6351,SOL_COMPUTED,DOPPLER_VELOCITY,0.0020,-0.0023,0.0033,0.1625,0.2660,0.1954,"",0.150,0.000,0.000,18,18,0,0,0,06,0,33*d5682a42
#RANGECMPA,COM1,0,56.0,FINESTEERING,1761,317094.000,00000000,9691,9570;36,049c101875fc0a80900c3f0a0aeff9d9200422e0c0030000,0b9c3011878f0850aa0c3f0a747ab5ed2004f4dae0020000,249c1008880bfdffac89b20bdc1bf3d0402020d860030000,2b9c30018bb2fd7fc789b20bc6c03b83512086d740020000,449c10086cc402e01379da0a86bde1f340146ddb60030000,4b9c3001042802a01e79da0ac0aed3f1511453d9a0020000,849c1008c66309203042a80bf3abb3d75118e5bce0020000,8b9c3001125107306442a80b27a57e88711856bc60020000,a49c1008f8abfeff3a18e00992b85998201c5cdde0030000,ab9c300109f7feff3718e00929f94f9e201cf4da80030000,e49c100887a20c806e7bc70b050f31c340029a6660030000,eb9c30016ad80960be7bc70bb82883f85102b56560020000,449d10080c670080e5d3060a2c44e8fe2011c4dee0030000,4b9d30014c5000c0e9d3060a9a877c8a2011d3da80030000,649d10081684f17ffb85da0a5683d9f3300895df60030000,6b9d3001b4b6f4af2d86da0a8147219e3108f4daa0020000,849d1018e734f38fdd302f0bf69d3bbc4001fcdf80030000,8b9d3011f907f60ff6302f0b52b6caf25101d3da80020000,a49d10080011f1af778c270b92dd40c1300999df80030000,ab9d3001075df40fb18c270b093eb4f64109c3daa0020000,049e1118a8650cf0243c210b42d37d93312bc4a7600f0000,0b9eb11068a409c0793c210bd165d3b9252bdaa6c00d0000,249e1118fd27ff7fecd75109b6da58c62030ddd9c01f0000,2b9eb110fd57ff1f12d851092aed7da80430ddd9001e0000,649e1108a7a7f0dfa9e9200a583e4ac0312fdcd9a0030000,6b9eb1109c10f4af02ea200aaaa339c0152fddd980010000,a49e11180005fdcfaef09309858ae597203addd9c02f0000,ab9eb1008eaefdbfbff093099f205d84153addd9a02d0000,c49e1118dc360ef0a8f6a40a127477e43131ddd9a01b0000,cb9eb100380e0bc0dcf6a40a2b91cef815314bd7a0190000,049f1118468803106f6f0a0b85a2629f422addd940230000,0b9fb10053bf02c0aa6f0a0b40ad13c3262aecad40210000,249f1108a191f5df0d6e7b0ae3d94ffe5239ddd940270000,2b9fb11009e3f78f346e7b0ae7b8e88c1439ddd9e0250000,449f11185a9506506dd13f0a5a103ca9303bddd9c0130000,4b9fb110d41e05d0a9d13f0a6b024bae033bddd960120000*c1553e3a
#BESTXYZA,COM1,0,56.0,FINESTEERING,1761,317094.000,00000000,d821,9570;SOL_COMPUTED,SINGLE,423321.4428,-5361646.5713,3417281.5002,1.3599,2.2253,1.6351,SOL_COMPUTED,DOPPLER_VELOCITY,-0.0014,0.0254,0.0002,0.1625,0.2660,0.1954,"",0.150,0.000,0.000,18,18,0,0,0,06,0,33*d6d1069d
#RANGECMPA,COM1,0,56.0,FINESTEERING,1761,317095.000,00000000,9691,9570;36,049c1018dcfb0a50d7fb3e0a3feb04da200442e0c0030000,0b9c30110f8f0830f1fb3e0ac709beed300414dbe0020000,249c1008ee0afd4f2d8eb20bf126f0d0402040d840030000,2b9c300112b2fddf478eb20bf87239835220a6d740020000,449c1008a4c30230de74da0a8081e4f350148ddb60030000,4b9c3001692702e0e874da0a6bd6d5f1501473d9c0020000,849c1008fd620940e533a80b580fbdd7511805bde0020000,8b9c3001755007501934a80bedf58588711876bc60020000,a49c10083babfe1f411ae0093b645898201c7cdde0030000,ab9c300176f6fe2f3e1ae009f6ef4e9e201c14db80030000,e49c100806a20cf03268c70b59b13dc34002ba6660030000,eb9c300106d809b08268c70bfa008df85102d56560020000,449d10089466000049d3060affaae8fe2011e4dee0030000,4b9d3001ee4f00404dd3060ab9d77c8a2011f3da80030000,649d1008ab83f18f089cda0a3607cbf33008b5df80030000,6b9d300161b6f4cf3a9cda0a12fe159e310814db80020000,849d10185f34f30f58442f0b7fd22ebc40011ce080030000,8b9d30118f07f68f70442f0b02bec0f24101f3daa0020000,a49d1008bf10f1bf33a3270b88ee31c13009b9df80030000,ab9d3001d45cf43f6da3270b0c9ba8f63109e3da80020000,049e111853650c408f29210bd0388a93312be4a7600f0000,0b9eb11026a409f0e329210b220addb9142bfaa6c00d0000,249e1118ce26ffdf30d95109170258c62030fdd9c01f0000,2b9eb1101157ff7f56d95109ae447da80430fdd9001e0000,649e1108ffa6f0bfb100210acae53ac0212ffcd9a0030000,6b9eb1101910f4bf0a01210a22b42dc0152ffdd980010000,a49e11187f04fdef23f59309498fe297203afdd9c02f0000,ab9eb1002aaefddf34f59309fdce5a84153afdd9a02d0000,c49e111817360e0060e1a40a85aa85e43131fdd9a01b0000,cb9eb1009f0d0bc093e1a40a129fd9f805316bd7a0190000,049f11182b870390266a0a0b4f2a669f422afdd940230000,0b9fb10077be0250626a0a0b2f6c16c3352a0cae60210000,249f11085991f52fa97d7b0a5f6b45fe5239fdd940270000,2b9fb110d2e2f72fd07d7b0ad69be08c1439fdd9e0250000,449f1118b79406f08fc73f0a66a542a9303bfdd9c0130000,4b9fb110561e0570ccc73f0a022150ae033bfdd960120000*3372bc29
#BESTXYZA,COM1,0,56.0,FINESTEERING,1761,317095.000,00000000,d821,9570;SOL_COMPUTED,SINGLE,423321.4459,-5361646.5836,3417281.5071,1.3600,2.2253,1.6352,SOL_COMPUTED,DOPPLER_VELOCITY,0.0153,0.0270,-0.0112,0.1626,0.2660,0.1954,"",0.150,0.000,0.000,18,18,0,0,0,06,0,33*b82c84d0
#RANGECMPA,COM1,0,52.0,FINESTEERING,1761,317096.000,00000000,9691,9570;36,049c101890fb0af01eeb3e0aebe60fda200462e0c0030000,0b9c3011d58e08f038eb3e0ab098c6ed300434dbe0020000,249c10084b0afdafae92b20b5831edd0502060d840030000,2b9c300193b1fd2fc992b20ba32437836220c6d740020000,449c10083ac30280a970da0acf44e7f35014addb60030000,4b9c300116270220b470da0a91fdd7f1511493d9c0020000,849c1008d46209209b25a80b3572c6d7611825bdc0020000,8b9c300155500740cf25a80b4a468d88711896bc60020000,a49c100809abfeff471ce0095d0f5798201c9cdde0030000,ab9c30014ff6fe1f451ce0095ae64d9e201c34db80030000,e49c1008eda10cc0f754c70b74534ac34002da6660030000,eb9c3001f2d709004755c70b0dd996f85102f56540020000,449d100871660000add2060a8a11e9fe201104dfe0030000,4b9d3001d34f0020b1d2060aa0277d8a201113db80030000,649d1008a383f11f16b2da0ac38abcf33008d5df60030000,6b9d30015bb6f47f48b2da0a60b40a9e310834dbc0020000,849d10183b34f3ffd2572f0bb90622bc30013ce080030000,8b9d30117307f67feb572f0b77c5b6f2410113dba0020000,a49d1008cd10f10ff0b9270b4bff22c13009d9df80030000,ab9d3001df5cf4af29ba270beaf79cf6410903dba0020000,049e11184b650c00fa16210b119e9693412b04a8600f0000,0b9eb11020a409904e17210b35aee6b9152b1aa7c00d0000,249e11180326ffbf76da5109722857c620301ddac01f0000,2b9eb1107356ff3f9cda5109679b7ca804301ddae01d0000,649e1108d1a6f07fba17210aae8c2bc0312f1cdaa0030000,6b9eb110f50ff49f1318210a2bc421c0152f1ddaa0010000,a49e11184b04fdaf99f99309a993df97203a1ddae02f0000,ab9eb10000aefd8faaf99309117d5884153a1ddaa02d0000,c49e1118a4350ee017cca40a5fe093e431311ddaa01b0000,cb9eb100460d0b904bcca40a83ace4f805318bd7a0190000,049f1118aa860340df640a0b47b1699f522a1dda20230000,0b9fb10013be02401b650a0b7c2a19c3352a2cae60210000,249f11088f91f59f448d7b0abffc3afe52391dda40270000,2b9fb110fce2f7af6b8d7b0aaf7ed88c14391ddac0250000,449f111896940650b3bd3f0a033a49a9303b1ddac0130000,4b9fb1103c1e05b0efbd3f0a423f55ae033b1dda60120000*0e17f0ca
#BESTXYZA,COM1,0,52.0,FINESTEERING,1761,317096.000,00000000,d821,9570;SOL_COMPUTED,SINGLE,423321.4451,-5361646.5919,3417281.5149,1.3601,2.2253,1.6352,SOL_COMPUTED,DOPPLER_VELOCITY,0.0150,0.0037,-0.0064,0.1626,0.2660,0.1954,"",0.150,0.000,0.000,18,18,0,0,0,06,0,33*7494203f
#RANGECMPA,COM1,0,52.0,FINESTEERING,1761,317097.000,00000000,9691,9570;36,049c101849fb0a1067da3e0a44e21ada200482e0c0030000,0b9c30119e8e082081da3e0a5627cfed200454dbe0020000,249c10089809fdbf3097b20b423bead0402080d860030000,2b9c300108b1fd5f4b97b20becd534835220e6d720020000,449c1008bac20270756cda0aa807eaf35014cddb80030000,4b9c3001b2260240806cda0a5b24daf15114b3d9c0020000,849c10082e6209905117a80bb1d4cfd7611845bdc0020000,8b9c3001d44f07708517a80b5b9694887118b6bc80020000,a49c1008baaafe5f4f1ee0092eba5598201cbcdde0030000,ab9c300112f6fe8f4c1ee0097fdc4c9e201c54db80030000,e49c100841a20c70bc41c70b8ff556c34002fa6660030000,eb9c300134d809900b42c70b21b1a0f85102156660020000,449d10088266000011d2060a0778e9fe201124dfe0030000,4b9d3001e04f001015d2060a7b777d8a201133dba0030000,649d10086983f1ef23c8da0a300eaef33008f5df80030000,6b9d30012eb6f46f56c8da0a966aff9d310854dba0020000,849d10182634f31f4e6b2f0bde3a15bc30015ce080030000,8b9d30116207f69f666b2f0bd9ccacf2410133db80020000,a49d1008d710f15facd0270b151014c13009f9df80030000,ab9d3001e75cf4ffe5d0270bcd5491f6310923dba0020000,049e111825650ce06404210b3e03a393412b24a8600f0000,0b9eb11002a40960b904210b3a52f0b9142b3aa7c00d0000,249e11183225ffdfbddb5109fb4d56c630303ddac01f0000,2b9eb110d155ff3fe3db51097cf17ba804303dda001e0000,649e11086ea6f0afc32e210a3c331cc0312f3cdaa0030000,6b9eb110a80ff4ef1c2f210af1d315c0152f3dda80010000,a49e11183a04fd9f0ffe9309e097dc97203a3ddac02f0000,ab9eb100f3adfd7f20fe9309032b5684153a3ddaa02d0000,c49e11185e350e60d0b6a40ad815a2e431313ddaa01b0000,cb9eb100100d0bd003b7a40aa7b9eff80531abd7a0190000,049f1118558603b0985f0a0ba7376d9f522a3dda20230000,0b9fb100d1bd02f0d45f0a0b53e81bc3352a4cae40210000,249f11089791f5bfdf9c7b0a3e8e30fe52393dda40270000,2b9fb11003e3f72f079d7b0aa161d08c14393ddae0250000,449f11185c9406e0d6b33f0a69ce4fa9203b3ddac0130000,4b9fb1100f1e052013b43f0a575d5aae033b3dda40120000*61bac7db
#BESTXYZA,COM1,0,52.0,FINESTEERING,1761,317097.000,00000000,d821,9570;SOL_COMPUTED,SINGLE,423321.4438,-5361646.5964,3417281.5193,1.3602,2.2253,1.6352,SOL_COMPUTED,DOPPLER_VELOCITY,-0.0009,-0.0206,-0.0070,0.1626,0.2660,0.1954,"",0.150,0.000,0.000,18,18,0,0,0,06,0,33*e3aa8c94
#RANGECMPA,COM1,0,55.5,FINESTEERING,1761,317098.000,00000000,9691,9570;36,049c1018affa0ae0afc93e0a31dd25da2004a2e0c0030000,0b9c3011268e08f0c9c93e0aaab5d7ed200474dbe0020000,249c10081009fd9fb39bb20ba944e7d04020a0d860030000,2b9c30019eb0fd2fce9bb20bcf863283522006d820020000,449c1008f6c102404268da0afcc9ecf35014eddb60030000,4b9c3001192602f04c68da0abe4adcf15114d3d9c0020000,849c1008276209700809a80bcc36d9d7611865bda0020000,8b9c3001cf4f07603c09a80b1ee69b887118d6bc80020000,a49c100826aafe6f5720e00997645498201cdcdde0030000,ab9c30019ef5fe9f5420e00953d24b9e201c74db80030000,e49c1008dba10c60812ec70b829763c340021a6760030000,eb9c3001e4d70930d02ec70b1589aaf85102356680020000,449d10083666004075d1060a5adee9fe201144dfe0030000,4b9d3001a54f005079d1060a36c77d8a201153db80030000,649d10081b83f1ff31deda0a6a919ff3300815e080030000,6b9d3001f1b5f4af64deda0aa520f49d310874dba0020000,849d1018df33f35fc97e2f0bdf6e08bc30017ce080030000,8b9d30112b07f6efe17e2f0b21d4a2f2410153db80020000,a49d10089110f1bf68e7270bcf2005c1300919e080030000,ab9d3001b05cf47fa2e7270ba3b185f6310943dba0020000,049e1118b2640cd0cff1200b4368af93412b44a8600f0000,0b9eb110a8a3096024f2200b20f6f9b9152b5aa7c00d0000,249e11182824ff4f06dd51099f7255c620305ddac01f0000,2b9eb1100255ff8f2bdd5109e0467ba804305dda001e0000,649e1108f1a5f09fcd45210a5ed90cc0212f5cdac0030000,6b9eb110470ff4df2646210a63e309c0152f5dda80010000,a49e1118d703fd0f86029409d69bd997203a5ddac02f0000,ab9eb100a6adfddf96029409c4d85384153a5ddaa02d0000,c49e1118ce340e7089a1a40ae84ab0e431315ddaa01b0000,cb9eb100a00c0b00bda1a40a7ac6faf80531cbd7a0190000,049f111842850320535a0a0b59bd709f622a5dda00230000,0b9fb100fbbc02a08f5a0a0ba2a51ec3362a6cae40210000,249f11088891f5ef7aac7b0ac71f26fe52395dda40270000,2b9fb110f7e2f79fa2ac7b0a9b44c88c14395ddae0250000,449f1118de930600fba93f0a836256a9203b5ddac0130000,4b9fb110ad1d052037aa3f0a327b5fae033b5dda60120000*01132680
#BESTXYZA,COM1,0,55.5,FINESTEERING,1761,317098.000,00000000,d821,9570;SOL_COMPUTED,SINGLE,423321.4402,-5361646.5931,3417281.5221,1.3602,2.2254,1.6353,SOL_COMPUTED,DOPPLER_VELOCITY,-0.0239,0.0218,0.0031,0.1626,0.2660,0.1955,"",0.150,0.000,0.000,18,18,0,0,0,06,0,33*321f5b80
#RANGECMPA,COM1,0,58.0,FINESTEERING,1761,317099.000,00000000,9691,9570;36,049c101866fa0a40f9b83e0abdd730da2004c2e0c0030000,0b9c3011ed8d086013b93e0ab243e0ed200494dbe0020000,249c10089108fd5f37a0b20b824de4d04020c0d840030000,2b9c30013bb0fdef51a0b20b43373083522026d840020000,449c100885c102d00f64da0ace8beff350140ddc60030000,4b9c3001c12502701a64da0abb70def15114f3d9a0020000,849c10088f610940c0faa70b7c98e2d7711885bda0020000,8b9c3001584f0720f4faa70b9035a3888118f6bc60020000,a49c1008f3a9feff5f22e009a10e5398201cfcdde0030000,ab9c300177f5fe4f5d22e009ddc74a9e201c94db80030000,e49c1008fea10c70461bc70b693970c350023a6760030000,eb9c3001fed709f0941bc70b0261b4f85102556660020000,449d10082e6600c0d9d0060a8d44eafe201164dfe0030000,4b9d30019f4f00c0ddd0060ad9167e8a201173db80030000,649d1008f182f14f40f4da0a761491f3300835e080030000,6b9d3001d0b5f41f73f4da0a8ed6e89d310894dba0020000,849d1018eb33f3ef44922f0bb2a2fbbb40019ce080030000,8b9d30113407f67f5d922f0b44db98f2410173dba0020000,a49d1008be10f13f25fe270b7f31f6c0300939e080030000,ab9d3001d45cf4ef5efe270b710e7af6410963dba0020000,049e1118d3640cf03adf200b27cdbb93412b64a8600f0000,0b9eb110c2a309b08fdf200bec9903ba142b7aa7c00d0000,249e11186d23ff0f50de5109619654c630307ddac01f0000,2b9eb1107054ff4f75de5109939b7aa804307dda001e0000,649e1108a9a5f01fd85c210a187ffdbf202f7cdac0030000,6b9eb1100f0ff47f315d210a83f2fdbf152f7ddaa0010000,a49e11189f03fdaffc069409909fd697203a7ddac02f0000,ab9eb1007badfdbf0d07940956865184153a7ddaa02d0000,c49e11187b340e10438ca40a8e7fbee431317ddaa01b0000,cb9eb100600c0b80768ca40afbd205f90531ebd7a0190000,049f1118b58403e00e550a0b5e42749f522a7dda00230000,0b9fb1008dbc02804b550a0b6e6221c3352a8cae60210000,249f11089b91f5ff15bc7b0a5cb11bfe41397dda40270000,2b9fb11006e3f7ef3dbc7b0a9d27c08c14397ddac0250000,449f1118c99306901fa03f0a54f65ca9203b7ddac0130000,4b9fb1109c1d05a05ba03f0ad59864ae033b7dda60120000*b1b83d81
#BESTXYZA,COM1,0,58.0,FINESTEERING,1761,317099.000,00000000,d821,9570;SOL_COMPUTED,SINGLE,423321.4440,-5361646.6066,3417281.5292,1.3603,2.2254,1.6353,SOL_COMPUTED,DOPPLER_VELOCITY,-0.0142,0.0039,-0.0002,0.1626,0.2660,0.1955,"",0.150,0.000,0.000,18,18,0,0,0,06,0,33*10c5c16c
#RANGECMPA,COM1,0,57.5,FINESTEERING,1761,317100.000,00000000,9691,9570;36,049c1018b1f90a5043a83e0ac9d13bda2004e2e0c0030000,0b9c3011608d08905da83e0a58d1e8ed2004b4dbe0020000,249c1008e107fd0fbca4b20bbf55e1d04020e0d840030000,2b9c3001b2affdafd6a4b20b3ee72d83522046d820020000,449c1008cec00260de5fda0afe4cf2f350142ddc60030000,4b9c3001332502d0e85fda0a3a96e0f1511413daa0020000,849c10080a6109b078eca70bb0f9ebd77118a5bda0020000,8b9c3001f14e0740aceca70ba284aa88811816bd60020000,a49c100830a9fe5f6924e0092bb85198201c1cdee0030000,ab9c3001dff4fe9f6624e00903bd499e201cb4db80030000,e49c100872a10ce00b08c70b17db7cc340025a6760030000,eb9c300191d709105a08c70bc138bef85102756660020000,449d1008c06500803ed0060a83aaeafe201184dfe0030000,4b9d3001494f008042d0060a4c667e8a201193db80030000,649d10087a82f10f4f0adb0a3b9782f3300855e080030000,6b9d300173b5f4df810adb0a418cdd9d3108b4dba0020000,849d10186933f3dfc0a52f0b47d6eebb4001bce080030000,8b9d3011cf06f66fd9a52f0b36e28ef2510193dba0020000,a49d10084110f1efe114280b0542e7c0300959e080030000,ab9d3001725cf4df1b15280b1e6b6ef6310983dba0020000,049e111864640c70a6cc200bcd31c893412b84a8600f0000,0b9eb1106ba30910fbcc200b883d0dba152b9aa7a00d0000,249e11183322ff4f9bdf510928b953c620309ddac01f0000,2b9eb1107c53ff5fc0df510983ef79a804309dda001e0000,649e1108dca4f05fe373210a4f24eebf202f9cdac0030000,6b9eb110700ef4bf3c74210a3e01f2bf152f9dda80010000,a49e11181f03fdef730b9409f4a2d397203a9ddac02f0000,ab9eb10017adfddf840b9409a4334f84153a9ddaa02d0000,c49e11189d330e90fd76a40aabb3cce431319ddaa01b0000,cb9eb100b30b0be03077a40a11df10f905310bd8c0190000,049f1118808303b0cb4f0a0ba2c6779f622a9dda00230000,0b9fb1009cbb029008500a0ba41e24c3352aacae60210000,249f11085091f52fb1cb7b0add4211fe41399dda40270000,2b9fb110cbe2f75fd9cb7b0a8f0ab88c14399ddac0250000,449f1118259306b044963f0ac18963a9203b9ddac0130000,4b9fb1101d1d05a080963f0a28b669ae033b9dda60120000*62d4de60
#BESTXYZA,COM1,0,57.5,FINESTEERING,1761,317100.000,00000000,d821,9570;SOL_COMPUTED,SINGLE,423321.4438,-5361646.6177,3417281.5380,1.3604,2.2254,1.6353,SOL_COMPUTED,DOPPLER_VELOCITY,-0.0103,0.0200,0.0055,0.1626,0.2660,0.1955,"",0.150,0.000,0.000,18,18,0,0,0,06,0,33*7dd9056c
#RANGECMPA,COM1,0,54.0,FINESTEERING,1761,317101.000,00000000,9691,9570;36,049c101870f90a308e973e0a5dcb46da200402e1c0030000,0b9c30112c8d0870a8973e0aa05ef1ed2004d4dbe0020000,249c10084f07fd8f41a9b20b5d5dded0502000d940030000,2b9c300140affd6f5ca9b20bbd962b83522066d840020000,449c10082ec002c0ad5bda0a960df5f340144ddc60030000,4b9c3001b6240220b85bda0a42bbe2f1411433daa0020000,849c1008a16009c031dea70b655af5d77118c5bda0020000,8b9c30019f4e074065dea70b4fd3b188921836bd40020000,a49c1008e3a8fe5f7326e0093e615098201c3cdee0030000,ab9c3001a3f4feaf7026e009ccb1489e201cd4db80030000,e49c10088ba10c90d1f4c60b9c7c89c340027a6760030000,eb9c3001a6d709701ff5c60b6010c8f85102956660020000,449d1008ad6500b0a3cf060a4110ebfe2011a4dfe0030000,4b9d30013a4f00a0a7cf060a93b57e8a2011b3db80030000,649d10087e82f13f5e20db0abe1974f3300875e080030000,6b9d300176b5f42f9120db0ac141d29d3108d4dba0020000,849d10185833f31f3db92f0ba509e2bb4001dce080030000,8b9d3011c206f6bf55b92f0bfee884f24101b3dba0020000,a49d10086a10f1bf9e2b280b7352d8c0400979e080030000,ab9d3001925cf4dfd82b280bb8c762f64109a3dba0020000,049e11188f640c6012ba200b3e96d493412ba4a8600f0000,0b9eb1108da309e066ba200bfce016ba152bbaa7c00d0000,249e11187121ffffe7e05109fdda52c62030bddac01f0000,2b9eb110e552ffcf0ce15109b74279a80430bddae01d0000,649e1108a3a4f05fef8a210a0bc9debf202fbcdac0030000,6b9eb110440ef4bf488b210a970fe6bf152fbdda80010000,a49e1118e002fd8feb0f94090da6d097203abddac02f0000,ab9eb100e6acfd8ffc0f9409b8e04c84153abddac02d0000,c49e11185c330ef0b861a40a3ce7dae43131bddaa01b0000,cb9eb100800b0b30ec61a40abbea1bf905312bd8c0190000,049f1118758303a0894a0a0b2a4a7b9f622abdda00230000,0b9fb10093bb02a0c64a0a0b49da26c3352accae40210000,249f11087891f57f4cdb7b0a57d406fe4139bdda40270000,2b9fb110ebe2f7af74db7b0a7cedaf8c1539bddac0250000,449f1118d29206506a8c3f0ad01c6aa9303bbddac0130000,4b9fb110dc1c0530a68c3f0a34d36eae033bbdda40120000*4ba65ce1
#BESTXYZA,COM1,0,54.0,FINESTEERING,1761,317101.000,00000000,d821,9570;SOL_COMPUTED,SINGLE,423321.4473,-5361646.6201,3417281.5451,1.3604,2.2254,1.6354,SOL_COMPUTED,DOPPLER_VELOCITY,-0.0175,0.0128,-0.0120,0.1626,0.2660,0.1955,"",0.150,0.000,0.000,18,18,0,0,0,06,0,33*05483ffb
#RANGECMPA,COM1,0,54.0,FINESTEERING,1761,317102.000,00000000,9691,9570;36,049c1018dff80ab0d9863e0a86c451da200422e1c0030000,0b9c3011bb8c08f0f3863e0a93ebf9ed2004f4dbe0020000,249c10086d06fdefc7adb20b7364dbd0402020d940030000,2b9c300190aefdafe2adb20bd2452983522086d820020000,449c1008c2bf02f07d57da0aa7cdf7f340146ddc60030000,4b9c3001622402408857da0ae2dfe4f1411453daa0020000,849c1008cb5f0970ebcfa70bb1bafed77118e5bda0020000,8b9c3001f84d07e01ed0a70ba921b988811856bd60020000,a49c10085ca8fe0f7e28e009ed094f98201c5cdee0030000,ab9c300139f4fe6f7b28e00947a6479e201cf4db80030000,e49c100845a10c5097e1c60b071e96c340029a6760030000,eb9c30016ed70910e5e1c60bebe7d1f84102b56660020000,449d10087265001009cf060adb75ebfe2011c4dfe0030000,4b9d30010c4f00f00ccf060abe047f8a2011d3db80030000,649d10081c82f1bf6d36db0a089c65f3300895e080030000,6b9d30012ab5f4bfa036db0a15f7c69d3108f4dba0020000,849d10182233f39fb9cc2f0bd33cd5bb4001fce080030000,8b9d30119806f62fd2cc2f0ba2ef7af24101d3dba0020000,a49d10082b10f1bf5b42280bca62c9c0300999e080030000,ab9d3001615cf40f9642280b412457f64109c3db80020000,049e11181e640c807ea7200b80fae093412bc4a8600f0000,0b9eb11035a30920d3a7200b4a8420ba152bdaa7a00d0000,249e11186920ffff35e25109e8fb51c62030dddac01f0000,2b9eb1101852ffbf5ae25109369578a80430dddae01d0000,649e1108f7a3f0fffba1210a546dcfbf202fdcdac0030000,6b9eb110be0df46f55a2210a981ddabf152fddda80010000,a49e11189a02fd8f63149409e9a8cd97203adddac02f0000,ab9eb100b0acfd9f741494099d8d4a84153adddac02d0000,c49e1118c7320e00754ca40a541ae9e43131dddaa01b0000,cb9eb100090b0b50a84ca40a06f626f905314bd8c0190000,049f1118988203c048450a0bf9cc7e9f622addda20230000,0b9fb100e7ba02a085450a0b5e9529c3352aecae60210000,249f11085d91f5bfe7ea7b0ad265fcfd4139ddda40270000,2b9fb110d6e2f70f10eb7b0a6bd0a78c1439dddac0250000,449f11188392067090823f0a8faf70a9203bdddac0130000,4b9fb1109f1c0530cc823f0a01f073ae033bddda60120000*500033fe
#BESTXYZA,COM1,0,54.0,FINESTEERING,1761,317102.000,00000000,d821,9570;SOL_COMPUTED,SINGLE,423321.4459,-5361646.6147,3417281.5522,1.3605,2.2254,1.6354,SOL_COMPUTED,DOPPLER_VELOCITY,0.0037,-0.0229,0.0031,0.1626,0.2660,0.1955,"",0.150,0.000,0.000,18,18,0,0,0,06,0,33*4907181d
#RANGECMPA,COM1,0,59.0,FINESTEERING,1761,317103.000,00000000,9691,9570;36,049c10189ff80af025763e0a2abd5cda200442e1c0030000,0b9c3011898c083040763e0a207802ee200414dce0020000,249c10081b06fd4f4fb2b20bde6ad8d0402040d940030000,2b9c300151aefd1f6ab2b20b60f426835220a6d840020000,449c100839bf02304f53da0a0c8dfaf340148ddc60030000,4b9c3001f72302905953da0afa03e7f1401473dac0020000,849c1008755f09e0a5c1a70b771a08d8711805bea0020000,8b9c3001b54d0780d9c1a70b9d6fc088811876bd80020000,a49c100812a8fe7f892ae00915b24d98201c7cdee0030000,ab9c300100f4feef862ae0095a9a469e201c14dc80030000,e49c100850a10c805dcec60b39bfa2c34002ba6760030000,eb9c300178d709b0aacec60b49bfdbf84102d56660020000,449d1008646500d06ece060a2edbebfe2011e4dfe0030000,4b9d3001014f00b072ce060ab3537f8a2011f3dba0030000,649d10080782f1bf7d4cdb0a011e57f33008b5e080030000,6b9d30011ab5f4cfb04cdb0a29acbb9d310814dca0020000,849d1018f732f39f36e02f0bb86fc8bb40011ce180030000,8b9d30117606f60f4fe02f0b0df670f24101f3dba0020000,a49d10085410f10f1959280bf572bac04009b9e080030000,ab9d3001805cf47f5359280ba9804bf64109e3dba0020000,049e111805640c10eb94200b7a5eed93412be4a8600f0000,0b9eb11021a309a03f95200b61272aba142bfaa7c00d0000,249e1118961fff7f85e35109ce1b51c62030fddac01f0000,2b9eb1107451ff4faae35109e9e677a80430fdda001e0000,649e1108aba3f07f09b9210a1111c0bf202ffcdac0030000,6b9eb110830df4df62b9210a2d2bcebf152ffdda60010000,a49e11187302fd1fdc1894096babca97203afddac02f0000,ab9eb10091acfd1fed1894093b3a4884153afddac02d0000,c49e111875320ee03137a40ae44cf7e42131fddaa01b0000,cb9eb100cd0a0b206537a40ae60032f905316bd8a0190000,049f1118bf81031009400a0bf44e829f522afdda20230000,0b9fb1003eba02e045400a0bce4f2cc3452a0caf60210000,249f11088991f50f83fa7b0a36f7f1fd4139fdda40270000,2b9fb110f8e2f76fabfa7b0a46b39f8c1439fddac0250000,449f11184f920640b7783f0adf4177a9203bfddac0130000,4b9fb110761c05f0f2783f0a770c79ae033bfdda40120000*0b37e1c6
#BESTXYZA,COM1,0,59.0,FINESTEERING,1761,317103.000,00000000,d821,9570;SOL_COMPUTED,SINGLE,423321.4408,-5361646.6139,3417281.5605,1.3605,2.2255,1.6354,SOL_COMPUTED,DOPPLER_VELOCITY,-0.0027,-0.0213,-0.0053,0.1626,0.2660,0.1955,"",0.150,0.000,0.000,18,18,0,0,0,06,0,33*705bde31
#RANGECMPA,COM1,0,57.5,FINESTEERING,1761,317104.000,00000000,9691,9570;36,049c101802f80ad072653e0a70b567da200462e1c0030000,0b9c30110f8c08008d653e0a63040bee200434dce0020000,249c1008ab05fd6fd7b6b20bca70d5d0402060d960030000,2b9c3001f9adfd5ff2b6b20b8ca224835220c6d840020000,449c1008b1be0230214fda0af94bfdf34014addc60030000,4b9c30018d2302802b4fda0ab627e9f1401493dac0020000,849c1008545f09f060b3a70bdd7911d8711825bea0020000,8b9c30019c4d079094b3a70b43bdc788811896bd60020000,a49c1008a5a7fe6f952ce009e4594c98201c9cdee0030000,ab9c3001abf3feff922ce009278e459e201c34dc80030000,e49c1008f1a00cb023bbc60b5b60afc34002da6760030000,eb9c30012ed709b070bbc60b9996e5f85102f56660020000,449d10082e6500d0d4cd060a6a40ecfe201104e0e0030000,4b9d3001d74e0090d8cd060a95a27f8a201113dca0030000,649d1008a481f10f8e62db0ad39f48f33008d5e080030000,6b9d3001cdb4f40fc162db0a1e61b09d310834dc80020000,849d1018b532f3bfb3f32f0b80a2bbbb40013ce180030000,8b9d30114306f64fccf32f0b60fc66f2410113dc80020000,a49d10084010f14fd66f280b1f83abc04009d9e080030000,ab9d3001715cf4df1070280b11dd3ff6410903dca0020000,049e1118c4630cf05782200b59c2f993412b04a9600f0000,0b9eb110efa20930ac82200b61ca33ba152b1aa8c00d0000,249e11189f1eff5fd6e45109db3a50c620301ddbc01f0000,2b9eb110b450ffdffae45109f33777a804301ddbe01d0000,649e110823a3f0af17d0210a69b4b0bf202f1cdbc0030000,6b9eb110190df41f71d0210a7438c2bf152f1ddb80010000,a49e11182002fddf541d9409baadc797203a1ddbc02f0000,ab9eb10051acfdff651d9409b1e64584153a1ddba02d0000,c49e1118e7310e60ef21a40a1a7f05e521311ddba01b0000,cb9eb1005e0a0b702222a40a810b3df905318bd8a0190000,049f111800810360ca3a0a0b4fd0859f422a1ddb40230000,0b9fb100a9b90210073b0a0bc3092fc3452a2caf60210000,249f11088791f53f1e0a7c0aab88e7fd41391ddb40270000,2b9fb110f6e2f7cf460a7c0a2f96978c14391ddbc0250000,449f1118ef910680de6e3f0aedd37da9203b1ddbc0130000,4b9fb1102c1c05f0196f3f0ab9287eae033b1ddb60120000*69062923
#BESTXYZA,COM1,0,57.5,FINESTEERING,1761,317104.000,00000000,d821,9570;SOL_COMPUTED,SINGLE,423321.4352,-5361646.6144,3417281.5724,1.3606,2.2255,1.6355,SOL_COMPUTED,DOPPLER_VELOCITY,-0.0015,0.0052,0.0106,0.1626,0.2660,0.1955,"",0.150,0.000,0.000,18,18,0,0,0,06,0,33*195a278e
#RANGECMPA,COM1,0,53.5,FINESTEERING,1761,317105.000,00000000,9691,9570;36,049c10187ef70a60c0543e0a39ad72da200482e1e0030000,0b9c3011a88b08a0da543e0a459013ee200454dce0020000,249c10080605fd9f60bbb20b1176d2d0502080d960030000,2b9c300178adfd3f7bbbb20b395022836220e6d840020000,449c100813be0220f44ada0a460a00f44014cddc60030000,4b9c300112230250fe4ada0af54aebf14014b3dac0020000,849c1008de5e09d01ca5a70bbbd81ad8711845bea0020000,8b9c3001404d077050a5a70b810acf888118b6bd60020000,a49c10080ca7fe2fa22ee00936014b98201cbcdee0030000,ab9c300134f3febf9f2ee0099281449e201c54dc80030000,e49c1008dda00c20eaa7c60b5001bcc34002fa6760030000,eb9c30011ed709d036a8c60bc86deff85102156760020000,449d1008e66400203bcd060a67a5ecfe201124e0e0030000,4b9d30019f4e00e03ecd060a46f17f8a201133dca0030000,649d10085281f1bf9e78db0a5c213af33008f5e080030000,6b9d30018db4f4cfd178db0ada15a59d310854dca0020000,849d10185f32f33f3107300b05d5aebb40015ce180030000,8b9d30110006f6df4907300b7f025df2410133dc80020000,a49d1008eb0ff1cf9386280b22939cc03009f9e080030000,ab9d30012f5cf44fce86280b583934f6410923dca0020000,049e11186e630c00c56f200bfb250694312b24a9800f0000,0b9eb110aca209201970200b326d3dba152b3aa8a00d0000,249e11187b1dffbf28e65109e8584fc620303ddbe01f0000,2b9eb110d04fffff4ce65109358876a804303ddbe01d0000,649e110892a2f08f26e7210a3c57a1bf302f3cdbc0030000,6b9eb110a80cf40f80e7210a5245b6bf152f3ddb80010000,a49e1118e901fd3fce219409b4afc497203a3ddbc02f0000,ab9eb10026acfd3fdf219409e6924384153a3ddba02d0000,c49e11183d310eb0ad0ca40ab7b013e530313ddbc01b0000,cb9eb100da090bb0e00ca40aa51548f90431abd8c0190000,049f1118448003c08c350a0be750899f412a3ddb60230000,0b9fb10017b90260c9350a0b1cc331c3452a4caf40210000,249f11086c91f57fb9197c0a141addfd41393ddb60270000,2b9fb110e1e2f73fe2197c0a10798f8c15393ddbc0250000,449f11187891065006653f0a966584a9203b3ddbe0130000,4b9fb110cf1b05b041653f0aad4483ae033b3ddb60120000*fe3709d7
#BESTXYZA,COM1,0,53.5,FINESTEERING,1761,317105.000,00000000,d821,9570;SOL_COMPUTED,SINGLE,423321.4322,-5361646.6117,3417281.5781,1.3606,2.2255,1.6355,SOL_COMPUTED,DOPPLER_VELOCITY,-0.0129,0.0275,-0.0012,0.1626,0.2660,0.1955,"",0.150,0.000,0.000,18,18,0,0,0,06,0,33*926fbb97
#RANGECMPA,COM1,0,53.5,FINESTEERING,1761,317106.000,00000000,9691,9570;36,049c101827f70ac00e443e0a7ca47dda2004a2e1c0030000,0b9c3011648b081029443e0abe1b1cee200474dce0020000,249c10087604fdafeabfb20bb57acfd04020a0d960030000,2b9c300109adfd2f05c0b20b65fd1f83522006d920020000,449c10088cbd0200c846da0aeec702f44014eddc80030000,4b9c3001a9220210d246da0ab46dedf14014d3dac0020000,849c1008fe5d0990d996a70b0d3724d8611865bea0020000,8b9c3001924c07300d97a70b5157d6887118d6bd60020000,a49c1008a5a6feafaf30e00907a84998201cdcdee0030000,ab9c3001e3f2fe3fad30e0099974439e201c74dc80030000,e49c1008aca00cf0b094c60b08a2c8c340021a6860030000,eb9c3001f8d60940fd94c60bc744f9f85102356760020000,449d1008cb6400d0a1cc060a230aedfe201144e0e0030000,4b9d30018a4e0090a5cc060ac43f808a201153dca0030000,649d10085c81f1efaf8edb0a97a22bf3300815e180030000,6b9d300194b4f4efe28edb0a59ca999d410874dca0020000,849d10184032f31faf1a300b4307a2bb40017ce180030000,8b9d3011e805f6ffc71a300b680853f2410153dc80020000,a49d1008f00ff18f519d280bfaa28dc0400919e180030000,ab9d3001335cf40f8c9d280b7e9528f6410943dca0020000,049e111879630c90325d200b5c891294412b44a9600f0000,0b9eb110b4a20980865d200bd00f47ba152b5aa8a00d0000,249e1118c91cff7f7ce75109f4754ec620305ddbe01f0000,2b9eb110464fffbfa0e75109b0d775a804305ddb001e0000,649e110833a2f02f36fe210a83f991bf202f5cdbc0030000,6b9eb1105f0cf4bf8ffe210ac351aabf152f5ddb80010000,a49e1118a801fdff4726940953b1c197203a5ddbc02f0000,ab9eb100f3abfd1f59269409d23e4184153a5ddba02d0000,c49e1118dc300ec06cf7a30ac1e121e531315ddbc01b0000,cb9eb1008f090bd09ff7a30a571f53f90431cbd8c0190000,049f11188d7f037050300a0bafd08c9f412a5ddb60230000,0b9fb10089b802c08c300a0bd37b34c3452a6caf60210000,249f11087c91f5cf54297c0a67abd2fd41395ddb60270000,2b9fb110eee2f79f7d297c0ae05b878c15395ddba0250000,449f11183a9106c02e5b3f0ad6f68aa9203b5ddbe0130000,4b9fb1109f1b05f0695b3f0a4f6088ae033b5ddb60120000*d4ff9714
#BESTXYZA,COM1,0,53.5,FINESTEERING,1761,317106.000,00000000,d821,9570;SOL_COMPUTED,SINGLE,423321.4346,-5361646.6129,3417281.5868,1.3607,2.2255,1.6355,SOL_COMPUTED,DOPPLER_VELOCITY,0.0169,-0.0169,-0.0073,0.1626,0.2660,0.1955,"",0.150,0.000,0.000,18,18,0,0,0,06,0,33*f39f3fa8
#RANGECMPA,COM1,0,53.5,FINESTEERING,1761,317107.000,00000000,9691,9570;36,049c1018c0f60a905d333e0a6e9b88da2004c2e1c0030000,0b9c3011148b08f077333e0af9a624ee200494dce0020000,249c1008f903fd6f75c4b20bdf7eccd04020c0d960030000,2b9c3001a7acfddf8fc4b20b32aa1d83522026d940020000,449c1008fabc02809c42da0a228505f440140ddd60030000,4b9c300137220280a642da0a1790eff14014f3dac0020000,849c1008ca5d09a09688a70b13952dd8511885bea0020000,8b9c3001694c0790ca88a70be6a3dd886118f6bda0020000,a49c10085da6fe9fbd32e009894e4898201cfcdee0030000,ab9c3001abf2fe3fbb32e0096267429e201c94dc80030000,e49c100878a00cd07781c60bbd42d5c330023a6860030000,eb9c3001d0d609f0c381c60bc41b03f94102556760020000,449d1008a06400a008cc060acc6eedfe201164e0e0030000,4b9d3001684e00500ccc060a358e808a201173dca0030000,649d10080481f13fc1a4db0ab4231df3300835e180030000,6b9d300151b4f43ff4a4db0ac27e8e9d410894dca0020000,849d10180432f32f2d2e300b6a3995bb40019ce180030000,8b9d3011b905f60f462e300b3c0e49f2410173dca0020000,a49d1008e80ff12f0fb4280bd9b27ec0400939e180030000,ab9d30012d5cf4cf49b4280ba8f11cf6410963dc80020000,049e11183a630c10a04a200ba5ec1e94412b64a9600f0000,0b9eb11083a20910f44a200b5eb250ba152b7aa8a00d0000,249e1118b81bff9fd1e851092b924dc620307ddbc01f0000,2b9eb110724effaff5e85109872675a804307ddbe01d0000,649e1108ada1f06f4615220a6f9b82bf202f7cdbc0030000,6b9eb110f60bf40fa015220aef5d9ebf152f7ddb80010000,a49e11185f01fdefc12a9409c8b2be97203a7ddbc02f0000,ab9eb100bcabfd5fd32a94099fea3e84153a7ddba02d0000,c49e111874300e702ce2a30a6c1230e531317ddba01b0000,cb9eb1003e090b605fe2a30ac0285ef90531ebd8a0190000,049f1118ed7e0300152b0a0be64f909f512a7ddb40230000,0b9fb1000eb80250512b0a0b183437c3452a8caf40210000,249f11084e91f53ff0387c0ad63cc8fd41397ddb40270000,2b9fb110cae2f7df18397c0ac53e7f8c15397ddba0250000,449f1118eb90069057513f0add8791a9203b7ddbe0130000,4b9fb110611b059092513f0ac67b8dae033b7ddb60120000*95269412
#BESTXYZA,COM1,0,53.5,FINESTEERING,1761,317107.000,00000000,d821,9570;SOL_COMPUTED,SINGLE,423321.4298,-5361646.6057,3417281.5911,1.3608,2.2255,1.6356,SOL_COMPUTED,DOPPLER_VELOCITY,0.0106,-0.0165,0.0106,0.1626,0.2660,0.1955,"",0.150,0.000,0.000,18,18,0,0,0,06,0,33*c6433a18
#RANGECMPA,COM1,0,54.5,FINESTEERING,1761,317108.000,00000000,9691,9570;36,049c101863f60a00ad223e0afe9193da2004e2e1c0030000,0b9c3011cb8a0870c7223e0ae8312dee2004b4dc00030000,249c10086d03fdff00c9b20b8a82c9d04020e0d960030000,2b9c30013aacfd5f1bc9b20b9d561b83422046d920020000,449c100897bc02c0713eda0ad84108f440142ddd80030000,4b9c3001ea2102d07b3eda0a19b2f1f1401413dbc0020000,849c1008a85d0950547aa70baff236d87118a5bea0020000,8b9c30014f4c07f0877aa70b29f0e488811816be80020000,a49c100801a6fe1fcc34e009acf44698201c1cdfe0030000,ab9c300164f2fecfc934e009e259419e201cb4dc80030000,e49c1008a7a00cc03e6ec60b64e3e1c330025a6860030000,eb9c3001f4d609908a6ec60bb6f20cf94102756760020000,449d10088a6400906fcb060a5ad3edfe101184e0e0030000,4b9d3001574e004073cb060a90dc808a201193dca0030000,649d1008e380f1cfd2badb0aa4a40ef3300855e180030000,6b9d300137b4f4df05bbdb0a0733839d3108b4dca0020000,849d1018f631f37fab41300b6f6b88bb4001bce180030000,8b9d3011ae05f66fc441300bf8133ff2410193dca0020000,a49d1008e30ff1dfccca280bb0c26fc0400959e180030000,ab9d3001295cf49f07cb280bcb4d11f6410983dca0020000,049e111847630cd00d38200bd44f2b94412b84a9600f0000,0b9eb1108ea209c06138200bd5545aba052b9aa8c00d0000,249e11181a1bffef27ea510986ad4cc620309ddbc01f0000,2b9eb110f74dffdf4bea5109b27474a804309ddbe01d0000,649e110861a1f03f572c220af63c73bf202f9cdbc0030000,6b9eb110bb0bf4dfb02c220acb6992bf152f9ddb80010000,a49e11185301fd2f3c2f940907b4bb97203a9ddbc02f0000,ab9eb100b2abfdbf4d2f940941963c84153a9ddba02d0000,c49e11180d300ea0eccca30ab5423ee531319ddba01b0000,cb9eb100ee080b701fcda30adb3169f905310bd9c0190000,049f1118567e0370da250a0b71ce939f412a9ddb40230000,0b9fb10098b702b016260a0bd9eb39c3462aacaf40210000,249f11089191f54f8b487c0a54cebdfd42399ddb40270000,2b9fb110fee2f71fb4487c0ab521778c15399ddb80250000,449f1118af9006c080473f0a9c1898a9203b9ddbc0130000,4b9fb110331b05a0bb473f0a049792ae033b9ddb60120000*e8940620
#BESTXYZA,COM1,0,54.5,FINESTEERING,1761,317108.000,00000000,d821,9570;SOL_COMPUTED,SINGLE,423321.4287,-5361646.6054,3417281.5988,1.3608,2.2255,1.6356,SOL_COMPUTED,DOPPLER_VELOCITY,-0.0074,0.0102,-0.0026,0.1626,0.2660,0.1955,"",0.150,0.000,0.000,18,18,0,0,0,06,0,33*1a07d492
#RANGECMPA,COM1,0,55.0,FINESTEERING,1761,317109.000,00000000,9691,9570;36,049c1018fdf50a30fd113e0a18889eda200402e2c0030000,0b9c30117c8a089017123e0a7abc35ee2004d4dc00030000,249c10082b03fd6f8dcdb20ba085c6d0402000da60030000,2b9c300107acfd9fa7cdb20b93021983522066d900020000,449c10080ebc0200483ada0af9fd0af440144ddd80030000,4b9c30017f210200523ada0aa7d3f3f1411433dba0020000,849c10080b5d09e0126ca70bd14f40d87118c5bea0020000,8b9c3001d44b0770466ca70b0c3cec88811836be80020000,a49c10089aa5fe5fdb36e0095c9a4598201c3cdfe0030000,ab9c300113f2fe0fd936e009094c409e201cd4dc80030000,e49c10088aa00cf0055bc60be283eec340027a6860030000,eb9c3001ded609a0515bc60b88c916f94102956780020000,449d10084a6400e0d6ca060ab537eefe1011a4e0e0030000,4b9d3001264e0090daca060ac22a818a2011b3dca0030000,649d1008ac80f1bfe4d0db0a582500f3300875e180030000,6b9d30010cb4f4cf17d1db0a1de7779d3108d4dca0020000,849d1018ee31f3ff2955300b419d7bbb4001dce180030000,8b9d3011a805f6ff4255300b8c1935f24101b3dc80020000,a49d1008e00ff1bf8ae1280b6cd260c0300979e180030000,ab9d3001275cf4afc5e1280bdda905f64109a3dcc0020000,049e111802630cf07b25200bccb23794412ba4a9400f0000,0b9eb11058a209c0cf25200b24f763ba152bbaa8a00d0000,249e1118031affaf7feb5109ebc74bc62030bddbc01f0000,2b9eb1101e4dff8fa3eb51091cc273a80430bddb001e0000,649e1108dda0f0bf6843220afedd63bf212fbcdbc0030000,6b9eb110550bf46fc243220a447586bf052fbddb80010000,a49e1118ee00fdefb6339409fab4b897203abddbc02f0000,ab9eb10064abfd9fc8339409a8413a84153abddbc02d0000,c49e1118a22f0ea0adb7a30a7a724ce53131bddba01b0000,cb9eb1009a080b60e0b7a30a913a74f905312bd9a0190000,049f1118967d0310a1200a0b484c979f512abddb40230000,0b9fb10003b70270dd200a0b0ca33cc3452accaf60210000,249f11088c91f57f26587c0ac85fb3fd4239bddb40270000,2b9fb110fae2f73f4f587c0a9d046f8c1539bddba0250000,449f11185b900680aa3d3f0a03a99ea9203bbddbc0130000,4b9fb110f11a0550e53d3f0affb197ae033bbddb60120000*4ada4d50
#BESTXYZA,COM1,0,55.0,FINESTEERING,1761,317109.000,00000000,d821,9570;SOL_COMPUTED,SINGLE,423321.4281,-5361646.6017,3417281.6037,1.3609,2.2255,1.6356,SOL_COMPUTED,DOPPLER_VELOCITY,0.0140,0.0368,-0.0195,0.1627,0.2660,0.1955,"",0.150,0.000,0.000,18,18,0,0,0,06,0,33*4665b30d
#RANGECMPA,COM1,0,55.0,FINESTEERING,1761,317110.000,00000000,9691,9570;36,049c101879f50ae04d013e0acd7da9da200422e2c0030000,0b9c3011158a086068013e0abd463eee2004f4dc00030000,249c10084002fdbf1ad2b20b2688c3d0402020da60030000,2b9c30014fabfdcf34d2b20b1bae1683422086d920020000,449c100864bb02001f36da0a93b90df430146ddd80030000,4b9c3001fb2002f02836da0acbf4f5f1411453dba0020000,849c1008825c0910d25da70b83ac49d87118e5bea0020000,8b9c30016a4b07c0055ea70b9987f388811856be60020000,a49c100813a5fe2feb38e009a63f4498201c5cdfe0030000,ab9c3001aaf1feefe838e009de3d3f9e201cf4dc80030000,e49c10084fa00c40cd47c60b4524fbc340029a6860030000,eb9c3001b0d609a01848c60b45a020f94202b56740020000,449d1008236400603eca060aed9beefe2011c4e0e0030000,4b9d3001074e000042ca060ada78818a2011d3dca0030000,649d10084f80f1fff6e6db0ad8a5f1f2300895e180030000,6b9d3001c3b3f41f2ae7db0a0b9b6c9d3108f4dc80020000,849d10187431f3dfa868300be2ce6ebb4001fce180030000,8b9d30114905f6dfc168300bfa1e2bf24101d3dc80020000,a49d1008ab0ff1af48f8280b1be251c0300999e180030000,ab9d3001fd5bf4af83f8280be305faf54109c3dca0020000,049e1118c0620c50ea12200ba2154494412bc4a9400f0000,0b9eb11025a209e03d13200b57996dba152bdaa8a00d0000,249e11180219ffdfd8ec51096ae14ac62030dddbc01f0000,2b9eb110564cff7ffcec5109d50e73a80430dddbe01d0000,649e11085ba0f0ef7a5a220a9c7e54bf202fdcdbc0030000,6b9eb110ef0af4dfd45a220a6c807abf152fdddb80010000,a49e11187500fdef31389409b0b5b597203adddbc02f0000,ab9eb10006abfd9f43389409e0ec3784153adddba02d0000,c49e1118192f0e606fa2a30ad1a15ae53131dddba01b0000,cb9eb10030080b10a2a2a30af1427ff904314bd9c0190000,049f1118c97c03a0681b0a0b73c99a9f422adddb40230000,0b9fb10063b60200a51b0a0bb9593fc3462aecaf40210000,249f11087991f59fc1677c0a45f1a8fd5239dddb40270000,2b9fb110ebe2f73fea677c0a8de7668c1539dddba0250000,449f1118dc8f06a0d4333f0a1d39a5a9203bdddbc0130000,4b9fb1108f1a05600f343f0abccc9cae033bdddb60120000*c0693061
#BESTXYZA,COM1,0,55.0,FINESTEERING,1761,317110.000,00000000,d821,9570;SOL_COMPUTED,SINGLE,423321.4304,-5361646.6019,3417281.6069,1.3609,2.2255,1.6357,SOL_COMPUTED,DOPPLER_VELOCITY,0.0006,-0.0003,-0.0023,0.1627,0.2660,0.1955,"",0.150,0.000,0.000,18,18,0,0,0,06,0,33*f9a1a6c7
#RANGECMPA,COM1,0,55.0,FINESTEERING,1761,317111.000,00000000,9691,9570;36,049c1018f9f40a609ff03d0a0373b4da200442e2c0030000,0b9c3011b18908e0b9f03d0a9dd046ee200414dd00030000,249c10089d01fdffa8d6b20b118ac0d0302040da60030000,2b9c3001d1aafd1fc3d6b20b275914834220a6d920020000,449c1008d5ba02f0f631da0a927410f430148ddd80030000,4b9c30018b2002c00032da0a7815f8f1411473db80020000,849c1008185c0920924fa70bbb0853d8711805bfa0020000,8b9c3001174b07a0c54fa70bc6d2fa88811876be60020000,a49c100895a4feaffb3ae0097ae44298201c7cdfe0030000,ab9c300148f1fe7ff93ae009582f3e9e201c14dd80030000,e49c10081ea00cd09434c60b7ec407c44002ba6860030000,eb9c300189d609e0df34c60be0762af95102d56760020000,449d1008df630040a6c9060ae9ffeefe2011e4e0e0030000,4b9d3001d24d00d0a9c9060ac3c6818a2011f3dca0030000,649d10084180f19f09fddb0a1826e3f23008b5e180030000,6b9d3001b9b3f4cf3cfddb0ac74e619d310814dda0020000,849d10182d31f3ff277c300b4a0062bb40011ce260030000,8b9d30111105f61f417c300b392421f24101f3dc80020000,a49d10087b0ff1ef060f290ba6f142c04009b9e180030000,ab9d3001d85bf4ef410f290bcd61eef54109e3dca0020000,049e111882620c105900200b34785094412be4a9400f0000,0b9eb110f4a10980ac00200b553b77ba152bfaa8a00d0000,249e11181a18ff6f33ee5109eef949c62030fddbc01f0000,2b9eb110a14bffff56ee5109ca5a72a80430fddb001e0000,649e1108ef9ff0df8d71220abb1e45bf212ffcdbc0030000,6b9eb1109a0af40fe871220a328b6ebf152ffddb80010000,a49e11184500fd7fad3c940916b6b297203afddbc02f0000,ab9eb100e0aafd4fbf3c9409da973584153afddba02d0000,c49e1118892e0ec0318da30aa8d068e53131fddba01b0000,cb9eb100c0070b60648da30aed4a8af905316bd9a0190000,049f11180a7c036031160a0bda459e9f422afddb40230000,0b9fb100cfb502906d160a0bcf0f42c3352a0cb040210000,249f11086591f5df5c777c0aba829efd5239fddb20270000,2b9fb110dce2f72f85777c0a76ca5e8c1539fddba0250000,449f1118978f0660ff293f0addc8aba9203bfddbe0130000,4b9fb1105a1a05103a2a3f0a33e7a1ae033bfddb60120000*85b4bca0
#BESTXYZA,COM1,0,55.0,FINESTEERING,1761,317111.000,00000000,d821,9570;SOL_COMPUTED,SINGLE,423321.4345,-5361646.6064,3417281.6104,1.3609,2.2255,1.6357,SOL_COMPUTED,DOPPLER_VELOCITY,0.0023,0.0013,-0.0147,0.1627,0.2660,0.1955,"",0.150,0.000,0.000,18,18,0,0,0,06,0,33*4c3b12e7
