#GPSEPHEMA,COM1,12,79.0,SATTIME,1761,317040.000,00000000,9145,3245;1,317040.0,0,46,46,1761,1761,324000.0,2.656042496e+07,5.016994692e-09,2.202551220e+00,2.4175213184e-03,4.0835285082e-01,-4.284083843e-07,6.416812539e-06,2.55187500e+02,-8.93750000e+00,-7.264316082e-08,2.793967724e-08,9.6044927450e-01,-7.500312418e-12,2.438194543e+00,-8.18712674e-09,46,324000.0,8.381903172e-09,8.32425e-05,3.75167e-12,0.00000,TRUE,1.458583610e-04,4.00000000e+00*485f4924
#GPSEPHEMA,COM1,11,79.0,SATTIME,1761,317040.000,00000000,9145,3245;2,317040.0,0,44,44,1761,1761,324000.0,2.656094866e+07,5.359151802e-09,3.044141497e+00,1.2637993321e-02,-2.553265965e+00,-5.289912224e-07,6.292015314e-06,2.44500000e+02,-8.59375000e+00,-1.117587090e-07,-1.825392246e-07,9.3894420465e-01,6.428839216e-12,2.413612370e+00,-8.20927052e-09,44,324000.0,-1.722946763e-08,4.55135e-04,1.81899e-12,0.00000,TRUE,1.458543895e-04,4.00000000e+00*586930fe
#GPSEPHEMA,COM1,10,79.0,SATTIME,1761,317040.000,00000000,9145,3245;4,317040.0,0,77,77,1761,1761,324000.0,2.655966468e+07,5.572732127e-09,3.6891196644e-02,1.0628628195e-02,1.035272366e+00,-1.545995474e-07,6.178393960e-06,2.47656250e+02,-6.96875000e+00,-6.519258022e-08,1.080334187e-07,9.3798840858e-01,-3.107272288e-11,2.429904002e+00,-8.67286126e-09,77,324000.0,-6.053596735e-09,1.81235e-06,4.54747e-13,0.00000,TRUE,1.458651794e-04,4.00000000e+00*901fe701
#GPSEPHEMA,COM1,9,79.0,SATTIME,1761,316320.000,00000000,9145,3245;7,316320.0,0,48,48,1761,1761,316800.0,2.656026876e+07,4.429470219e-09,6.0180875433e-01,6.9770587143e-03,-2.864033742e+00,4.153698683e-07,2.460554242e-06,3.38687500e+02,7.62500000e+00,1.117587090e-08,1.378357410e-07,9.7482666515e-01,5.714523747e-12,-6.8425508538e-01,-8.40320717e-09,48,316800.0,-1.071020961e-08,2.67641e-04,4.20641e-12,0.00000,TRUE,1.458590600e-04,4.00000000e+00*65f3d706
#GPSEPHEMA,COM1,8,79.0,SATTIME,1761,317040.000,00000000,9145,3245;8,317040.0,0,58,58,1761,1761,324000.0,2.656044753e+07,3.889804883e-09,1.082089710e+00,1.3477348373e-02,-2.824466736e+00,-2.011656761e-07,2.894550562e-06,3.43437500e+02,-6.43750000e+00,-1.490116119e-07,2.086162567e-07,9.9782064621e-01,-1.803646558e-10,-5.9005804334e-01,-8.12355266e-09,58,324000.0,-3.725290298e-09,8.98121e-06,2.27374e-13,0.00000,TRUE,1.458570479e-04,4.00000000e+00*493f6e0e
#GPSEPHEMA,COM1,7,79.0,SATTIME,1761,317040.000,00000000,9145,3245;9,317040.0,0,67,67,1761,1761,324000.0,2.656078914e+07,4.149101398e-09,2.829930744e+00,1.6849673237e-02,1.732590499e+00,7.078051567e-07,2.117827535e-06,3.48250000e+02,1.22187500e+01,1.825392246e-07,-1.303851604e-08,9.8340362803e-01,-3.821587756e-11,-7.0653224243e-01,-7.96747473e-09,67,324000.0,-5.587935448e-09,2.74319e-04,2.72848e-12,0.00000,TRUE,1.458544934e-04,7.84000000e+00*b8ffd5b4
#GPSEPHEMA,COM1,6,79.0,SATTIME,1761,316530.000,00000000,9145,3245;11,316530.0,0,57,57,1761,1761,316800.0,2.656043392e+07,6.797783155e-09,8.3619183043e-01,1.4668348944e-02,1.224238066e+00,2.998858690e-07,6.301328540e-06,2.23375000e+02,3.40625000e+00,-1.806765795e-07,5.587935448e-08,8.8926424399e-01,1.100045821e-10,2.131292655e+00,-9.36824737e-09,57,316800.0,-1.164153218e-08,-4.27132e-04,-3.41061e-12,0.00000,TRUE,1.458600679e-04,4.00000000e+00*9a886433
#GPSEPHEMA,COM1,5,79.0,SATTIME,1761,317040.000,00000000,9145,3245;17,317040.0,0,12,12,1761,1761,324000.0,2.656053338e+07,4.425898642e-09,-1.781774207e+00,8.5887842579e-03,-2.190452221e+00,-1.117587090e-06,9.715557098e-06,1.92593750e+02,-2.32500000e+01,1.564621925e-07,1.676380634e-08,9.6621620875e-01,5.768097407e-10,1.428808649e+00,-7.79282460e-09,12,324000.0,-1.024454832e-08,-2.93832e-05,-3.63798e-12,0.00000,TRUE,1.458568768e-04,4.00000000e+00*871ace6c
#GPSEPHEMA,COM1,4,79.0,SATTIME,1761,317040.000,00000000,9145,3245;20,317040.0,0,4,4,1761,1761,323984.0,2.656026853e+07,5.350937174e-09,2.1779969568e-01,5.6309584761e-03,1.284218550e+00,5.867332220e-07,9.777024388e-06,1.72687500e+02,1.12812500e+01,-7.450580597e-09,3.352761269e-08,9.2796567009e-01,-5.250218693e-10,-2.857435879e+00,-8.45356641e-09,4,323984.0,-7.916241884e-09,1.28162e-04,2.72848e-12,0.00000,TRUE,1.458599835e-04,4.00000000e+00*aa59fb55
#GPSEPHEMA,COM1,3,79.0,SATTIME,1761,317040.000,00000000,9145,3245;24,317040.0,0,56,56,1761,1761,324000.0,2.656013458e+07,4.726982612e-09,2.667018702e+00,1.1337259784e-03,1.3296966398e-01,8.530914783e-07,2.423301339e-06,3.29000000e+02,1.54375000e+01,-1.117587090e-08,3.166496754e-08,9.5827283129e-01,4.214461264e-11,-7.1510211455e-01,-8.45892378e-09,56,324000.0,3.259629011e-09,-1.52267e-05,-6.82121e-13,0.00000,TRUE,1.458604628e-04,7.84000000e+00*63b1480e
#GPSEPHEMA,COM1,2,79.0,SATTIME,1761,315390.000,00000000,9145,3245;26,315390.0,0,2,2,1761,1761,316784.0,2.656048128e+07,3.969808216e-09,2.187369768e+00,2.1079818718e-02,1.252201226e+00,4.768371582e-06,7.718801498e-06,2.34812500e+02,9.66875000e+01,2.011656761e-07,-3.799796104e-07,9.7723704358e-01,1.839362331e-10,-1.658595223e+00,-7.66781940e-09,2,316784.0,-5.587935448e-09,2.30192e-04,1.89857e-11,0.00000,TRUE,1.458568498e-04,4.00000000e+00*949dd52f
#GPSEPHEMA,COM1,1,79.0,SATTIME,1761,317040.000,00000000,9145,3245;28,317040.0,0,19,19,1761,1761,324000.0,2.656017170e+07,3.980165790e-09,-9.8825678854e-01,1.8845119048e-02,-1.762026741e+00,-4.811212420e-06,8.760020137e-06,2.26500000e+02,-9.86250000e+01,-1.695007086e-07,3.762543201e-07,9.8483024088e-01,-2.785830327e-11,3.9992204807e-01,-8.08747973e-09,19,324000.0,-1.071020961e-08,2.99238e-04,3.06954e-12,0.00000,TRUE,1.458594102e-04,4.00000000e+00*e6bd5044
#GPSEPHEMA,COM1,0,79.0,SATTIME,1761,317040.000,00000000,9145,3245;32,317040.0,0,98,98,1761,1761,324000.0,2.655940903e+07,4.663408535e-09,2.176481080e+00,1.1627037893e-02,-2.7599505232e-01,1.631677151e-06,1.070834696e-05,1.65406250e+02,3.04375000e+01,4.097819328e-08,2.607703209e-07,9.4901526479e-01,-5.614519582e-10,-2.715001890e+00,-7.94854537e-09,98,324000.0,-2.793967724e-09,-5.41972e-04,3.52429e-12,0.00000,TRUE,1.458663760e-04,4.00000000e+00*c28fdf01
#BESTXYZA,COM1,0,77.0,FINESTEERING,1761,317090.000,00000000,d821,3245;SOL_COMPUTED,SINGLE,423323.4022,-5361645.9891,3417281.4831,1.4515,2.2858,1.7142,SOL_COMPUTED,DOPPLER_VELOCITY,0.0177,0.0323,-0.0074,0.1735,0.2732,0.2049,"",0.150,0.000,0.000,10,10,0,0,0,06,0,03*bf39ce79
#BESTXYZA,COM1,0,77.0,FINESTEERING,1761,317091.000,00000000,d821,3245;SOL_COMPUTED,SINGLE,423323.3863,-5361645.9715,3417281.4672,1.4515,2.2857,1.7140,SOL_COMPUTED,DOPPLER_VELOCITY,-0.0095,0.0147,-0.0071,0.1735,0.2732,0.2049,"",0.150,0.000,0.000,10,10,0,0,0,06,0,03*96dd66ea
#BESTXYZA,COM1,0,78.5,FINESTEERING,1761,317092.000,00000000,d821,3245;SOL_COMPUTED,SINGLE,423323.3732,-5361645.9577,3417281.4566,1.4515,2.2856,1.7140,SOL_COMPUTED,DOPPLER_VELOCITY,-0.0092,0.0012,-0.0140,0.1735,0.2732,0.2049,"",0.150,0.000,0.000,10,10,0,0,0,06,0,03*c59b5a7f
#BESTXYZA,COM1,0,80.0,FINESTEERING,1761,317093.000,00000000,d821,3245;SOL_COMPUTED,SINGLE,423323.3532,-5361645.9344,3417281.4418,1.4514,2.2856,1.7140,SOL_COMPUTED,DOPPLER_VELOCITY,-0.0012,0.0267,0.0007,0.1735,0.2732,0.2049,"",0.150,0.000,0.000,10,10,0,0,0,06,0,03*51a774e7
#BESTXYZA,COM1,0,80.0,FINESTEERING,1761,317094.000,00000000,d821,3245;SOL_COMPUTED,SINGLE,423323.3419,-5361645.9263,3417281.4307,1.4515,2.2856,1.7140,SOL_COMPUTED,DOPPLER_VELOCITY,0.0112,0.0213,-0.0073,0.1735,0.2732,0.2049,"",0.150,0.000,0.000,10,10,0,0,0,06,0,03*8c044055
#BESTXYZA,COM1,0,80.0,FINESTEERING,1761,317095.000,00000000,d821,3245;SOL_COMPUTED,SINGLE,423323.3349,-5361645.9214,3417281.4227,1.4516,2.2856,1.7140,SOL_COMPUTED,DOPPLER_VELOCITY,-0.0089,0.0099,0.0058,0.1735,0.2732,0.2049,"",0.150,0.000,0.000,10,10,0,0,0,06,0,03*1bd243c9
#BESTXYZA,COM1,0,78.0,FINESTEERING,1761,317096.000,00000000,d821,3245;SOL_COMPUTED,SINGLE,423323.3242,-5361645.9138,3417281.4118,1.4516,2.2856,1.7141,SOL_COMPUTED,DOPPLER_VELOCITY,-0.0083,0.0032,0.0011,0.1735,0.2732,0.2049,"",0.150,0.000,0.000,10,10,0,0,0,06,0,03*2ceda567
#BESTXYZA,COM1,0,78.0,FINESTEERING,1761,317097.000,00000000,d821,3245;SOL_COMPUTED,SINGLE,423323.3194,-5361645.9073,3417281.3977,1.4516,2.2856,1.7141,SOL_COMPUTED,DOPPLER_VELOCITY,-0.0081,0.0104,0.0026,0.1735,0.2732,0.2049,"",0.150,0.000,0.000,10,10,0,0,0,06,0,03*4dab5c1f
#RANGECMPA,COM1,0,80.5,FINESTEERING,1761,317098.000,00000000,9691,3245;20,049c101825aafeef5220e009da5d7ce6201c7508e1030000,0b9c30119df5fe5f5220e009fc416adb201c2f0681030000,249c1018c333f33fb67e2f0be15f308a5001740841030000,2b9c30111507f65fd97e2f0b3245c1af61010e06a1020000,449c10187ffa0a30bbc93e0a91c04da810047408e1030000,4b9c3011008e0840e1c93e0aee13f6aa10042f0641030000,a49c1008e2c102d03a68da0a79c114c230149109a1030000,ab9c30010a2602d04268da0abbaa4edb31147f07a1020000,c49c1008f608fd6fad9bb20b773210b430203f0881030000,cb9c300189b0fd9fc69bb20b4fdaa4ec5320fe0501020000,e49c1008ab10f1ff6de7270bec152d8f3009310a81030000,eb9c3001c55cf45fa5e7270b1032a4b342093f0841020000,049d1008c86109401309a80b6323d9d730189bbe40030000,0b9d3001854f07d04809a80b31d79b884218ffbd60020000,249d1018f482f1cf33deda0a3f8cc7c13008410881030000,2b9d3011d2b5f44f69deda0aaa8512db4208fe0521020000,449d1018caa10c408f2ec70bb38a63c340024b6760030000,4b9d3011d7d70970de2ec70bbe81aaf863027e6600020000,a49d10182766005080d1060a52d611cd1011d509e1030000,ab9d3011994f00f080d1060ac0339cc71011b007a1030000*91f015f3
#BESTXYZA,COM1,0,80.5,FINESTEERING,1761,317098.000,00000000,d821,3245;SOL_COMPUTED,SINGLE,423323.3094,-5361645.9016,3417281.3855,1.4517,2.2856,1.7141,SOL_COMPUTED,DOPPLER_VELOCITY,-0.0058,0.0010,0.0027,0.1735,0.2732,0.2049,"",0.150,0.000,0.000,10,10,0,0,0,06,0,03*09f49313
#RANGECMPA,COM1,0,79.0,FINESTEERING,1761,317099.000,00000000,9691,3245;20,049c1018d6a9febf5b22e009c0077be6201c9508e1030000,0b9c301160f5fe2f5b22e0096a3769db201c4f0681030000,249c1018e733f3ef31922f0b9493238a6001940841030000,2b9c30113107f60f55922f0b3c4cb7af51012e06a1020000,449c101868fa0ab004b93e0afcba58a810049408e1030000,4b9c3011ee8d08c02ab93e0adda1feaa10044f0641030000,a49c10088ac102900864da0a258317c23014b109a1030000,ab9c3001c52502901064da0a9ad050db31149f07a1020000,c49c10088308fd4f31a0b20b323b0db430205f0881030000,cb9c300130b0fd7f4aa0b20bae8aa2ec43201e0601020000,e49c10089b10f1bf2afe270b75261e8f3009510a81030000,eb9c3001b85cf40f62fe270bc18e98b342095f0841020000,049d1008aa610930cbfaa70bee84e2d73018bbbe60030000,0b9d30016d4f07d000fba70b8626a38842181fbe60020000,249d10180683f15f42f4da0a2c0fb9c13008610881030000,2b9d3011e0b5f40f78f4da0a7b3b07db42081e0641020000,449d1018bea10c30541bc70b6f2c70c350026b6760030000,4b9d3011ced70950a31bc70b8959b4f853029e6600020000,a49d10181f6600f0e4d0060a633c12cd1011f509e1030000,ab9d3011934f0080e5d0060a48839cc71011d007a1030000*edc9ca99
#BESTXYZA,COM1,0,79.0,FINESTEERING,1761,317099.000,00000000,d821,3245;SOL_COMPUTED,SINGLE,423323.3004,-5361645.8927,3417281.3783,1.4518,2.2855,1.7141,SOL_COMPUTED,DOPPLER_VELOCITY,-0.0104,0.0041,0.0076,0.1735,0.2732,0.2049,"",0.150,0.000,0.000,10,10,0,0,0,06,0,03*e672ac91
#RANGECMPA,COM1,0,79.0,FINESTEERING,1761,317100.000,00000000,9691,3245;20,049c10185ea9fe1f6524e00952b179e6201cb508e1030000,0b9c301102f5fe8f6424e009962c68db201c6f0681030000,249c10186433f3bfada52f0b2fc7168a6001b40861030000,2b9c3011cb06f60fd1a52f0b3253adaf61014e0681020000,449c1018c6f90ac04ea83e0a0eb563a81004b408e1030000,4b9c3011708d08e074a83e0a862f07ab10046f0641030000,a49c1008edc00200d75fda0a5f441ac23014d109a1030000,ab9c30014b2502f0de5fda0a20f652db3114bf07a1020000,c49c1008f707fdcfb5a4b20b75430ab430207f0881030000,cb9c3001c3affdefcea4b20baf3aa0ec42203e0641020000,e49c10086b10f15fe714280b03370f8f4009710a81030000,eb9c3001935cf4bf1e15280b76eb8cb342097f0881020000,049d1008e76009a083eca70b27e6ebd73018dbbe60030000,0b9d3001d54e0760b9eca70b9a75aa8842183fbe60020000,249d1018a082f12f510adb0af591aac13008810881030000,2b9d301191b5f4ef860adb0a31f1fbda32083e0641020000,449d101882a10c201908c70b28ce7cc350028b6760030000,4b9d30119fd709606808c70b5131bef85202be6620020000,a49d1018cb6500b049d0060a60a212cd1011150ae1030000,ab9d3011524f00404ad0060ac2d29cc71011f007a1030000*a013cb29
#BESTXYZA,COM1,0,79.0,FINESTEERING,1761,317100.000,00000000,d821,3245;SOL_COMPUTED,SINGLE,423323.2922,-5361645.8754,3417281.3678,1.4518,2.2855,1.7141,SOL_COMPUTED,DOPPLER_VELOCITY,0.0118,-0.0058,-0.0013,0.1735,0.2732,0.2049,"",0.150,0.000,0.000,10,10,0,0,0,06,0,03*fee54bc1
#RANGECMPA,COM1,0,77.0,FINESTEERING,1761,317101.000,00000000,9691,3245;20,049c1018eaa8fe4f6f26e009545a78e6201cd508e1030000,0b9c3011a8f4febf6e26e009532167db201c8f0681030000,249c10180d33f32f2ab92f0b76fa098a6001d40861030000,2b9c30118706f67f4db92f0be759a3af71016e06a1020000,449c101843f90ac099973e0a8eae6ea81004d408e1030000,4b9c3011098d08e0bf973e0abebc0fab20048f0641030000,a49c10085bc00280a65bda0ae5041dc23014f109a1030000,ab9c3001d9240260ae5bda0a1b1b55db3114df07a1020000,c49c10086207fd8f3ba9b20bff4a07b440209f0881030000,cb9c30014faffdaf54a9b20b1cea9dec43205e0601020000,e49c10082d10f14fa42b280b5b47008f3009910a81030000,eb9c3001635cf4efdb2b280bfe4781b342099f0861020000,049d1008886009f03cdea70bcd46f5d74018fbbe40030000,0b9d30018b4e07b072dea70b3bc4b18842185fbe80020000,249d10186582f17f6020db0a62149cc13008a108a1030000,2b9d301163b5f43f9620db0a9fa6f0da32085e0641020000,449d101871a10c80def4c60b9f6f89c34002ab6760030000,4b9d301192d709d02df5c60be608c8f86302de6620020000,a49d1018a66500f0aecf060a0d0813cd1011350ae1030000,ab9d3011354f0070afcf060afb219dc710111008a1030000*a2ffb0c9
#BESTXYZA,COM1,0,77.0,FINESTEERING,1761,317101.000,00000000,d821,3245;SOL_COMPUTED,SINGLE,423323.2821,-5361645.8705,3417281.3594,1.4519,2.2855,1.7141,SOL_COMPUTED,DOPPLER_VELOCITY,-0.0001,0.0007,-0.0008,0.1735,0.2732,0.2049,"",0.150,0.000,0.000,10,10,0,0,0,06,0,03*309f204b
#RANGECMPA,COM1,0,77.0,FINESTEERING,1761,317102.000,00000000,9691,3245;20,049c10182aa8fe3f7a28e009d50277e6201cf508e1030000,0b9c301112f4febf7928e009aa1566db201caf0681030000,249c1018f532f3ffa6cc2f0b792dfd896001f40861030000,2b9c30117506f63fcacc2f0b686099af61018e06a1020000,449c1018cdf80a70e5863e0a8da779a82004f408e1030000,4b9c3011ad8c08800b873e0a924918ab2004af0641030000,a49c1008b6bf02f07657da0ac8c41fc22014110aa1030000,ab9c3001592402d07e57da0a963f57db3114ff07c1020000,c49c1008b906fd2fc2adb20bea5104b44020bf0881030000,cb9c3001c6aefd2fdbadb20b11999bec53207e0601020000,e49c10080210f17f6142280b8757f18e3009b10a81030000,eb9c3001415cf44f9942280b65a475b34209bf0841020000,049d1008e95f0910f7cfa70beea6fed730181bbf60030000,0b9d30010f4e07002dd0a70b7412b98842187fbe80020000,249d1018e981f15f7036db0a81968dc13008c108a1030000,2b9d301102b5f4ffa536db0ad15be5da32087e0641020000,449d1018cba00c30a4e1c60bd81096c34002cb6760030000,4b9d301110d709a0f3e1c60b4ae0d1f86302fe6620020000,a49d10184565009014cf060a7a6d13cd1011550ae1030000,ab9d3011e94e000015cf060a03719dc710113008a1030000*ab06fa2e
#BESTXYZA,COM1,0,77.0,FINESTEERING,1761,317102.000,00000000,d821,3245;SOL_COMPUTED,SINGLE,423323.2709,-5361645.8566,3417281.3530,1.4519,2.2855,1.7142,SOL_COMPUTED,DOPPLER_VELOCITY,0.0203,0.0097,0.0131,0.1735,0.2732,0.2049,"",0.150,0.000,0.000,10,10,0,0,0,06,0,03*1ce25344
#RANGECMPA,COM1,0,77.5,FINESTEERING,1761,317103.000,00000000,9691,3245;20,049c101821a8fe9f852ae00909ab75e6201c1509e1030000,0b9c30110bf4fe1f852ae009c50965db201ccf0681030000,249c1018c832f3df23e02f0b6960f0896001140941030000,2b9c30115206f65f47e02f0bdb668faf6101ae06a1020000,449c101891f80ab031763e0a38a084a820041409e1030000,4b9c30117e8c08c057763e0a24d620ab2004cf0641030000,a49c10085ebf02204853da0a398422c23014310aa1030000,ab9c3001142402f04f53da0ab86359db31141f08a1020000,c49c10085806fd9f49b2b20b5d5801b44020df0881030000,cb9c30017faefd5f62b2b20ba84799ec43209e06e1010000,e49c10088010f1af1e59280bc167e28e3009d10a81030000,eb9c3001a35cf4af5659280bd7006ab34209df0841020000,049d1008ad5f09b0b1c1a70bb90608d830183bbf60030000,0b9d3001e14d0790e7c1a70b6e60c08832189fbe60020000,249d10181382f14f804cdb0a86187fc13008e108a1030000,2b9d301123b5f4ffb54cdb0aef10dada42089e0641020000,449d10185fa10cf069cec60b18b2a2c34002eb6760030000,4b9d301184d70960b9cec60bb2b7dbf853021e6700020000,a49d10186e6500407ace060ad8d213cd1011750ae1030000,ab9d3011094f00b07ace060a00c09dc710115008a1030000*3981f3cc
#BESTXYZA,COM1,0,77.5,FINESTEERING,1761,317103.000,00000000,d821,3245;SOL_COMPUTED,SINGLE,423323.2626,-5361645.8480,3417281.3414,1.4520,2.2855,1.7142,SOL_COMPUTED,DOPPLER_VELOCITY,0.0006,-0.0008,-0.0198,0.1735,0.2732,0.2049,"",0.150,0.000,0.000,10,10,0,0,0,06,0,03*3ec749fd
#RANGECMPA,COM1,0,79.0,FINESTEERING,1761,317104.000,00000000,9691,3245;20,049c101893a7fe8f912ce009f15274e6201c3509e1030000,0b9c30119df3feef902ce009a6fd63db201cef0681030000,249c1018e232f3dfa0f32f0b5093e3895001340961030000,2b9c30116606f68fc4f32f0b486d85af6101ce06a1020000,449c101817f80a607e653e0a9b988fa810043409e1030000,4b9c3011208c0870a4653e0a7c6229ab1004ef0641030000,a49c1008c7be02d0194fda0a3e4325c23014510aa1030000,ab9c30019e2302b0214fda0a86875bdb31143f08a1020000,c49c10089105fdafd1b6b20b5f5efeb34020ff0881030000,cb9c3001e4adfd9feab6b20be6f596ec4220be0641020000,e49c10082e10f1dfdb6f280b0278d38e4009f10a81030000,eb9c3001635cf4df1370280b4c5d5eb34209ff0861020000,049d1008455f09c06cb3a70b336611d830185bbf60030000,0b9d3001904d07f0a2b3a70b28aec7883218bfbe80020000,249d1018b281f16f9062db0a709a70c130080109a1030000,2b9d3011d7b4f42fc662db0af6c5ceda3208be0641020000,449d101857a10cc02fbbc60b5553afc340020b6860030000,4b9d30117cd709207fbbc60b1b8fe5f852023e6720020000,a49d10183c650010e0cd060a2d3814cd1011950ae1030000,ab9d3011e14e0060e0cd060af60e9ec710117008a1030000*4e061c7b
#BESTXYZA,COM1,0,79.0,FINESTEERING,1761,317104.000,00000000,d821,3245;SOL_COMPUTED,SINGLE,423323.2562,-5361645.8371,3417281.3406,1.4520,2.2855,1.7142,SOL_COMPUTED,DOPPLER_VELOCITY,-0.0191,0.0284,-0.0116,0.1736,0.2732,0.2049,"",0.150,0.000,0.000,10,10,0,0,0,06,0,03*a92d6941
#RANGECMPA,COM1,0,78.0,FINESTEERING,1761,317105.000,00000000,9691,3245;20,049c101818a7fe1f9e2ee00959fa72e6201c5509e1030000,0b9c30113df3fe8f9d2ee00923f162db101c0f0781030000,249c10186c32f34f1e07300be7c5d6895001540941030000,2b9c30110a06f60f4207300b72737baf6101ee06a1020000,449c101890f70ad0cb543e0a7a909aa810045409e1030000,4b9c3011b78b08e0f1543e0a6fee31ab20040f0741030000,a49c1008e9bd0290ec4ada0a9e0128c23014710aa1030000,ab9c3001f1220270f44ada0ad4aa5ddb31145f08a1020000,c49c1008e004fdaf5abbb20bc063fbb350201f0961030000,cb9c30015badfd7f73bbb20ba3a394ec5220de0621020000,e49c1008f90ff13f9986280b1988c48e4009110b81030000,eb9c30013a5cf45fd186280ba6b952b342091f0941020000,049d1008b15e09b028a5a70b26c51ad830187bbf60030000,0b9d30011c4d07f05ea5a70b77fbce883218dfbe60020000,249d10187b81f10fa178db0a101c62c13008210981030000,2b9d3011adb4f4dfd678db0ac57ac3da3208de0641020000,449d1018f5a00cd0f5a7c60b5df4bbc350022b6860030000,4b9d301130d7093045a8c60b5966eff863025e6700020000,a49d1018e464003046cd060a409d14cd1011b50ae1030000,ab9d30119d4e007046cd060ab85d9ec710119008a1030000*89e4ab63
#BESTXYZA,COM1,0,78.0,FINESTEERING,1761,317105.000,00000000,d821,3245;SOL_COMPUTED,SINGLE,423323.2457,-5361645.8346,3417281.3376,1.4521,2.2855,1.7142,SOL_COMPUTED,DOPPLER_VELOCITY,-0.0197,0.0034,-0.0079,0.1736,0.2732,0.2049,"",0.150,0.000,0.000,10,10,0,0,0,06,0,03*0b512a20
#RANGECMPA,COM1,0,78.0,FINESTEERING,1761,317106.000,00000000,9691,3245;20,049c1018bca6fe7fab30e0094ba171e6101c7509e1030000,0b9c3011f5f2feefaa30e00943e461db101c2f0781030000,249c10183932f31f9c1a300b46f8c9895001740941030000,2b9c3011e205f60fc01a300b747971af61010e07a1020000,449c10183ff70a001a443e0ade87a5a810047409e1030000,4b9c3011788b080040443e0a017a3aab20042f0741030000,a49c1008a1bd0230c046da0a67bf2ac23014910aa1030000,ab9c3001b9220210c846da0aadcd5fdb31147f08c1020000,c49c10088704fdafe4bfb20b8268f8b350203f0961030000,cb9c300116adfd5ffdbfb20be55092ec6220fe0641020000,e49c1008e20ff1bf569d280b1198b58e3009310b81030000,eb9c3001285cf4ff8e9d280be61547b352093f0961020000,049d10084f5e0960e596a70b9a2324d830189bbf60030000,0b9d3001d04c07901b97a70b6348d6884218ffbe60020000,249d10185d81f11fb28edb0a6b9d53c13008410981030000,2b9d301195b4f4dfe78edb0a5e2fb8da3208fe0641020000,449d1018f4a00c30bc94c60b3795c8c350024b6880030000,4b9d301130d709c00b95c60b703df9f863027e67e0010000,a49d1018c56400b0accc060a1c0215cd1011d50ae1030000,ab9d3011854e00e0accc060a4fac9ec71011b008a1030000*a77d7f33
#BESTXYZA,COM1,0,78.0,FINESTEERING,1761,317106.000,00000000,d821,3245;SOL_COMPUTED,SINGLE,423323.2428,-5361645.8371,3417281.3340,1.4521,2.2855,1.7142,SOL_COMPUTED,DOPPLER_VELOCITY,-0.0045,0.0131,-0.0222,0.1736,0.2732,0.2049,"",0.150,0.000,0.000,10,10,0,0,0,06,0,03*f8583bcd
#RANGECMPA,COM1,0,78.0,FINESTEERING,1761,317107.000,00000000,9691,3245;20,049c101856a6fe7fb932e009cf4770e6201c9509e1030000,0b9c3011a6f2feefb832e0090ed760db201c4f0781030000,249c10180f32f33f1a2e300b6f2abd895001940941030000,2b9c3011c205f64f3e2e300b4a7f67af61012e07c1020000,449c1018a4f60ad068333e0ad07eb0a810049409e1030000,4b9c3011ff8a08d08e333e0a3c0543ab10044f0741030000,a49c1008e1bc02b09442da0a9b7c2dc23014b10aa1030000,ab9c3001242202a09c42da0a11f061db31149f08c1020000,c49c1008c703fd7f6fc4b20baf6cf5b340205f0961030000,cb9c300180acfd5f88c4b20bb4fd8fec62201e0721020000,e49c1008cc0ff16f14b4280bf3a7a68e3009510b81030000,eb9c3001175cf4ff4cb4280b14723bb342095f0941020000,049d1008c95d09c0a288a70b99812dd84018bbbf60030000,0b9d3001674c07f0d888a70bf494dd8842181fbf60020000,249d1018ec80f17fc3a4db0a861e45c12008610981030000,2b9d30113db4f40ff9a4db0ac6e3acda32081e0761020000,449d101885a00cc08281c60bec35d5c340026b6880030000,4b9d3011dad60980d281c60b6b1403f962029e6740020000,a49d10189964006013cc060ac86615cd1011f50ae1030000,ab9d3011624e00a013cc060ac2fa9ec71011d008a1030000*73dba8fc
#BESTXYZA,COM1,0,78.0,FINESTEERING,1761,317107.000,00000000,d821,3245;SOL_COMPUTED,SINGLE,423323.2354,-5361645.8346,3417281.3303,1.4522,2.2854,1.7143,SOL_COMPUTED,DOPPLER_VELOCITY,-0.0030,-0.0143,0.0179,0.1736,0.2732,0.2049,"",0.150,0.000,0.000,10,10,0,0,0,06,0,03*40499d2b
#RANGECMPA,COM1,0,77.5,FINESTEERING,1761,317108.000,00000000,9691,3245;20,049c10180ea6fe1fc834e009f0ed6ee6101cb509e1030000,0b9c30116ef2fe6fc734e0098cc95fdb101c6f0781030000,249c1018f531f39f9841300b725cb0896001b40941030000,2b9c3011ad05f6afbc41300b05855daf61014e07c1020000,449c101869f60a50b8223e0a6075bba81004b409e1030000,4b9c3011d18a0830de223e0a29904bab10046f0741030000,a49c10087dbc02006a3eda0a503930c23014d10aa1030000,ab9c3001d62102f0713eda0a131264db3114bf08a1020000,c49c10089503fd0ffbc8b20b5d70f2b340207f0961030000,cb9c30015cacfdbf13c9b20b20aa8dec52203e0741020000,e49c1008fb0ff12fd2ca280bccb7978e3009710b81030000,eb9c30013c5cf4ff0acb280b3ace2fb342097f0961020000,049d1008715d09c0607aa70b33df36d83018dbbf60030000,0b9d3001234c0700977aa70b35e1e48842183fbf60020000,249d1018fa80f10fd5badb0a779f36c13008810981030000,2b9d301148b4f4af0abbdb0a0c98a1da32083e0741020000,449d1018ada00c60496ec60b8fd6e1c330028b6880030000,4b9d3011f9d60920996ec60b5ceb0cf96302be6700020000,a49d10188b6400607acb060a55cb15cd1011150be1030000,ab9d3011574e00807acb060a1b499fc71011f008a1030000*7321f7e4
#BESTXYZA,COM1,0,77.5,FINESTEERING,1761,317108.000,00000000,d821,3245;SOL_COMPUTED,SINGLE,423323.2263,-5361645.8499,3417281.3288,1.4522,2.2851,1.7141,SOL_COMPUTED,DOPPLER_VELOCITY,0.0042,0.0055,-0.0133,0.1736,0.2731,0.2049,"",0.150,0.000,0.000,10,10,0,0,0,06,0,03*a222619b
#RANGECMPA,COM1,0,77.5,FINESTEERING,1761,317109.000,00000000,9691,3245;20,049c10188aa5fe5fd736e009a1936de6201cd509e1030000,0b9c301107f2fe9fd636e009b1bb5edb101c8f0781030000,249c1018c331f33f1755300b438ea3895001d40941030000,2b9c30118605f63f3b55300b978a53af61016e07c1020000,449c1018fbf50a8008123e0a7c6bc6a81004d409e1030000,4b9c30117b8a08402e123e0abc1a54ab10048f0741030000,a49c1008efbb0230403ada0a72f532c23014f10aa1030000,ab9c300167210230483ada0aa13366db3114df08a1020000,c49c1008c202fd8f87cdb20b6e73efb340209f0961030000,cb9c3001b5abfd2fa0cdb20b13568bec52205e0721020000,e49c1008c70ff10f90e1280b86c7888e3009910b81030000,eb9c3001135cf41fc9e1280b472a24b352099f0961020000,049d1008f75c09801f6ca70b503c40d83018fbbf60030000,0b9d3001c44b07b0556ca70b162dec8842185fbf80020000,249d10187680f11fe7d0db0a282028c13008a10981030000,2b9d3011e1b3f4af1cd1db0a214c96da32085e0741020000,449d101873a00c50105bc60b0c77eec33002ab6880030000,4b9d3011ccd609e05f5bc60b2ec216f95202de6740020000,a49d10185a640090e1ca060aaf2f16cd1011350be1030000,ab9d3011314e00b0e1ca060a4e979fc710111009a1030000*d64e4525
#BESTXYZA,COM1,0,77.5,FINESTEERING,1761,317109.000,00000000,d821,3245;SOL_COMPUTED,SINGLE,423323.2237,-5361645.8333,3417281.3242,1.4522,2.2849,1.7141,SOL_COMPUTED,DOPPLER_VELOCITY,-0.0064,-0.0099,0.0132,0.1736,0.2731,0.2049,"",0.150,0.000,0.000,10,10,0,0,0,06,0,03*ecfc33db
#RANGECMPA,COM1,0,79.0,FINESTEERING,1761,317110.000,00000000,9691,3245;20,049c10182aa5fe2fe738e009f3386ce6101cf509e1030000,0b9c3011bcf1fe6fe638e0098ead5ddb201caf0781030000,249c10187f31f30f9668300bf1bf96895001f40941030000,2b9c30115105f62fba68300b0f9049af51018e07c1020000,449c101884f50a4059013e0a3761d1a82004f409e1030000,4b9c30111f8a08007f013e0a03a55cab2004af0741030000,a49c10084abb02201736da0a11b135c22014110ba1030000,ab9c3001e72002201f36da0aca5468db3114ff08a1020000,c49c10082702fddf14d2b20bfd75ecb34020bf0981030000,cb9c300133abfd7f2dd2b20ba10189ec52207e0721020000,e49c1008930ff10f4ef8280b3bd7798e3009b10b81030000,eb9c3001eb5bf44f87f8280b528618b34209bf0961020000,049d1008a25c09c0de5da70b0d9949d830181bc060030000,0b9d3001824b0700155ea70bab78f38842187fbf80020000,249d10187780f15ff9e6db0ab3a019c13008c10981030000,2b9d3011e2b3f4df2ee7db0a18008bda42087e0741020000,449d101854a00c60d747c60b7b17fbc33002cb6880030000,4b9d3011b3d609002748c60bf39820f95302fe6700020000,a49d10181764000049ca060aed9316cd1011550be1030000,ab9d3011fd4d002049ca060a6ae59fc710113009a1030000*a5ad9462
#BESTXYZA,COM1,0,79.0,FINESTEERING,1761,317110.000,00000000,d821,3245;SOL_COMPUTED,SINGLE,423323.2186,-5361645.8282,3417281.3225,1.4522,2.2849,1.7141,SOL_COMPUTED,DOPPLER_VELOCITY,-0.0113,-0.0095,0.0009,0.1736,0.2731,0.2049,"",0.150,0.000,0.000,10,10,0,0,0,06,0,03*7707d9ae
#RANGECMPA,COM1,0,79.0,FINESTEERING,1761,317111.000,00000000,9691,3245;20,049c1018bea4fe9ff73ae009dcdd6ae6201c150ae1030000,0b9c301168f1fedff63ae009199f5cdb201ccf0781030000,249c1018a331f32f157c300b71f189895001140a41030000,2b9c30116d05f66f397c300b62953faf5101ae07c1020000,449c101825f50aa0aaf03d0a8556dca82004140ae1030000,4b9c3011d5890850d0f03d0af62e65ab2004cf0741030000,a49c1008ccba02e0ee31da0a286c38c23014310ba1030000,ab9c3001842002d0f631da0a87756adb31141f09a1020000,c49c10089501fdffa2d6b20bff77e9b33020df0981030000,cb9c3001cbaafd9fbbd6b20bc0ac86ec52209e0721020000,e49c10089e0ff10f0c0f290be1e66a8e3009d10b81030000,eb9c3001f35bf47f450f290b51e20cb34209df0961020000,049d10080d5c09b09e4fa70b58f552d840183bc060030000,0b9d30010d4b07e0d44fa70be9c3fa8842189fbf80020000,249d10183080f1ef0bfddb0a07210bc13008e10981030000,2b9d3011abb3f48f41fddb0ae3b37fda42089e0721020000,449d101814a00ca09e34c60bc6b707c44002eb6880030000,4b9d301182d60950ee34c60b9e6f2af953021e6800020000,a49d1018fe6300a0b0c9060a04f816cd1011750be1030000,ab9d3011ea4d00b0b0c9060a6833a0c710115009a1030000*f969d178
#BESTXYZA,COM1,0,79.0,FINESTEERING,1761,317111.000,00000000,d821,3245;SOL_COMPUTED,SINGLE,423323.2157,-5361645.8241,3417281.3194,1.4523,2.2849,1.7141,SOL_COMPUTED,DOPPLER_VELOCITY,0.0062,-0.0178,0.0174,0.1736,0.2731,0.2049,"",0.150,0.000,0.000,10,10,0,0,0,06,0,03*2f7ca051
#RANGECMPA,COM1,0,78.5,FINESTEERING,1761,317112.000,00000000,9691,3245;20,049c101819a4fecf083de009448269e6201c350ae1030000,0b9c3011e7f0feff073de0093f905bdb201cef0781030000,249c1018f130f3af948f300ba8227d895001340a41030000,2b9c3011e304f60fb98f300b7d9a35af6101ce07c1020000,449c101891f40ad0fcdf3d0a4e4be7a81004340ae1030000,4b9c30116189087022e03d0a80b86dab2004ef0741030000,a49c100825ba0290c72dda0a9a263bc24014510ba1030000,ab9c300102200280cf2dda0ac6956cdb31143f09a1020000,c49c1008f600fd1f32dbb20b5b79e6b33020ff0981030000,cb9c30014baafd9f4adbb20b5f5784ec5320be0701020000,e49c1008690ff14fca25290b5cf65b8e3009f10b81030000,eb9c3001ca5bf4ef0326290b2f3e01b34209ff0961020000,049d10086d5b09805f41a70b23515cd830185bc060030000,0b9d3001924a07b09541a70bc10e02894218bfbf80020000,249d1018ec7ff1ef1e13dc0a0fa1fcc03008010a81030000,2b9d301176b3f48f5413dc0a736774da3208be0761020000,449d1018e89f0c106621c60bdf5714c430020b6960030000,4b9d30115ed609e0b521c60b224634f952023e6820020000,a49d1018b56300a018c9060ada5b17cd1011950be1030000,ab9d3011b24d00b018c9060a3381a0c710117009a1030000*5942fe12
#BESTXYZA,COM1,0,78.5,FINESTEERING,1761,317112.000,00000000,d821,3245;SOL_COMPUTED,SINGLE,423323.2141,-5361645.8051,3417281.3131,1.4524,2.2848,1.7141,SOL_COMPUTED,DOPPLER_VELOCITY,0.0037,-0.0204,-0.0051,0.1736,0.2731,0.2049,"",0.150,0.000,0.000,10,10,0,0,0,06,0,03*e8879ced
#RANGECMPA,COM1,0,77.0,FINESTEERING,1761,317113.000,00000000,9691,3245;20,049c10189aa3febf1a3fe009362668e6201c550ae1030000,0b9c301184f0fecf193fe0090a815adb201c0f0881030000,249c1018e430f38f14a3300bac5370896001540a41030000,2b9c3011d904f6ef38a3300b719f2baf6101ee07c1020000,449c1018f5f30aa04fcf3d0a9f3ff2a81004540ae1030000,4b9c3011e888084075cf3d0aae4176ab20040f0841030000,a49c10089ab90240a129da0a74e03dc24014710ba1030000,ab9c3001951f0230a929da0a8fb56edb51145f09a1020000,c49c10084700fd2fc2dfb20b1b7ae3b330201f0a81030000,cb9c3001c6a9fd7fdadfb20b820182ec4220de0721020000,e49c1008390ff1bf883c290bb8054d8e3009110c81030000,eb9c3001a45bf48fc23c290bf599f5b242091f0a61020000,049d1008015b09f02033a70b76ac65d830187bc060030000,0b9d30013d4a07105733a70b3d5909894218dfbf60020000,249d10189c7ff15f3229dc0acf20eec03008210a81030000,2b9d301137b3f4ef6729dc0acc1a69da3208de0741020000,449d1018b49f0ce02d0ec60bccf720c430022b6960030000,4b9d301136d609b07d0ec60b841c3ef953025e6800020000,a49d10187b6300f080c8060a7bbf17cd1011b50be1030000,ab9d3011844d000081c8060ad5cea0c710119009a1030000*d408c672
#BESTXYZA,COM1,0,77.0,FINESTEERING,1761,317113.000,00000000,d821,3245;SOL_COMPUTED,SINGLE,423323.2055,-5361645.7982,3417281.3092,1.4524,2.2848,1.7141,SOL_COMPUTED,DOPPLER_VELOCITY,0.0060,-0.0010,-0.0003,0.1736,0.2731,0.2049,"",0.150,0.000,0.000,10,10,0,0,0,06,0,03*4f217c70
#RANGECMPA,COM1,0,77.0,FINESTEERING,1761,317114.000,00000000,9691,3245;20,049c10185da3fe6f2d41e009b1c966e6201c750ae1030000,0b9c301155f0fe6f2c41e009777159db201c2f0881030000,249c1018c130f3af94b6300b738463895001740a41030000,2b9c3011bd04f61fb9b6300b36a421af61010e08c1020000,449c1018c0f30a30a3be3d0a7833fda81004740ae1030000,4b9c3011bf8808d0c8be3d0a7eca7eab10042f0841030000,a49c10081cb902c07b25da0ab59940c23014910ba1030000,ab9c3001341f02b08325da0adfd470db41147f09a1020000,c49c1008edfffc2f53e4b20b427ae0b330203f0a81030000,cb9c30017fa9fd5f6be4b20b31ab7fec4320fe0701020000,e49c1008430ff14f4753290bf5143e8e3009310c81030000,eb9c3001ac5bf46f8153290ba3f5e9b242093f0a41020000,049d1008ba5a0910e324a70b4e076fd830189bc060030000,0b9d3001054a07401925a70b59a310894218ffbf60020000,249d1018697ff14f463fdc0a50a0dfc03008410a81030000,2b9d301110b3f4af7b3fdc0af3cd5dda3208fe0741020000,449d1018d99f0ce0f5fac50b95972dc440024b6960030000,4b9d301153d609c045fbc50bcbf247f953027e6800020000,a49d1018686300a0e9c7060ae52218cd1011d50be1030000,ab9d3011764d00b0e9c7060a4b1ca1c71011b009a1030000*185332ee
#BESTXYZA,COM1,0,77.0,FINESTEERING,1761,317114.000,00000000,d821,3245;SOL_COMPUTED,SINGLE,423323.1973,-5361645.7815,3417281.3033,1.4525,2.2848,1.7142,SOL_COMPUTED,DOPPLER_VELOCITY,-0.0066,0.0059,-0.0036,0.1736,0.2731,0.2049,"",0.150,0.000,0.000,10,10,0,0,0,06,0,03*f0b7440b
#RANGECMPA,COM1,0,79.0,FINESTEERING,1761,317115.000,00000000,9691,3245;20,049c10183ca3fe3f4043e009086d65e6201c950ae1030000,0b9c30113bf0fe2f3f43e009c86158db201c4f0881030000,249c10182531f3af14ca300b58b556895001940a41030000,2b9c30110b05f62f39ca300b10a917af51012e08c1020000,449c101899f30a00f7ad3d0a2a2708a91004940ae1030000,4b9c3011a08808901cae3d0a2f5387ab10044f0841030000,a49c1008dfb802b05621da0aaf5243c24014b10ba1030000,ab9c3001031f02d05e21da0af8f372db41149f09a1020000,c49c1008a8fffc8fe4e8b20b1b7addb330205f0a81030000,cb9c300149a9fddffce8b20ba2547dec52201e0821020000,e49c10089e0ff19f056a290b66242f8e3009510c81030000,eb9c3001f35bf4df3f6a290b7651deb242095f0a61020000,049d1008a15a09a0a516a70bf46178d83018bbc060030000,0b9d3001f24907b0db16a70b4eed178942181fc060020000,249d1018937ff10f5a55dc0adf1fd1c03008610a81030000,2b9d301130b3f44f8f55dc0a278152da32081e0841020000,449d10180ca00ca0bde7c50b7e373ac440026b6960030000,4b9d30117ad609a00de8c50b28c951f962029e6820020000,a49d1018a363002052c7060a6b8618cd1011f50be1030000,ab9d3011a44d002052c7060ad869a1c71011d00981030000*d8834f4f
#BESTXYZA,COM1,0,79.0,FINESTEERING,1761,317115.000,00000000,d821,3245;SOL_COMPUTED,SINGLE,423323.1979,-5361645.7726,3417281.2923,1.4525,2.2848,1.7142,SOL_COMPUTED,DOPPLER_VELOCITY,-0.0076,0.0190,-0.0020,0.1736,0.2731,0.2049,"",0.150,0.000,0.000,10,10,0,0,0,06,0,03*bde4c957
#RANGECMPA,COM1,0,79.0,FINESTEERING,1761,317116.000,00000000,9691,3245;20,049c1018cfa2fe7f5345e009211064e6201cb50ae1030000,0b9c3011e6effe4f5245e009e95157db201c6f0881030000,249c1018c930f3cf94dd300b32e649895001b40a41030000,2b9c3011c404f63fb9dd300be3ad0daf51014e08c1020000,449c101851f30a304b9d3d0a9e1a13a91004b40ae1030000,4b9c3011678808b0709d3d0ab2db8fab10046f0841030000,a49c10085ab80230321dda0a490b46c23014d10ba1030000,ab9c30019c1e02403a1dda0ac71275db4114bf09a1020000,c49c10083ffffc8f76edb20b9679dab340207f0a81030000,cb9c3001f8a8fdcf8eedb20bcafd7aec52203e0821020000,e49c1008750ff1cfc380290bee33208e3009710c81030000,eb9c3001d35bf41ffe80290b5eadd2b242097f0a21020000,049d1008265a09906808a70b57bc81d83018dbc080030000,0b9d3001924907a09e08a70b0e371f8942183fc040020000,249d1018767ff1cf6d6bdc0a649fc2c03008810a81030000,2b9d30111ab3f4ffa26bdc0a523447da32083e0841020000,449d1018dc9f0c4085d4c50b75d746c440028b6960030000,4b9d301155d60960d5d4c50b939f5bf95302be6800020000,a49d1018756300b0bac6060af3e918cd1011150ce1030000,ab9d3011804d0090bac6060a67b7a1c71011f009a1030000*28ef7c73
#BESTXYZA,COM1,0,79.0,FINESTEERING,1761,317116.000,00000000,d821,3245;SOL_COMPUTED,SINGLE,423323.1963,-5361645.7667,3417281.2776,1.4526,2.2847,1.7142,SOL_COMPUTED,DOPPLER_VELOCITY,0.0017,0.0062,-0.0073,0.1736,0.2731,0.2049,"",0.150,0.000,0.000,10,10,0,0,0,06,0,03*2adf0326
#RANGECMPA,COM1,0,79.0,FINESTEERING,1761,317117.000,00000000,9691,3245;20,049c101852a2fe6f6747e009c0b262e6201cd50ae1030000,0b9c301185effe2f6647e009ab4156db101c8f0881030000,249c1018a030f31f15f1300bd4163d895001d40a41030000,2b9c3011a304f6cf39f1300b8bb203af51016e08e1020000,449c1018a8f20a20a08c3d0a940d1ea91004d40ae1030000,4b9c3011e3870890c58c3d0ad16398ab10048f0841030000,a49c1008a4b702a00e19da0a48c348c23014f10ba1030000,ab9c30010e1e02c01619da0a1c3177db3114df09a1020000,c49c10088cfefc7f09f2b20b7078d7b330209f0a81030000,cb9c30016ea8fd5f21f2b20b75a678ec52205e0821020000,e49c1008520ff12f8297290b5743118e3009910c81030000,eb9c3001b85bf4afbc97290b2e09c7b242099f0a41020000,049d10089e5909502cfaa60b3b168bd83018fbc080030000,0b9d30012849072062faa60b6d80268942185fc060020000,249d10183b7ff1ff8181dc0aa31eb4c03008a10a81030000,2b9d3011ecb2f43fb781dc0a46e73bda32085e0841020000,449d10187f9f0c304dc1c50b3e7753c44002ab6960030000,4b9d30110dd609709dc1c50bd97565f95302de6800020000,a49d10182763008023c6060a424d19cd1011350ce1030000,ab9d3011434d006023c6060ac904a2c71011100aa1030000*f6967f6c
#BESTXYZA,COM1,0,79.0,FINESTEERING,1761,317117.000,00000000,d821,3245;SOL_COMPUTED,SINGLE,423323.1947,-5361645.7565,3417281.2656,1.4526,2.2847,1.7142,SOL_COMPUTED,DOPPLER_VELOCITY,0.0119,0.0080,-0.0047,0.1736,0.2731,0.2049,"",0.150,0.000,0.000,10,10,0,0,0,06,0,03*b4a424d2
#RANGECMPA,COM1,0,81.0,FINESTEERING,1761,317118.000,00000000,9691,3245;20,049c1018d1a1fe4f7c49e009c35461e6101cf50ae1030000,0b9c301120effeff7a49e009f43055db101caf0881030000,249c10181930f32f9604310b0e4730895001f40a41030000,2b9c30113a04f6efba04310be0b6f9ae61018e08c1020000,449c101820f20a10f67b3d0aecff28a91004f40ae1030000,4b9c3011798708701b7c3d0a75eba0ab1004af0841030000,a49c1008ffb60230ec14da0a877a4bc23014110ca1030000,ab9c30018e1d0260f414da0adb4e79db3114ff09c1020000,c49c1008ddfdfc8f9df6b20b8776d4b33020bf0a81030000,cb9c3001e4a7fd4fb5f6b20b884e76ec42207e0821020000,e49c1008140ff1ff40ae290b7652028e3009b10c81030000,eb9c3001885bf4bf7bae290bc464bbb24209bf0a41020000,049d1008045909e0f0eba60b816f94d830181bc180030000,0b9d3001b04807b026eca60b50c92d8942187fc060020000,249d1018b47ef1cf9697dc0a799da5c03008c10a81030000,2b9d301183b2f41fcc97dc0ae99930da32087e0841020000,449d1018659f0c9015aec50bb51660c44002cb6960030000,4b9d3011f8d5092066aec50bde4b6ff95202fe6820020000,a49d1018e16200e08cc5060a36b019cd1011550ce1030000,ab9d30110c4d00c08cc5060ae451a2c71011300aa1030000*1ad3443f
#BESTXYZA,COM1,0,81.0,FINESTEERING,1761,317118.000,00000000,d821,3245;SOL_COMPUTED,SINGLE,423323.1903,-5361645.7424,3417281.2512,1.4527,2.2847,1.7142,SOL_COMPUTED,DOPPLER_VELOCITY,0.0028,-0.0007,-0.0017,0.1736,0.2731,0.2049,"",0.150,0.000,0.000,10,10,0,0,0,06,0,03*2f357b00
#RANGECMPA,COM1,0,79.5,FINESTEERING,1761,317119.000,00000000,9691,3245;20,049c101851a1feef914be00947f65fe6201c150be1030000,0b9c3011bceefe8f904be009da1f54db201ccf0881030000,249c1018f82ff37f1718310b0a7723895001140b41030000,2b9c30112104f66f3c18310b06bbefae5101ae08e1020000,449c1018a5f10ab04c6b3d0ac3f133a92004140be1030000,4b9c30111a870800726b3d0ab672a9ab2004cf0841030000,a49c10084db602c0ca10da0a24314ec23014310ca1030000,ab9c3001031d0210d310da0a1c6c7bdb31141f0aa1020000,c49c100829fdfcaf32fbb20bfb73d1b33020df0a81030000,cb9c300157a7fd4f4afbb20b1df673ec52209e0821020000,e49c1008f90ef10f00c5290b7261f38d4009d10c81030000,eb9c3001735bf4df3ac5290b3ec0afb24209df0a41020000,049d1008bb580940b6dda60b42c89dd830183bc180030000,0b9d3001774807d0ebdda60bcc11358942189fc060020000,249d1018687ef11facaddc0a021c97c03008e10a81030000,2b9d301147b2f44fe1addc0a4f4c25da32089e0861020000,449d10185c9f0c40de9ac50bfbb56cc44002eb6960030000,4b9d3011f2d509c02e9bc50bbb2179f963021e6900020000,a49d1018c56200a0f6c4060aeb121acd1011750ce1030000,ab9d3011f74c0070f6c4060acd9ea2c71011500aa1030000*9b9febb4
#BESTXYZA,COM1,0,79.5,FINESTEERING,1761,317119.000,00000000,d821,3245;SOL_COMPUTED,SINGLE,423323.1825,-5361645.7349,3417281.2479,1.4527,2.2847,1.7143,SOL_COMPUTED,DOPPLER_VELOCITY,-0.0298,0.0161,0.0068,0.1736,0.2731,0.2049,"",0.150,0.000,0.000,10,10,0,0,0,06,0,03*c2ad4834
#RANGECMPA,COM1,0,73.5,FINESTEERING,1761,317120.000,00000000,9691,3245;20,049c101807a1fe1fa84de00979975ee6201c350be1030000,0b9c301183eefe8fa64de0097e0e53db201cef0881030000,249c1018e12ff30f992b310befa616895001340b41030000,2b9c30110e04f6ffbd2b310b1bbfe5ae5101ce08e1020000,449c101854f10ae0a35a3d0a48e33ea91004340be1030000,4b9c3011da860810c95a3d0ab6f9b1ab1004ef0841030000,a49c1008fab50200aa0cda0a51e750c23014510ca1030000,ab9c3001c31c0250b20cda0a07897ddb41143f0aa1020000,c49c10089bfcfc7fc8ffb20bfb70ceb34020ff0a81030000,cb9c3001e0a6fdffdfffb20b549d71ec5220be0821020000,e49c1008220ff10fbfdb290b7470e48d4009f10c81030000,eb9c3001935bf40ffadb290bbc1ba4b24209ff0a61020000,049d10082d5809607ccfa60ba720a7d830185bc180030000,0b9d3001084807c0b1cfa60b005a3c893218bfc060020000,249d1018747ef17fc1c3dc0a729a88c03008010b81030000,2b9d301151b2f4cff6c3dc0aa1fe19da3208be0861020000,449d10184c9f0c00a787c50b3b5579c440020b6a60030000,4b9d3011e6d509c0f787c50b93f782f963023e6900020000,a49d10189662007060c4060a90751acd1011950ce1030000,ab9d3011d24c003060c4060aabeba2c71011700aa1030000*ed6a88e1
#BESTXYZA,COM1,0,73.5,FINESTEERING,1761,317120.000,00000000,d821,3245;SOL_COMPUTED,SINGLE,423323.1836,-5361645.7247,3417281.2337,1.4528,2.2847,1.7143,SOL_COMPUTED,DOPPLER_VELOCITY,0.0000,-0.0073,-0.0156,0.1736,0.2731,0.2049,"",0.150,0.000,0.000,10,10,0,0,0,06,0,03*6475b46b
#RANGECMPA,COM1,0,73.5,FINESTEERING,1761,317121.000,00000000,9691,3245;20,049c10186ba0fe0fbf4fe00917385de6101c550be1030000,0b9c301109eefe6fbd4fe009b2fc51db101c0f0981030000,249c1018842ff30f1b3f310b7ed609895001540b41030000,2b9c3011c603f61f403f310bebc2dbae5101ee08e1020000,449c1018b4f00af0fb493d0a33d449a91004540be1030000,4b9c30115e860810214a3d0a3d80baab10040f0941030000,a49c10083db502408a08da0ac59c53c23014710ca1030000,ab9c3001301c02b09208da0a61a57fdb31145f0aa1020000,c49c1008ecfbfc3f5f04b30b456dcbb330201f0b81030000,cb9c300160a6fdcf7604b30bfe436fec5220de0821020000,e49c1008e10ef16f7ef2290b377fd58d3009110d81030000,eb9c3001605bf47fb9f2290b097798b242091f0b41020000,049d1008af57094043c1a60b7478b0d820187bc180030000,0b9d3001a647078078c1a60bbea143893218dfc040020000,249d10181b7ef17fd7d9dc0a80187ac03008210b81030000,2b9d30110bb2f4df0cdadc0aa7b00eda3208de0841020000,449d1018059f0c307074c50b32f485c440022b6a60030000,4b9d3011aed50900c174c50b34cd8cf953025e6900020000,a49d1018376200d0cac3060ae1d71acd1011b50ce1030000,ab9d3011884c0090cac3060a4738a3c71011900aa1030000*b06e8e0c
#BESTXYZA,COM1,0,73.5,FINESTEERING,1761,317121.000,00000000,d821,3245;SOL_COMPUTED,SINGLE,423323.1850,-5361645.7156,3417281.2245,1.4528,2.2847,1.7143,SOL_COMPUTED,DOPPLER_VELOCITY,-0.0053,0.0111,-0.0239,0.1736,0.2731,0.2049,"",0.150,0.000,0.000,10,10,0,0,0,06,0,03*7414e497
#RANGECMPA,COM1,0,78.5,FINESTEERING,1761,317122.000,00000000,9691,3245;20,049c1018fb9ffecfd651e00938d85be6201c750be1030000,0b9c3011b2edfe0fd551e00983ea50db201c2f0981030000,249c10183a2ff38f9d52310bca05fd886001740b41030000,2b9c30118d03f68fc252310b87c6d1ae61010e09c1020000,449c101844f00ac054393d0a9dc454a91004740be1030000,4b9c3011068608c079393d0a6006c3ab10042f0941030000,a49c10089bb402906b04da0a995156c23014910ca1030000,ab9c3001b11b02107404da0a3ec181db31147f0aa1020000,c49c10085ffbfcfff608b30bea68c8b330203f0b61030000,cb9c3001f3a5fd9f0e09b30b28ea6cec5220fe0841020000,e49c1008b80ef1ff3d092a0bd78dc68d3009310d81030000,eb9c3001405bf42f79092a0b3dd28cb242093f0b41020000,049d10082e5709e00ab3a60bbecfb9d830189bc180030000,0b9d30014247071040b3a60b14e94a893218ffc060020000,249d1018a47df1ffedefdc0a42966bc03008410b81030000,2b9d3011b0b1f46f23f0dc0a716203da4208fe0841020000,449d1018c99e0cb03961c50bf49292c440024b6a60030000,4b9d301180d509a08a61c50bada296f952027e6920020000,a49d10181e62007035c3060af8391bcd1011d50ce1030000,ab9d3011744c003035c3060ab584a3c71011b00aa1030000*6d423f63
#BESTXYZA,COM1,0,78.5,FINESTEERING,1761,317122.000,00000000,d821,3245;SOL_COMPUTED,SINGLE,423323.1803,-5361645.7054,3417281.2146,1.4529,2.2847,1.7143,SOL_COMPUTED,DOPPLER_VELOCITY,-0.0111,-0.0033,0.0050,0.1737,0.2731,0.2049,"",0.150,0.000,0.000,10,10,0,0,0,06,0,03*b2337755
#RANGECMPA,COM1,0,78.5,FINESTEERING,1761,317123.000,00000000,9691,3245;20,049c1018a99ffe1fef53e009fb775ae6201c950be1030000,0b9c301172edfe4fed53e0090bd84fdb201c4f0981030000,249c1018212ff33f2066310bf434f0886001940b41030000,2b9c30117903f62f4566310b0acac7ae61012e09e1020000,449c1018d6ef0a20ae283d0aa9b45fa91004940be1030000,4b9c3011b1850810d3283d0a3a8ccbab10044f0941030000,a49c100808b402a04d00da0aee0559c23014b10ca1030000,ab9c30013f1b02205600da0ab8dc83db31149f0aa1020000,c49c100805fbfc8f8f0db30b0f64c5b330205f0b81030000,cb9c3001ada5fd0fa70db30bed8f6aec52201e0941020000,e49c1008b00ef18ffd1f2a0b719cb78d3009510d81030000,eb9c30013a5bf4bf38202a0b6d2d81b242095f0b41020000,049d1008c3560930d3a4a60ba126c3d83018bbc180030000,0b9d3001ee46075008a5a60b1b30528932181fc140020000,249d10185a7df1af0406dd0ad9135dc03008610b81030000,2b9d301175b1f40f3a06dd0a1b14f8d942081e0941020000,449d1018a59e0c30034ec50baa319fc440026b6a60030000,4b9d301164d50950544ec50b1c78a0f952029e6920020000,a49d1018f9610050a0c2060af09b1bcd1011f50ce1030000,ab9d3011584c0010a0c2060a0cd1a3c71011d00aa1030000*5e8ab00e
#BESTXYZA,COM1,0,78.5,FINESTEERING,1761,317123.000,00000000,d821,3245;SOL_COMPUTED,SINGLE,423323.1756,-5361645.7004,3417281.2030,1.4530,2.2846,1.7143,SOL_COMPUTED,DOPPLER_VELOCITY,-0.0039,0.0088,0.0120,0.1737,0.2731,0.2049,"",0.150,0.000,0.000,10,10,0,0,0,06,0,03*1a5d2202
#RANGECMPA,COM1,0,78.0,FINESTEERING,1761,317124.000,00000000,9691,3245;20,049c1018139ffe3f0856e009331759e6101cb50be1030000,0b9c3011fdecfe5f0656e00925c54edb201c6f0981030000,249c1018c22ef35fa379310bd063e3885001b40b41030000,2b9c30112f03f66fc879310b4ecdbdae51014e09e1020000,449c101856ef0a6008183d0a24a46aa92004b40be1030000,4b9c30114d8508402d183d0aa311d4ab10046f0941030000,a49c100877b302a030fcd90a9bb95bc23014d10ca1030000,ab9c3001ce1a023039fcd90aaff785db3114bf0aa1020000,c49c10085cfafc1f2912b30b855ec2b340207f0b81030000,cb9c300129a5fdaf4012b30b2d3568ec52203e0921020000,e49c1008590ef17fbd362a0bdaaaa88d3009710d81030000,eb9c3001f65af4bff8362a0b738875b242097f0b41020000,049d10082a5609609c96a60bfa7cccd82018dbc180030000,0b9d300177460720d196a60bb776598932183fc140020000,249d10181c7df1df1b1cdd0a20914ec03008810b81030000,2b9d301146b1f46f511cdd0a86c5ecd932083e0961020000,449d10189e9e0c10cd3ac50b22d0abc440028b6a60030000,4b9d30115ed509701e3bc50b584daaf95302be6900020000,a49d10189f6100900bc2060a9ffd1bcd1011150de1030000,ab9d3011114c00500bc2060a2b1da4c71011f00aa1030000*9d66aa72
#BESTXYZA,COM1,0,78.0,FINESTEERING,1761,317124.000,00000000,d821,3245;SOL_COMPUTED,SINGLE,423323.1747,-5361645.6887,3417281.1880,1.4530,2.2846,1.7143,SOL_COMPUTED,DOPPLER_VELOCITY,-0.0043,0.0246,-0.0159,0.1737,0.2731,0.2049,"",0.150,0.000,0.000,10,10,0,0,0,06,0,03*6c4ed2bc
#RANGECMPA,COM1,0,78.0,FINESTEERING,1761,317125.000,00000000,9691,3245;20,049c1018bb9efe1f2258e009f2b557e6201cd50be1030000,0b9c3011b9ecfe2f2058e009e2b14ddb201c8f0981030000,249c1018b32ef3ef268d310b6f92d6885001d40b41030000,2b9c30112303f6ff4b8d310b64d0b3ae51016e09c1020000,449c1018cfee0a6063073d0a249375a91004d40be1030000,4b9c3011e484083088073d0aab96dcab20048f0941030000,a49c1008e0b2029014f8d90aa76c5ec24014f10ca1030000,ab9c3001581a02501df8d90a291288db4114df0ac1020000,c49c1008a6f9fcbfc316b30b5858bfb340209f0b61030000,cb9c30019ba4fd5fdb16b30becd965ec53205e0901020000,e49c10085b0ef1af7d4d2a0b1db9998d3009910d81030000,eb9c3001f75af4dfb84d2a0b5ee369b242099f0b41020000,049d1008a95509506688a60bcfd2d5d82018fbc180030000,0b9d3001134607b09a88a60becbc608932185fc140020000,249d1018df7cf16f3332dd0a1e0e40c03008a10b81030000,2b9d301115b1f42f6932dd0ab976e1d932085e0941020000,449d10183d9e0c509727c50b666eb8c44002ab6a60030000,4b9d301113d509e0e827c50b6f22b4f95302de6900020000,a49d10187761003077c1060a165f1ccd1011350de1030000,ab9d3011f14b00f076c1060a1e69a4c71011100ba1030000*d84e3ab5
#BESTXYZA,COM1,0,78.0,FINESTEERING,1761,317125.000,00000000,d821,3245;SOL_COMPUTED,SINGLE,423323.1733,-5361645.6904,3417281.1795,1.4531,2.2846,1.7144,SOL_COMPUTED,DOPPLER_VELOCITY,0.0107,-0.0051,0.0098,0.1737,0.2731,0.2049,"",0.150,0.000,0.000,10,10,0,0,0,06,0,03*dbac694e
#RANGECMPA,COM1,0,78.5,FINESTEERING,1761,317126.000,00000000,9691,3245;20,049c1018309efe8f3c5ae0094c5456e6201cf50be1030000,0b9c30114cecfe7f3a5ae009519e4cdb201caf0981030000,249c10187a2ef3afaaa0310bebc0c9885001f40b41030000,2b9c3011f702f69fcfa0310b5ed3a9ae51018e09e1020000,449c101857ee0af0bef63c0ac08180a91004f40be1030000,4b9c3011868408b0e3f63c0a671be5ab1004af0941030000,a49c10082fb20270f9f3d90a2a1f61c23014110da1030000,ab9c3001ce19022002f4d90a382c8adb3114ff0aa1020000,c49c10080bf9fc1f5f1bb30ba351bcb34020bf0b61030000,cb9c300125a4fdcf761bb30b417e63ec52207e0921020000,e49c10084e0ef1df3d642a0b59c78a8d3009b10d81030000,eb9c3001ed5af40f79642a0b433e5eb24209bf0b41020000,049d10082a5509d0307aa60b3d28dfd820181bc280030000,0b9d3001b0450730657aa60bd102688932187fc160020000,249d1018ae7cf14f4b48dd0aed8a31c03008c10b81030000,2b9d3011efb0f42f8148dd0ac827d6d932087e0961020000,449d1018179e0cb06114c50b900cc5c43002cb6a60030000,4b9d3011f5d40980b314c50b71f7bdf95202fe6920020000,a49d101839610000e3c0060a68c01ccd1011550de1030000,ab9d3011c14b00c0e2c0060af4b4a4c71011300ba1030000*901174cc
#BESTXYZA,COM1,0,78.5,FINESTEERING,1761,317126.000,00000000,d821,3245;SOL_COMPUTED,SINGLE,423323.1699,-5361645.6847,3417281.1686,1.4531,2.2846,1.7144,SOL_COMPUTED,DOPPLER_VELOCITY,0.0045,0.0063,-0.0040,0.1737,0.2731,0.2049,"",0.150,0.000,0.000,10,10,0,0,0,06,0,03*52409b60
#RANGECMPA,COM1,0,79.5,FINESTEERING,1761,317127.000,00000000,9691,3245;20,049c1018bc9dfeaf575ce0093bf254e6201c150ce1030000,0b9c3011f2ebfe8f555ce0096c8a4bdb201ccf0981030000,249c1018432ef3af2eb4310b33efbc886001140c41030000,2b9c3011cc02f6bf53b4310b31d69fae6101ae09e1020000,449c1018ebed0a201be63c0af06f8ba91004140ce1030000,4b9c3011328408e03fe63c0ace9fedab1004cf0941030000,a49c10087ab10210dfefd90a20d163c24014310da1030000,ab9c3001411902e0e7efd90ada458cdb41141f0bc1020000,c49c10087ef8fc4ffb1fb30b614ab9b34020df0b81030000,cb9c3001b5a3fdff1220b30b272261ec52209e0921020000,e49c1008e80df13ffe7a2a0b7ed57b8d4009d10d81030000,eb9c30019e5af45f397b2a0b169952b24209df0b41020000,049d1008c4540900fc6ba60b397de8d830183bc280030000,0b9d300160450740306ca60b5c486f8932189fc160020000,249d10185b7cf17f635edd0a830723c03008e10b81030000,2b9d3011aeb0f46f995edd0aaad8cad932089e0941020000,449d1018f49d0c502c01c50ba5aad1c44002eb6a60030000,4b9d3011dad409307e01c50b62ccc7f953021e6a00020000,a49d1018036100204fc0060a91211dcd1011750de1030000,ab9d3011974b00e04ec0060aa900a5c71011500ba1030000*7f37850b
#BESTXYZA,COM1,0,79.5,FINESTEERING,1761,317127.000,00000000,d821,3245;SOL_COMPUTED,SINGLE,423323.1665,-5361645.6809,3417281.1593,1.4532,2.2846,1.7144,SOL_COMPUTED,DOPPLER_VELOCITY,-0.0112,0.0168,0.0092,0.1737,0.2731,0.2049,"",0.150,0.000,0.000,10,10,0,0,0,06,0,03*529b92f2
#RANGECMPA,COM1,0,79.0,FINESTEERING,1761,317128.000,00000000,9691,3245;20,049c1018ca9dfe0f735ee009f88f53e6201c350ce1030000,0b9c3011fdebfedf705ee00960764adb201cef0981030000,249c1018522ef3afb2c7310b871db0885001340c41030000,2b9c3011d802f6afd7c7310b0bd995ae6101ce09e1020000,449c1018f6ed0aa077d53c0aed5d96a91004340ce1030000,4b9c30113b8408509cd53c0a0c24f6ab1004ef0941030000,a49c100880b10240c5ebd90ac78266c24014510da1030000,ab9c300146190210ceebd90a3e5f8edb41143f0ba1020000,c49c10082bf8fc1f9824b30bc542b6b34020ff0b81030000,cb9c300175a3fdcfaf24b30bc7c55eec5220be0921020000,e49c1008680ef15fbe912a0bcee36c8d3009f10d81030000,eb9c3001025bf48ff9912a0b09f446b24209ff0b41020000,049d1008b4540970c75da60b02d2f1d830185bc280030000,0b9d300153450780fb5da60bc08d76893218bfc140020000,249d1018a47cf19f7b74dd0a218414c03008010c81030000,2b9d3011e7b0f48fb174dd0a9289bfd93208be0941020000,449d1018589e0ca0f6edc40bce48dec440020b6b60030000,4b9d301127d509b048eec40b64a1d1f953023e6a00020000,a49d101848610010bbbf060aca821dcd1011950de1030000,ab9d3011cd4b00e0babf060a6b4ca5c71011700ba1030000*22192fa8
#BESTXYZA,COM1,0,79.0,FINESTEERING,1761,317128.000,00000000,d821,3245;SOL_COMPUTED,SINGLE,423323.1530,-5361645.6753,3417281.1485,1.4532,2.2846,1.7144,SOL_COMPUTED,DOPPLER_VELOCITY,-0.0082,-0.0183,0.0002,0.1737,0.2731,0.2049,"",0.150,0.000,0.000,10,10,0,0,0,06,0,03*3b69ef02
#RANGECMPA,COM1,0,78.5,FINESTEERING,1761,317129.000,00000000,9691,3245;20,049c10184f9dfebf8e60e009842d52e6201c550ce1030000,0b9c30119debfe6f8c60e0092d6249db201c0f0a81030000,249c1018592ef39f36db310be94ba3885001540c41030000,2b9c3011dd02f69f5bdb310bf2db8bae5101ee09e1020000,449c10189eed0a60d4c43c0ab84ba1a91004540ce1030000,4b9c3011f6830800f9c43c0a25a8feab10040f0a41030000,a49c10082eb102d0abe7d90a1d3469c23014710da1030000,ab9c3001061902c0b4e7d90a627890db41145f0ba1020000,c49c1008c7f7fc5f3529b30bda3ab3b330201f0c81030000,cb9c30013ca3fd0f4d29b30b2a695cec5220de0921020000,e49c1008710ef14f7ea82a0b43f25d8d4009110e81030000,eb9c3001095bf44fb9a82a0b1a4f3bb242091f0c41020000,049d10086d540940934fa60b9526fbd830187bc280030000,0b9d30011b450720c74fa60bfad27d893218dfc120020000,249d1018777cf1cf938add0ac00006c03008210c81030000,2b9d3011c4b0f4cfc98add0a793ab4d93208de0961020000,449d10183b9e0cd0c0dac40b14e7eac430022b6b60030000,4b9d301110d5091013dbc40b7c76dbf953025e6a00020000,a49d10183a6100f026bf060a14e41dcd1011b50de1030000,ab9d3011c24b00c026bf060a3b98a5c71011900ba1030000*9fe4080b
#BESTXYZA,COM1,0,78.5,FINESTEERING,1761,317129.000,00000000,d821,3245;SOL_COMPUTED,SINGLE,423323.1463,-5361645.6694,3417281.1383,1.4533,2.2846,1.7144,SOL_COMPUTED,DOPPLER_VELOCITY,-0.0021,0.0109,-0.0030,0.1737,0.2731,0.2049,"",0.150,0.000,0.000,10,10,0,0,0,06,0,03*1f759ceb
#RANGECMPA,COM1,0,78.5,FINESTEERING,1761,317130.000,00000000,9691,3245;20,049c1018d69cfe1fab62e00998ca50e6201c750ce1030000,0b9c30113febfebfa862e0099d4d48db201c2f0a81030000,249c1018f62df3efbaee310b0c7a96885001740c41030000,2b9c30119002f6dfdfee310ba7de81ae61010e0ae1020000,449c10180fed0af031b43c0a0539aca91004740ce1030000,4b9c30118783088056b43c0adb2b07ac10042f0a41030000,a49c10086db0026093e3d90ad1e46bc23014910da1030000,ab9c3001701802609ce3d90a0a9192db31147f0bc1020000,c49c100822f7fc8fd32db30b4e32b0b340203f0c81030000,cb9c3001a1a2fdffea2db30b110c5aec5220fe0941020000,e49c10082d0ef15f3ebf2a0b97004f8d3009310e81030000,eb9c3001d45af42f79bf2a0b13aa2fb242093f0c41020000,049d1008c15309d05f41a60ba67a04d930189bc280030000,0b9d3001954407a09341a60bd01785893218ffc140020000,249d1018247cf15faca0dd0a187df7bf3008410c81030000,2b9d301183b0f47fe2a0dd0a29eba8d93208fe0961020000,449d1018fa9d0c408bc7c40b2885f7c440024b6b60030000,4b9d3011ded409c0ddc7c40b6c4be5f953027e6a00020000,a49d1018e060002093be060a23451ecd1011d50de1030000,ab9d30117c4b000093be060adce3a5c71011b00ba1030000*56cbb6d5
#BESTXYZA,COM1,0,78.5,FINESTEERING,1761,317130.000,00000000,d821,3245;SOL_COMPUTED,SINGLE,423323.1409,-5361645.6625,3417281.1267,1.4533,2.2845,1.7145,SOL_COMPUTED,DOPPLER_VELOCITY,0.0048,0.0001,-0.0052,0.1737,0.2731,0.2049,"",0.150,0.000,0.000,10,10,0,0,0,06,0,03*8220c1c5
#RANGECMPA,COM1,0,77.0,FINESTEERING,1761,317131.000,00000000,9691,3245;20,049c1018579cfe7fc864e0090d674fe6201c950ce1030000,0b9c3011dceafeffc564e009923847db201c4f0a81030000,249c1018b02df3cf3f02320bcca789885001940c41030000,2b9c30115902f6af6402320b0fe177ae61012e0ae1020000,449c10188aec0a6090a33c0ab325b7a91004940ce1030000,4b9c30111f8308f0b4a33c0a15af0fac20044f0a41030000,a49c1008b1af02107cdfd90ac7946ec23014b10da1030000,ab9c3001dd17022085dfd90a1da994db31149f0ba1020000,c49c100870f6fcef7232b30bfe28adb340205f0c81030000,cb9c300109a2fd6f8a32b30b5fae57ec53201e0a01020000,e49c10080b0ef1dffed52a0ba50e408d3009510e81030000,eb9c3001b95af49f39d62a0bd40424b242095f0c41020000,049d1008325309602d33a60b15ce0dd93018bbc280030000,0b9d3001274407106133a60b255c8c8932181fc220020000,249d1018e67bf19fc5b6dd0a09f9e8bf3008610c81030000,2b9d301153b0f4cffbb6dd0a8c9b9dd932081e0a61020000,449d1018c79d0c5056b4c40beb2204c540026b6b60030000,4b9d3011b7d409f0a8b4c40b1c20eff953029e6a00020000,a49d1018a16000e0ffbd060ad7a51ecd1011f50de1030000,ab9d30114b4b00d0ffbd060a362fa6c71011d00ba1030000*0bd38294
#BESTXYZA,COM1,0,77.0,FINESTEERING,1761,317131.000,00000000,d821,3245;SOL_COMPUTED,SINGLE,423323.1355,-5361645.6657,3417281.1199,1.4534,2.2845,1.7145,SOL_COMPUTED,DOPPLER_VELOCITY,-0.0001,-0.0072,-0.0061,0.1737,0.2731,0.2049,"",0.150,0.000,0.000,10,10,0,0,0,06,0,03*4612a478
#RANGECMPA,COM1,0,77.0,FINESTEERING,1761,317132.000,00000000,9691,3245;20,049c1018a49bfe9fe666e009fc024ee6201cb50ce1030000,0b9c301150eafeffe366e0091e2346db201c6f0a81030000,249c1018832df31fc515320b4ad57c886001b40c41030000,2b9c30113602f6efe915320b44e36dae51014e0ae1020000,449c1018f9eb0aa0ef923c0ada11c2a91004b40ce1030000,4b9c3011ae82083014933c0ae73118ac10046f0a41030000,a49c1008eeae02e065dbd90a144471c23014d10da1030000,ab9c3001441702e06edbd90aacc096db3114bf0ba1020000,c49c1008f5f5fc3f1337b30b091faab340207f0c81030000,cb9c3001bca1fdbf2a37b30b2b5055ec52203e0a41020000,e49c1008dd0df19fbfec2a0b861c318d3009710e81030000,eb9c3001955af41ffaec2a0b715f18b242097f0c41020000,049d1008be5209c0fb24a60bfb2017d92018dbc280030000,0b9d3001cd4307202f25a60b11a0938932183fc240020000,249d1018827bf15fdfccdd0aa874dabf3008810c81030000,2b9d301105b0f49f15cddd0aae4b92d942083e0a41020000,449d1018689d0ca021a1c40b72c010c540028b6b60030000,4b9d30116dd4095074a1c40b9ef4f8f95302be6ae0010000,a49d10184d6000106dbd060a46061fcd1011150ee1030000,ab9d30110a4b00006dbd060a5a7aa6c71011f00ba1030000*5250a32c
#BESTXYZA,COM1,0,77.0,FINESTEERING,1761,317132.000,00000000,d821,3245;SOL_COMPUTED,SINGLE,423323.1233,-5361645.6599,3417281.1142,1.4535,2.2845,1.7145,SOL_COMPUTED,DOPPLER_VELOCITY,-0.0026,0.0394,-0.0118,0.1737,0.2731,0.2049,"",0.150,0.000,0.000,10,10,0,0,0,06,0,03*570ae82f
#RANGECMPA,COM1,0,80.0,FINESTEERING,1761,317133.000,00000000,9691,3245;20,049c1018529bfe8f0569e009639e4ce6201cd50ce1030000,0b9c301110eafedf0269e009410d45db201c8f0a81030000,249c10182f2df3ff4a29320b770270886001d40c41030000,2b9c3011f401f6cf6f29320b3ae563ae61016e0ac1020000,449c10187aeb0ac04f823c0a79fdcca91004d40ce1030000,4b9c30114b82084074823c0a4db420ac10048f0a41030000,a49c100879ae028050d7d90abbf273c23014f10da1030000,ab9c3001ea1602a059d7d90abad798db3114df0ba1020000,c49c100805f5fc9fb43bb30b5f14a7b340209f0c81030000,cb9c30010aa1fd1fcc3bb30b6af152ec52205e0a21020000,e49c1008ba0df1af80032b0b372a228d3009910e81030000,eb9c30017a5af41fbb032b0beab90cb242099f0c41020000,049d100838520900cb16a60b517320d93018fbc280030000,0b9d300163430720fe16a60b8de39a8932185fc240020000,249d1018397bf18ff9e2dd0af3efcbbf3008a10c81030000,2b9d3011ccaff4cf2fe3dd0a8efb86d932085e0a61020000,449d10185b9d0c40ed8dc40bc45d1dc55002ab6b60030000,4b9d301163d40920408ec40bf6c802fa6302de6ae0010000,a49d10181e6000b0dabc060a6c661fcd1011350ee1030000,ab9d3011e64a00a0dabc060a46c5a6c71011100ca1030000*c503ceae
#BESTXYZA,COM1,0,80.0,FINESTEERING,1761,317133.000,00000000,d821,3245;SOL_COMPUTED,SINGLE,423323.1199,-5361645.6598,3417281.1006,1.4535,2.2845,1.7145,SOL_COMPUTED,DOPPLER_VELOCITY,-0.0049,-0.0067,0.0000,0.1737,0.2730,0.2049,"",0.150,0.000,0.000,10,10,0,0,0,06,0,03*2d644597
#RANGECMPA,COM1,0,79.0,FINESTEERING,1761,317134.000,00000000,9691,3245;20,049c1018bc9afe4f256be0093e394be6101cf50ce1030000,0b9c30119be9fe8f226be009f6f643db101caf0a81030000,249c1018e22cf32fd13c320b572f63886001f40c41030000,2b9c3011b801f6fff53c320bf3e659ae51018e0ae1020000,449c1018ecea0ab0b0713c0a89e8d7a92004f40ce1030000,4b9c3011dc810830d5713c0a443629ac2004af0a41030000,a49c1008d7ad02403cd3d90ab3a076c23014110ea1030000,ab9c30016c16027045d3d90a40ee9adb3114ff0bc1020000,c49c100856f4fc0f5740b30b0509a4b34020bf0c81030000,cb9c300177a0fd8f6e40b30b229250ec52207e0a41020000,e49c10087b0df1ff411a2b0bb537138d3009b10e81030000,eb9c3001495af46f7c1a2b0b3a1401b24209bf0c41020000,049d1008d15109109b08a60b1ac529d930181bc380030000,0b9d3001144307f0cd08a60b9a26a28932187fc240020000,249d1018dd7af13f14f9dd0ae86abdbf3008c10c81030000,2b9d301185aff48f4af9dd0a2aab7bd942087e0a61020000,449d10183a9d0c50b97ac40bd1fa29c55002cb6b60030000,4b9d30113fd409500c7bc40b1b9d0cfa6302fe6a20020000,a49d1018e05f00b048bc060a48c61fcd1011550ee1030000,ab9d3011b54a00b048bc060af80fa7c71011300ca1030000*f6ab469c
#BESTXYZA,COM1,0,79.0,FINESTEERING,1761,317134.000,00000000,d821,3245;SOL_COMPUTED,SINGLE,423323.1135,-5361645.6590,3417281.0919,1.4536,2.2845,1.7145,SOL_COMPUTED,DOPPLER_VELOCITY,-0.0214,0.0137,-0.0022,0.1737,0.2730,0.2049,"",0.150,0.000,0.000,10,10,0,0,0,06,0,03*fbd59c0b
#RANGECMPA,COM1,0,79.0,FINESTEERING,1761,317135.000,00000000,9691,3245;20,049c1018339afeaf456de009b1d349e6101c150de1030000,0b9c301131e9fedf426de00959e042db101ccf0a81030000,249c10188c2cf3af5750320b075c56885001140d41030000,2b9c30117601f64f7c50320b86e84fae6101ae0ae1020000,449c101863ea0a4012613c0a2bd3e2a92004140de1030000,4b9c3011728108b036613c0ae7b731ac2004cf0a41030000,a49c100805ad02d028cfd90a1c4e79c23014310ea1030000,ab9c3001c815021032cfd90a54049ddb31141f0ca1020000,c49c1008aff3fc4ffa44b30b24fda0b34020df0c81030000,cb9c3001f69ffddf1145b30b6e324eec52209e0a21020000,e49c1008550df17f03312b0b2145048d3009d10e81030000,eb9c30012b5af4df3d312b0b7c6ef5b14209df0c41020000,049d10082e5109e06bfaa50b721633d930183bc380030000,0b9d3001954207909efaa50b4f69a98932189fc240020000,249d1018a57af13f2f0fde0aa7e5aebf3008e10c81030000,2b9d301159aff48f650fde0a9e5a70d932089e0a41020000,449d1018099d0c908567c40bbf9736c54002eb6b60030000,4b9d301123d409b0d867c40b277116fa63021e6be0010000,a49d10189e5f00f0b6bb060afc2520cd1011750ee1030000,ab9d3011824a0000b7bb060a8a5aa7c71011500ca1030000*e20323e3
#BESTXYZA,COM1,0,79.0,FINESTEERING,1761,317135.000,00000000,d821,3245;SOL_COMPUTED,SINGLE,423323.1096,-5361645.6577,3417281.0830,1.4536,2.2844,1.7145,SOL_COMPUTED,DOPPLER_VELOCITY,-0.0273,0.0089,-0.0098,0.1737,0.2730,0.2049,"",0.150,0.000,0.000,10,10,0,0,0,06,0,03*ddd1eee1
