#GPSEPHEMA,COM1,13,53.0,SATTIME,1761,317610.000,00000000,9145,9570;1,317610.0,0,46,46,1761,1761,324000.0,2.656042496e+07,5.016994692e-09,2.202551220e+00,2.4175213184e-03,4.0835285082e-01,-4.284083843e-07,6.416812539e-06,2.55187500e+02,-8.93750000e+00,-7.264316082e-08,2.793967724e-08,9.6044927450e-01,-7.500312418e-12,2.438194543e+00,-8.18712674e-09,46,324000.0,8.381903172e-09,8.32425e-05,3.75167e-12,0.00000,TRUE,1.458583610e-04,4.00000000e+00*70a7cc7f
#GPSEPHEMA,COM1,12,53.0,SATTIME,1761,317610.000,00000000,9145,9570;2,317610.0,0,44,44,1761,1761,324000.0,2.656094866e+07,5.359151802e-09,3.044141497e+00,1.2637993321e-02,-2.553265965e+00,-5.289912224e-07,6.292015314e-06,2.44500000e+02,-8.59375000e+00,-1.117587090e-07,-1.825392246e-07,9.3894420465e-01,6.428839216e-12,2.413612370e+00,-8.20927052e-09,44,324000.0,-1.722946763e-08,4.55135e-04,1.81899e-12,0.00000,TRUE,1.458543895e-04,4.00000000e+00*d259b693
#GPSEPHEMA,COM1,11,53.0,SATTIME,1761,317610.000,00000000,9145,9570;4,317610.0,0,77,77,1761,1761,324000.0,2.655966468e+07,5.572732127e-09,3.6891196644e-02,1.0628628195e-02,1.035272366e+00,-1.545995474e-07,6.178393960e-06,2.47656250e+02,-6.96875000e+00,-6.519258022e-08,1.080334187e-07,9.3798840858e-01,-3.107272288e-11,2.429904002e+00,-8.67286126e-09,77,324000.0,-6.053596735e-09,1.81235e-06,4.54747e-13,0.00000,TRUE,1.458651794e-04,4.00000000e+00*6c9e97f8
#GPSEPHEMA,COM1,10,53.0,SATTIME,1761,316320.000,00000000,9145,9570;7,316320.0,0,48,48,1761,1761,316800.0,2.656026876e+07,4.429470219e-09,6.0180875433e-01,6.9770587143e-03,-2.864033742e+00,4.153698683e-07,2.460554242e-06,3.38687500e+02,7.62500000e+00,1.117587090e-08,1.378357410e-07,9.7482666515e-01,5.714523747e-12,-6.8425508538e-01,-8.40320717e-09,48,316800.0,-1.071020961e-08,2.67641e-04,4.20641e-12,0.00000,TRUE,1.458590600e-04,4.00000000e+00*b9799b6d
#GPSEPHEMA,COM1,9,53.0,SATTIME,1761,317610.000,00000000,9145,9570;8,317610.0,0,58,58,1761,1761,324000.0,2.656044753e+07,3.889804883e-09,1.082089710e+00,1.3477348373e-02,-2.824466736e+00,-2.011656761e-07,2.894550562e-06,3.43437500e+02,-6.43750000e+00,-1.490116119e-07,2.086162567e-07,9.9782064621e-01,-1.803646558e-10,-5.9005804334e-01,-8.12355266e-09,58,324000.0,-3.725290298e-09,8.98121e-06,2.27374e-13,0.00000,TRUE,1.458570479e-04,4.00000000e+00*dc44b947
#GPSEPHEMA,COM1,8,53.0,SATTIME,1761,317610.000,00000000,9145,9570;9,317610.0,0,67,67,1761,1761,324000.0,2.656078914e+07,4.149101398e-09,2.829930744e+00,1.6849673237e-02,1.732590499e+00,7.078051567e-07,2.117827535e-06,3.48250000e+02,1.22187500e+01,1.825392246e-07,-1.303851604e-08,9.8340362803e-01,-3.821587756e-11,-7.0653224243e-01,-7.96747473e-09,67,324000.0,-5.587935448e-09,2.74319e-04,2.72848e-12,0.00000,TRUE,1.458544934e-04,7.84000000e+00*5b734b6e
#GPSEPHEMA,COM1,7,53.0,SATTIME,1761,316530.000,00000000,9145,9570;11,316530.0,0,57,57,1761,1761,316800.0,2.656043392e+07,6.797783155e-09,8.3619183043e-01,1.4668348944e-02,1.224238066e+00,2.998858690e-07,6.301328540e-06,2.23375000e+02,3.40625000e+00,-1.806765795e-07,5.587935448e-08,8.8926424399e-01,1.100045821e-10,2.131292655e+00,-9.36824737e-09,57,316800.0,-1.164153218e-08,-4.27132e-04,-3.41061e-12,0.00000,TRUE,1.458600679e-04,4.00000000e+00*037de1bf
#GPSEPHEMA,COM1,6,53.0,SATTIME,1761,317610.000,00000000,9145,9570;17,317610.0,0,12,12,1761,1761,324000.0,2.656053338e+07,4.425898642e-09,-1.781774207e+00,8.5887842579e-03,-2.190452221e+00,-1.117587090e-06,9.715557098e-06,1.92593750e+02,-2.32500000e+01,1.564621925e-07,1.676380634e-08,9.6621620875e-01,5.768097407e-10,1.428808649e+00,-7.79282460e-09,12,324000.0,-1.024454832e-08,-2.93832e-05,-3.63798e-12,0.00000,TRUE,1.458568768e-04,4.00000000e+00*78437fac
#GPSEPHEMA,COM1,5,53.0,SATTIME,1761,317610.000,00000000,9145,9570;20,317610.0,0,4,4,1761,1761,323984.0,2.656026853e+07,5.350937174e-09,2.1779969568e-01,5.6309584761e-03,1.284218550e+00,5.867332220e-07,9.777024388e-06,1.72687500e+02,1.12812500e+01,-7.450580597e-09,3.352761269e-08,9.2796567009e-01,-5.250218693e-10,-2.857435879e+00,-8.45356641e-09,4,323984.0,-7.916241884e-09,1.28162e-04,2.72848e-12,0.00000,TRUE,1.458599835e-04,4.00000000e+00*9697a713
#GPSEPHEMA,COM1,4,53.0,SATTIME,1761,317610.000,00000000,9145,9570;24,317610.0,0,56,56,1761,1761,324000.0,2.656013458e+07,4.726982612e-09,2.667018702e+00,1.1337259784e-03,1.3296966398e-01,8.530914783e-07,2.423301339e-06,3.29000000e+02,1.54375000e+01,-1.117587090e-08,3.166496754e-08,9.5827283129e-01,4.214461264e-11,-7.1510211455e-01,-8.45892378e-09,56,324000.0,3.259629011e-09,-1.52267e-05,-6.82121e-13,0.00000,TRUE,1.458604628e-04,7.84000000e+00*003233c0
#GPSEPHEMA,COM1,3,53.0,SATTIME,1761,315390.000,00000000,9145,9570;26,315390.0,0,2,2,1761,1761,316784.0,2.656048128e+07,3.969808216e-09,2.187369768e+00,2.1079818718e-02,1.252201226e+00,4.768371582e-06,7.718801498e-06,2.34812500e+02,9.66875000e+01,2.011656761e-07,-3.799796104e-07,9.7723704358e-01,1.839362331e-10,-1.658595223e+00,-7.66781940e-09,2,316784.0,-5.587935448e-09,2.30192e-04,1.89857e-11,0.00000,TRUE,1.458568498e-04,4.00000000e+00*9a2667aa
#GPSEPHEMA,COM1,2,53.0,SATTIME,1761,317610.000,00000000,9145,9570;28,317610.0,0,19,19,1761,1761,324000.0,2.656017170e+07,3.980165790e-09,-9.8825678854e-01,1.8845119048e-02,-1.762026741e+00,-4.811212420e-06,8.760020137e-06,2.26500000e+02,-9.86250000e+01,-1.695007086e-07,3.762543201e-07,9.8483024088e-01,-2.785830327e-11,3.9992204807e-01,-8.08747973e-09,19,324000.0,-1.071020961e-08,2.99238e-04,3.06954e-12,0.00000,TRUE,1.458594102e-04,4.00000000e+00*9121fb49
#GPSEPHEMA,COM1,1,53.0,SATTIME,1761,317610.000,00000000,9145,9570;32,317610.0,0,98,98,1761,1761,324000.0,2.655940903e+07,4.663408535e-09,2.176481080e+00,1.1627037893e-02,-2.7599505232e-01,1.631677151e-06,1.070834696e-05,1.65406250e+02,3.04375000e+01,4.097819328e-08,2.607703209e-07,9.4901526479e-01,-5.614519582e-10,-2.715001890e+00,-7.94854537e-09,98,324000.0,-2.793967724e-09,-5.41972e-04,3.52429e-12,0.00000,TRUE,1.458663760e-04,4.00000000e+00*63408973
#GPSEPHEMA,COM1,0,53.0,SATTIME,1761,317610.000,00000000,9145,9570;10,317610.0,0,22,22,1761,1761,324000.0,2.656024621e+07,5.014851746e-09,-7.2518313717e-01,1.2913242797e-02,8.2064569990e-01,5.885958672e-07,9.896233678e-06,1.78500000e+02,1.09687500e+01,6.891787052e-08,2.123415470e-07,9.4333399170e-01,-5.610948004e-10,-2.785202137e+00,-8.33713299e-09,22,324000.0,-2.328306437e-09,-9.74825e-05,-1.36424e-12,0.00000,TRUE,1.458598312e-04,4.00000000e+00*9b6e412f
#BESTXYZA,COM1,0,54.5,FINESTEERING,1761,317643.000,00000000,d821,9570;SOL_COMPUTED,SINGLE,423321.7453,-5361647.0099,3417282.4102,1.3827,2.1512,1.4041,SOL_COMPUTED,DOPPLER_VELOCITY,-0.0007,0.0036,0.0085,0.1653,0.2571,0.1678,"",0.150,0.000,0.000,19,19,0,0,0,06,0,33*4de8d77b
#BESTXYZA,COM1,0,54.5,FINESTEERING,1761,317644.000,00000000,d821,9570;SOL_COMPUTED,SINGLE,423321.7420,-5361647.0003,3417282.4088,1.3827,2.1512,1.4041,SOL_COMPUTED,DOPPLER_VELOCITY,-0.0086,-0.0097,-0.0070,0.1653,0.2571,0.1678,"",0.150,0.000,0.000,19,19,0,0,0,06,0,33*9b78d00c
#BESTXYZA,COM1,0,54.5,FINESTEERING,1761,317645.000,00000000,d821,9570;SOL_COMPUTED,SINGLE,423321.7411,-5361646.9912,3417282.4065,1.3828,2.1512,1.4041,SOL_COMPUTED,DOPPLER_VELOCITY,0.0003,-0.0002,0.0112,0.1653,0.2571,0.1678,"",0.150,0.000,0.000,19,19,0,0,0,06,0,33*e5562c14
#BESTXYZA,COM1,0,50.0,FINESTEERING,1761,317646.000,00000000,d821,9570;SOL_COMPUTED,SINGLE,423321.7392,-5361646.9898,3417282.4098,1.3828,2.1512,1.4042,SOL_COMPUTED,DOPPLER_VELOCITY,0.0018,0.0003,-0.0013,0.1653,0.2571,0.1678,"",0.150,0.000,0.000,19,19,0,0,0,06,0,33*72e90a67
#BESTXYZA,COM1,0,50.0,FINESTEERING,1761,317647.000,00000000,d821,9570;SOL_COMPUTED,SINGLE,423321.7411,-5361646.9875,3417282.4070,1.3829,2.1512,1.4042,SOL_COMPUTED,DOPPLER_VELOCITY,0.0123,-0.0047,0.0087,0.1653,0.2571,0.1678,"",0.150,0.000,0.000,19,19,0,0,0,06,0,33*5cd9788b
#BESTXYZA,COM1,0,54.0,FINESTEERING,1761,317648.000,00000000,d821,9570;SOL_COMPUTED,SINGLE,423321.7327,-5361647.0135,3417282.4591,1.3828,2.1491,1.3953,SOL_COMPUTED,DOPPLER_VELOCITY,0.0046,0.0103,-0.0278,0.1653,0.2569,0.1668,"",0.150,0.000,0.000,19,19,0,0,0,06,0,33*aa3426d9
#BESTXYZA,COM1,0,54.0,FINESTEERING,1761,317649.000,00000000,d821,9570;SOL_COMPUTED,SINGLE,423321.7363,-5361647.0099,3417282.4552,1.3829,2.1491,1.3953,SOL_COMPUTED,DOPPLER_VELOCITY,0.0153,0.0175,-0.0231,0.1653,0.2569,0.1668,"",0.150,0.000,0.000,19,19,0,0,0,06,0,33*2aff9160
#BESTXYZA,COM1,0,54.0,FINESTEERING,1761,317650.000,00000000,d821,9570;SOL_COMPUTED,SINGLE,423321.7369,-5361647.0084,3417282.4535,1.3829,2.1491,1.3953,SOL_COMPUTED,DOPPLER_VELOCITY,-0.0038,0.0015,-0.0145,0.1653,0.2569,0.1668,"",0.150,0.000,0.000,19,19,0,0,0,06,0,33*6f6be073
#BESTXYZA,COM1,0,54.5,FINESTEERING,1761,317651.000,00000000,d821,9570;SOL_COMPUTED,SINGLE,423321.7153,-5361646.9849,3417282.4421,1.3827,2.1490,1.3952,SOL_COMPUTED,DOPPLER_VELOCITY,-0.0072,0.0296,-0.0175,0.1653,0.2569,0.1668,"",0.150,0.000,0.000,19,19,0,0,0,06,0,33*03b5391c
#BESTXYZA,COM1,0,54.5,FINESTEERING,1761,317652.000,00000000,d821,9570;SOL_COMPUTED,SINGLE,423321.7118,-5361646.9837,3417282.4465,1.3828,2.1490,1.3953,SOL_COMPUTED,DOPPLER_VELOCITY,-0.0154,0.0023,-0.0091,0.1653,0.2569,0.1668,"",0.150,0.000,0.000,19,19,0,0,0,06,0,33*ec60f3c9
#BESTXYZA,COM1,0,53.5,FINESTEERING,1761,317654.000,00000000,d821,9570;SOL_COMPUTED,SINGLE,423321.7167,-5361647.0023,3417282.4507,1.3827,2.1487,1.3953,SOL_COMPUTED,DOPPLER_VELOCITY,-0.0246,0.0291,-0.0030,0.1653,0.2568,0.1668,"",0.150,0.000,0.000,19,19,0,0,0,06,0,33*c976c139
#RANGEA,COM1,0,56.5,FINESTEERING,1761,317655.000,00000000,5103,9570;38,4,0,21200994.237,0.031,-118424118.662016,0.005,2561.590,51.2,2354.060,18109c04,4,0,21200998.120,0.043,-92298105.743189,0.005,1996.043,46.6,2312.620,11309c0b,32,0,24628909.440,0.064,-129425796.074216,0.012,-1072.082,45.0,2290.010,08109c24,32,0,24628912.403,0.152,-100851274.504286,0.015,-835.387,35.7,2285.200,01309c2b,20,0,22702541.643,0.047,-126314788.132833,0.011,389.082,47.6,2316.400,08109c44,20,0,22702543.488,0.084,-92963140.285457,0.012,303.180,40.8,2299.580,01309c4b,10,0,25192502.458,0.064,-132387495.819104,0.014,3373.219,45.0,172.510,08109c64,10,0,25192516.081,0.163,-103159104.643029,0.018,2628.484,35.9,167.180,01309c6b,24,0,24204080.262,0.050,-127193308.260511,0.009,2144.250,47.1,2072.150,08109c84,24,0,24204086.065,0.086,-99111684.992644,0.010,1670.844,40.6,2067.680,01309c8b,28,0,20759290.993,0.031,-116102910.259937,0.006,-582.434,51.1,2331.870,08109ca4,28,0,20759291.245,0.038,-90489353.174320,0.006,-453.848,47.9,2312.620,01309cab,2,0,24361606.828,0.051,-128021139.540279,0.011,3155.223,46.9,1381.810,08109ce4,2,0,24361615.830,0.081,-99756777.896839,0.012,2458.625,41.1,1374.660,01309ceb,17,0,21021437.156,0.033,-117480511.182733,0.008,10.766,50.8,2343.120,08109d44,17,0,21021437.284,0.034,-91562815.284582,0.008,8.391,48.7,2311.580,01309d4b,8,0,23163466.846,0.047,-128736874.277394,0.008,-3812.824,47.7,2349.660,08109d64,8,0,23163474.275,0.096,-100333992.084410,0.010,-2971.043,39.7,2312.620,01309d6b,1,0,23810057.667,0.050,-132134785.813331,0.010,-3366.711,47.1,2352.860,18109d84,1,0,23810062.778,0.082,-102981746.175143,0.009,-2623.414,41.1,2311.580,11309d8b,9,0,23802586.320,0.049,-132095464.760692,0.010,-3850.555,47.2,2349.780,08109da4,9,0,23802595.261,0.100,-102951091.984677,0.011,-3000.445,39.4,2311.080,01309dab,43,3,23013418.181,0.091,-122804060.998422,0.008,3048.395,48.0,1903.140,18119e04,43,3,23013426.624,0.409,-95514337.330873,0.004,2370.984,33.2,1895.800,10b19e0b,48,7,19594569.925,0.072,-104707432.198490,0.006,-730.465,50.0,2303.900,18119e24,48,7,19594574.810,0.301,-81439131.540174,0.003,-568.145,35.8,2303.900,10b19e2b,47,0,21667006.416,0.075,-115497284.098488,0.006,-4156.309,49.7,2303.890,08119e64,47,0,21667017.820,0.443,-89831243.730033,0.004,-3232.695,32.4,2303.896,10b19e6b,58,11,20173812.967,0.069,-107954146.591037,0.006,-902.914,50.3,2303.900,18119ea4,58,11,20173815.053,0.422,-83964354.510596,0.003,-702.266,32.9,2303.904,00b19eab,49,6,21955405.418,0.090,-117281852.547218,0.008,3351.770,48.0,2303.910,18119ec4,49,6,21955412.994,0.311,-91219249.917777,0.002,2606.930,35.5,2283.348,00b19ecb,42,8,23080452.974,0.097,-123378253.520250,0.009,496.715,47.4,2303.910,18119f04,42,8,23080459.366,0.365,-95960903.238101,0.006,386.332,34.2,1952.364,00b19f0b,57,9,22262402.397,0.140,-119047064.554709,0.012,-2659.941,44.2,2303.900,08119f24,57,9,22262408.132,0.500,-92592173.676738,0.004,-2068.844,31.4,2303.900,10b19f2b,59,4,21326635.206,0.076,-113843066.616867,0.007,1507.703,49.6,2303.900,18119f44,59,4,21326642.228,0.201,-88544648.387808,0.002,1172.660,39.3,2303.908,10b19f4b*85a64107
#BESTXYZA,COM1,0,53.5,FINESTEERING,1761,317655.000,00000000,d821,9570;SOL_COMPUTED,SINGLE,423321.7207,-5361646.9985,3417282.4431,1.3828,2.1487,1.3953,SOL_COMPUTED,DOPPLER_VELOCITY,0.0190,-0.0024,-0.0236,0.1653,0.2568,0.1668,"",0.150,0.000,0.000,19,19,0,0,0,06,0,33*d0769f56
#RANGEA,COM1,0,56.0,FINESTEERING,1761,317656.000,00000000,5103,9570;38,4,0,21200506.860,0.032,-118421557.509599,0.005,2560.887,51.1,2355.060,18109c04,4,0,21200510.744,0.043,-92296110.043690,0.006,1995.496,46.6,2313.620,11309c0b,32,0,24629113.544,0.064,-129426868.659538,0.011,-1072.641,44.9,2291.010,08109c24,32,0,24629116.536,0.144,-100852110.288739,0.014,-835.824,36.2,2286.200,01309c2b,20,0,22702467.699,0.048,-126314399.627959,0.012,388.094,47.4,2317.400,08109c44,20,0,22702469.570,0.080,-92962837.553159,0.012,302.410,41.3,2300.580,01309c4b,10,0,25191860.595,0.065,-132384122.832281,0.014,3373.090,44.9,173.510,08109c64,10,0,25191874.209,0.156,-103156476.344064,0.017,2628.387,36.3,168.180,01309c6b,24,0,24203672.280,0.050,-127191164.273008,0.011,2143.809,47.2,2073.150,08109c84,24,0,24203678.070,0.081,-99110014.353032,0.012,1670.500,41.1,2068.680,01309c8b,28,0,20759401.906,0.031,-116103493.083415,0.006,-583.043,51.2,2332.870,08109ca4,28,0,20759402.154,0.038,-90489807.322485,0.006,-454.324,47.8,2313.620,01309cab,2,0,24361006.426,0.051,-128017984.514388,0.012,3154.969,47.0,1382.810,08109ce4,2,0,24361015.449,0.085,-99754319.449837,0.012,2458.383,40.8,1375.660,01309ceb,17,0,21021435.146,0.033,-117480500.603788,0.008,10.562,50.8,2344.120,08109d44,17,0,21021435.271,0.034,-91562807.041248,0.008,8.230,48.8,2312.580,01309d4b,8,0,23164192.477,0.047,-128740687.433415,0.008,-3813.262,47.6,2350.660,08109d64,8,0,23164199.911,0.097,-100336963.368678,0.009,-2971.383,39.6,2313.620,01309d6b,1,0,23810698.376,0.051,-132138152.715882,0.009,-3366.895,47.0,2353.860,18109d84,1,0,23810703.475,0.087,-102984369.729434,0.009,-2623.559,40.6,2312.580,11309d8b,9,0,23803319.125,0.051,-132099315.613362,0.010,-3850.992,47.0,2350.780,08109da4,9,0,23803328.073,0.099,-102954092.640502,0.011,-3000.785,39.4,2312.080,01309dab,43,3,23012846.962,0.091,-122801012.906761,0.008,3047.867,47.9,1904.140,18119e04,43,3,23012855.405,0.408,-95511966.606600,0.004,2370.574,33.2,1896.800,10b19e0b,48,7,19594706.738,0.073,-104708163.255170,0.007,-731.484,49.9,2304.900,18119e24,48,7,19594711.607,0.319,-81439700.139814,0.002,-568.938,35.3,2304.900,10b19e2b,47,0,21667786.200,0.076,-115501440.769317,0.006,-4156.824,49.6,2304.890,08119e64,47,0,21667797.613,0.514,-89834476.683804,0.004,-3233.098,31.2,2304.896,10b19e6b,58,11,20173981.758,0.070,-107955049.799829,0.007,-903.277,50.2,2304.900,18119ea4,58,11,20173983.800,0.527,-83965057.008819,0.003,-702.551,31.0,2304.904,00b19eab,49,6,21954778.052,0.091,-117278501.201346,0.009,3351.051,48.0,2304.910,18119ec4,49,6,21954785.612,0.308,-91216643.320414,0.002,2606.367,35.6,2284.348,00b19ecb,42,8,23080360.182,0.095,-123377757.317221,0.009,495.871,47.6,2304.910,18119f04,42,8,23080366.558,0.367,-95960517.304905,0.006,385.676,34.1,1953.364,00b19f0b,57,9,22262899.857,0.141,-119049724.805984,0.012,-2660.148,44.1,2304.900,08119f24,57,9,22262905.594,0.453,-92594242.761063,0.005,-2069.004,32.3,2304.900,10b19f2b,59,4,21326352.832,0.075,-113841559.314530,0.007,1507.141,49.7,2304.900,18119f44,59,4,21326359.841,0.202,-88543476.046525,0.002,1172.223,39.3,2304.908,10b19f4b*d0330178
#BESTXYZA,COM1,0,56.0,FINESTEERING,1761,317656.000,00000000,d821,9570;SOL_COMPUTED,SINGLE,423321.7208,-5361646.9995,3417282.4416,1.3828,2.1487,1.3953,SOL_COMPUTED,DOPPLER_VELOCITY,-0.0097,0.0300,-0.0004,0.1653,0.2568,0.1668,"",0.150,0.000,0.000,19,19,0,0,0,06,0,33*9dd5042f
#RANGEA,COM1,0,56.0,FINESTEERING,1761,317657.000,00000000,5103,9570;38,4,0,21200019.602,0.032,-118418996.998378,0.005,2560.219,51.1,2356.060,18109c04,4,0,21200023.491,0.043,-92294114.845052,0.006,1994.977,46.8,2314.620,11309c0b,32,0,24629317.775,0.066,-129427941.964826,0.011,-1073.570,44.7,2292.010,08109c24,32,0,24629320.787,0.128,-100852946.632978,0.015,-836.547,37.2,2287.200,01309c2b,20,0,22702393.899,0.048,-126314011.847778,0.011,387.461,47.5,2318.400,08109c44,20,0,22702395.794,0.084,-92962535.386784,0.012,301.918,40.9,2301.580,01309c4b,10,0,25191218.735,0.065,-132380749.793469,0.013,3373.199,44.8,174.510,08109c64,10,0,25191232.295,0.128,-103153848.010725,0.016,2628.473,37.9,169.180,01309c6b,24,0,24203264.416,0.048,-127189020.929852,0.010,2143.219,47.5,2074.150,08109c84,24,0,24203270.190,0.086,-99108344.221646,0.011,1670.039,40.6,2069.680,01309c8b,28,0,20759512.930,0.031,-116104076.516581,0.006,-583.691,51.2,2333.870,08109ca4,28,0,20759513.177,0.039,-90490261.944503,0.006,-454.828,47.6,2314.620,01309cab,2,0,24360406.096,0.051,-128014829.816184,0.012,3154.625,47.0,1383.810,08109ce4,2,0,24360415.126,0.081,-99751861.252038,0.013,2458.160,41.2,1376.660,01309ceb,17,0,21021433.201,0.032,-117480490.347804,0.008,10.168,50.9,2345.120,08109d44,17,0,21021433.320,0.034,-91562799.047117,0.008,7.918,48.8,2313.580,01309d4b,8,0,23164918.163,0.048,-128744500.901368,0.008,-3813.617,47.5,2351.660,08109d64,8,0,23164925.610,0.104,-100339934.887417,0.010,-2971.660,39.0,2314.620,01309d6b,1,0,23811339.138,0.051,-132141519.906735,0.009,-3367.227,46.9,2354.860,18109d84,1,0,23811344.232,0.084,-102986993.514515,0.010,-2623.816,40.8,2313.580,11309d8b,9,0,23804051.974,0.048,-132103166.636178,0.010,-3851.156,47.4,2351.780,08109da4,9,0,23804060.930,0.108,-102957093.422770,0.011,-3000.914,38.7,2313.080,01309dab,43,3,23012275.823,0.093,-122797965.261430,0.008,3047.535,47.7,1905.140,18119e04,43,3,23012284.264,0.426,-95509596.230718,0.003,2370.316,32.8,1897.800,10b19e0b,48,7,19594843.753,0.073,-104708895.386792,0.006,-732.539,49.8,2305.900,18119e24,48,7,19594848.611,0.289,-81440269.574274,0.002,-569.754,36.2,2305.900,10b19e2b,47,0,21668566.076,0.076,-115505597.962712,0.006,-4157.375,49.5,2305.890,08119e64,47,0,21668577.497,0.524,-89837710.041529,0.004,-3233.527,31.0,2305.896,10b19e6b,58,11,20174150.615,0.070,-107955953.424123,0.006,-903.711,50.2,2305.900,18119ea4,58,11,20174152.648,0.465,-83965759.833953,0.003,-702.887,32.0,2305.904,00b19eab,49,6,21954150.796,0.091,-117275150.572918,0.008,3350.402,47.9,2305.910,18119ec4,49,6,21954158.367,0.301,-91214037.276081,0.002,2605.863,35.8,2285.348,00b19ecb,42,8,23080267.560,0.093,-123377262.034062,0.008,494.840,47.7,2305.910,18119f04,42,8,23080273.928,0.379,-95960132.084670,0.005,384.875,33.8,1954.364,00b19f0b,57,9,22263397.356,0.144,-119052385.214366,0.013,-2660.363,44.0,2305.900,08119f24,57,9,22263403.069,0.446,-92596311.965088,0.005,-2069.172,32.4,2305.900,10b19f2b,59,4,21326070.551,0.072,-113840052.492286,0.007,1506.641,50.0,2305.900,18119f44,59,4,21326077.563,0.201,-88542304.077403,0.002,1171.836,39.4,2305.908,10b19f4b*fa39cf15
#BESTXYZA,COM1,0,56.0,FINESTEERING,1761,317657.000,00000000,d821,9570;SOL_COMPUTED,SINGLE,423321.7231,-5361646.9993,3417282.4443,1.3829,2.1487,1.3954,SOL_COMPUTED,DOPPLER_VELOCITY,-0.0091,0.0271,-0.0080,0.1653,0.2568,0.1668,"",0.150,0.000,0.000,19,19,0,0,0,06,0,33*036962f7
#RANGEA,COM1,0,54.0,FINESTEERING,1761,317658.000,00000000,5103,9570;38,4,0,21199532.436,0.031,-118416436.950331,0.005,2559.754,51.2,2357.060,18109c04,4,0,21199536.329,0.043,-92292120.004872,0.006,1994.613,46.6,2315.620,11309c0b,32,0,24629522.120,0.065,-129429015.865623,0.011,-1074.199,44.9,2293.010,08109c24,32,0,24629525.150,0.133,-100853783.432656,0.014,-837.043,36.9,2288.200,01309c2b,20,0,22702320.210,0.048,-126313624.667833,0.010,387.004,47.5,2319.400,08109c44,20,0,22702322.122,0.081,-92962233.693036,0.011,301.562,41.1,2302.580,01309c4b,10,0,25190576.824,0.063,-132377376.573483,0.014,3373.266,45.1,175.510,08109c64,10,0,25190590.401,0.135,-103151219.533758,0.016,2628.523,37.5,170.180,01309c6b,24,0,24202856.655,0.047,-127186878.098708,0.011,2142.555,47.7,2075.150,08109c84,24,0,24202862.402,0.085,-99106674.481864,0.011,1669.523,40.7,2070.680,01309c8b,28,0,20759624.038,0.032,-116104660.395591,0.006,-584.086,51.1,2334.870,08109ca4,28,0,20759624.287,0.037,-90490716.913932,0.006,-455.137,48.0,2315.620,01309cab,2,0,24359805.809,0.049,-128011675.277098,0.011,3154.445,47.2,1384.810,08109ce4,2,0,24359814.829,0.091,-99749403.179454,0.011,2458.016,40.2,1377.660,01309ceb,17,0,21021431.284,0.032,-117480480.274568,0.007,9.992,50.9,2346.120,08109d44,17,0,21021431.405,0.034,-91562791.194160,0.008,7.781,48.7,2314.580,01309d4b,8,0,23165643.878,0.048,-128748314.522138,0.008,-3813.727,47.6,2352.660,08109d64,8,0,23165651.337,0.107,-100342906.530144,0.010,-2971.746,38.8,2315.620,01309d6b,1,0,23811979.928,0.051,-132144887.256706,0.010,-3367.230,46.9,2355.860,18109d84,1,0,23811985.031,0.093,-102989617.422355,0.010,-2623.820,40.0,2314.580,11309d8b,9,0,23804784.819,0.050,-132107017.670021,0.010,-3851.062,47.1,2352.780,08109da4,9,0,23804793.769,0.105,-102960094.212404,0.011,-3000.844,38.9,2314.080,01309dab,43,3,23011704.731,0.094,-122794917.891256,0.008,3047.184,47.6,1906.140,18119e04,43,3,23011713.170,0.400,-95507226.065115,0.004,2370.074,33.4,1898.800,10b19e0b,48,7,19594980.936,0.073,-104709628.439564,0.007,-733.570,49.9,2306.900,18119e24,48,7,19594985.782,0.300,-81440839.721446,0.002,-570.559,35.8,2306.900,10b19e2b,47,0,21669346.036,0.076,-115509755.523662,0.007,-4157.707,49.6,2306.890,08119e64,47,0,21669357.448,0.556,-89840943.691345,0.004,-3233.785,30.5,2306.896,10b19e6b,58,11,20174319.524,0.072,-107956857.282636,0.006,-904.012,50.1,2306.900,18119ea4,58,11,20174321.553,0.466,-83966462.836267,0.003,-703.121,32.0,2306.904,00b19eab,49,6,21953523.670,0.093,-117271800.533819,0.008,3349.863,47.8,2306.910,18119ec4,49,6,21953531.231,0.313,-91211431.691361,0.002,2605.449,35.5,2286.348,00b19ecb,42,8,23080175.077,0.092,-123376767.515326,0.008,494.156,47.9,2306.910,18119f04,42,8,23080181.415,0.363,-95959747.465219,0.005,384.344,34.2,1955.364,00b19f0b,57,9,22263894.868,0.142,-119055045.582669,0.012,-2660.414,44.1,2306.900,08119f24,57,9,22263900.546,0.440,-92598381.135447,0.005,-2069.215,32.5,2306.900,10b19f2b,59,4,21325788.321,0.071,-113838545.988505,0.007,1506.336,50.1,2306.900,18119f44,59,4,21325795.334,0.201,-88541132.355973,0.002,1171.598,39.3,2306.908,10b19f4b*429430a2
#BESTXYZA,COM1,0,54.0,FINESTEERING,1761,317658.000,00000000,d821,9570;SOL_COMPUTED,SINGLE,423321.7320,-5361647.0060,3417282.4453,1.3829,2.1487,1.3954,SOL_COMPUTED,DOPPLER_VELOCITY,0.0107,0.0078,-0.0015,0.1653,0.2568,0.1668,"",0.150,0.000,0.000,19,19,0,0,0,06,0,33*34b8d4b6
#RANGEA,COM1,0,53.0,FINESTEERING,1761,317659.000,00000000,5103,9570;38,4,0,21199045.341,0.031,-118413877.283535,0.005,2559.547,51.2,2358.060,18109c04,4,0,21199049.234,0.043,-92290125.458090,0.006,1994.453,46.6,2316.620,11309c0b,32,0,24629726.553,0.067,-129430090.202812,0.012,-1074.695,44.5,2294.010,08109c24,32,0,24629729.610,0.134,-100854620.580972,0.014,-837.426,36.8,2289.200,01309c2b,20,0,22702246.612,0.047,-126313237.979419,0.009,386.570,47.6,2320.400,08109c44,20,0,22702248.530,0.080,-92961932.378616,0.010,301.223,41.3,2303.580,01309c4b,10,0,25189934.864,0.065,-132374003.076224,0.013,3373.570,44.8,176.510,08109c64,10,0,25189948.450,0.144,-103148590.830912,0.016,2628.758,36.8,171.180,01309c6b,24,0,24202448.970,0.047,-127184735.648815,0.011,2142.492,47.7,2076.150,08109c84,24,0,24202454.719,0.085,-99105005.034251,0.012,1669.473,40.8,2071.680,01309c8b,28,0,20759735.219,0.032,-116105244.630645,0.006,-584.348,51.1,2335.870,08109ca4,28,0,20759735.462,0.038,-90491172.160799,0.007,-455.340,47.7,2316.620,01309cab,2,0,24359205.533,0.049,-128008520.805755,0.011,3154.480,47.3,1385.810,08109ce4,2,0,24359214.539,0.087,-99746945.155974,0.011,2458.043,40.6,1378.660,01309ceb,17,0,21021429.375,0.032,-117480470.259623,0.007,10.066,50.9,2347.120,08109d44,17,0,21021429.500,0.034,-91562783.390306,0.008,7.840,48.6,2315.580,01309d4b,8,0,23166369.609,0.047,-128752128.194896,0.009,-3813.441,47.6,2353.660,08109d64,8,0,23166377.057,0.097,-100345878.207244,0.010,-2971.523,39.6,2316.620,01309d6b,1,0,23812620.726,0.051,-132148254.660241,0.010,-3367.246,46.9,2356.860,18109d84,1,0,23812625.815,0.087,-102992241.371934,0.011,-2623.832,40.6,2315.580,11309d8b,9,0,23805517.650,0.050,-132110868.661329,0.010,-3850.922,47.2,2353.780,08109da4,9,0,23805526.599,0.096,-102963094.977486,0.012,-3000.730,39.7,2315.080,01309dab,43,3,23011133.686,0.097,-122791870.685856,0.009,3047.273,47.4,1907.140,18119e04,43,3,23011142.114,0.415,-95504856.030157,0.004,2370.113,33.0,1899.800,10b19e0b,48,7,19595118.282,0.073,-104710362.326978,0.007,-734.125,49.9,2307.900,18119e24,48,7,19595123.109,0.307,-81441410.519030,0.002,-570.980,35.7,2307.900,10b19e2b,47,0,21670126.041,0.076,-115513913.357880,0.006,-4157.895,49.6,2307.890,08119e64,47,0,21670137.445,0.591,-89844177.551217,0.004,-3233.930,29.9,2307.896,10b19e6b,58,11,20174488.448,0.072,-107957761.279116,0.006,-904.000,50.0,2307.900,18119ea4,58,11,20174490.464,0.497,-83967165.945887,0.003,-703.109,31.5,2307.904,00b19eab,49,6,21952896.622,0.091,-117268450.960738,0.008,3349.516,48.0,2307.910,18119ec4,49,6,21952904.189,0.321,-91208826.467853,0.003,2605.180,35.3,2287.348,00b19ecb,42,8,23080082.721,0.092,-123376273.648833,0.008,493.641,47.9,2307.910,18119f04,42,8,23080089.039,0.357,-95959363.344342,0.005,383.941,34.3,1956.364,00b19f0b,57,9,22264392.347,0.147,-119057705.854784,0.013,-2660.016,43.8,2307.900,08119f24,57,9,22264398.012,0.454,-92600450.240969,0.005,-2068.902,32.2,2307.900,10b19f2b,59,4,21325506.142,0.072,-113837039.707167,0.007,1506.242,50.0,2307.900,18119f44,59,4,21325513.139,0.204,-88539960.807555,0.002,1171.523,39.2,2307.908,10b19f4b*462372b5
#BESTXYZA,COM1,0,53.0,FINESTEERING,1761,317659.000,00000000,d821,9570;SOL_COMPUTED,SINGLE,423321.7384,-5361647.0094,3417282.4481,1.3830,2.1487,1.3954,SOL_COMPUTED,DOPPLER_VELOCITY,-0.0067,-0.0058,0.0030,0.1653,0.2568,0.1668,"",0.150,0.000,0.000,19,19,0,0,0,06,0,33*7bde4c88
#RANGEA,COM1,0,53.0,FINESTEERING,1761,317660.000,00000000,5103,9570;38,4,0,21198558.304,0.031,-118411317.901890,0.005,2559.320,51.1,2359.060,18109c04,4,0,21198562.188,0.043,-92288131.135958,0.005,1994.277,46.7,2317.620,11309c0b,32,0,24629931.062,0.068,-129431164.933855,0.013,-1074.805,44.4,2295.010,08109c24,32,0,24629934.127,0.126,-100855458.027595,0.016,-837.516,37.4,2290.200,01309c2b,20,0,22702173.098,0.047,-126312851.717943,0.009,386.168,47.7,2321.400,08109c44,20,0,22702175.022,0.076,-92961631.399331,0.009,300.910,41.7,2304.580,01309c4b,10,0,25189292.822,0.066,-132370629.175657,0.013,3374.207,44.8,177.510,08109c64,10,0,25189306.413,0.147,-103145961.817483,0.016,2629.254,36.7,172.180,01309c6b,24,0,24202041.340,0.046,-127182593.512431,0.010,2142.152,47.8,2077.150,08109c84,24,0,24202047.079,0.096,-99103335.834614,0.011,1669.207,39.8,2072.680,01309c8b,28,0,20759846.450,0.032,-116105829.139823,0.006,-584.582,51.1,2336.870,08109ca4,28,0,20759846.691,0.037,-90491627.621268,0.006,-455.523,48.0,2317.620,01309cab,2,0,24358605.246,0.049,-128005366.318658,0.009,3154.613,47.3,1386.810,08109ce4,2,0,24358614.258,0.081,-99744487.122673,0.010,2458.148,41.1,1379.660,01309ceb,17,0,21021427.461,0.032,-117480460.228924,0.008,10.172,51.0,2348.120,08109d44,17,0,21021427.595,0.035,-91562775.572950,0.008,7.922,48.6,2316.580,01309d4b,8,0,23167095.337,0.047,-128755941.872380,0.008,-3813.527,47.8,2354.660,08109d64,8,0,23167102.798,0.098,-100348849.896619,0.010,-2971.590,39.5,2317.620,01309d6b,1,0,23813261.507,0.052,-132151622.027541,0.009,-3367.328,46.8,2357.860,18109d84,1,0,23813266.591,0.078,-102994865.294506,0.010,-2623.895,41.5,2316.580,11309d8b,9,0,23806250.455,0.050,-132114719.487217,0.010,-3850.777,47.1,2354.780,08109da4,9,0,23806259.389,0.106,-102966095.612442,0.011,-3000.617,38.9,2316.080,01309dab,43,3,23010562.649,0.095,-122788823.584440,0.008,3047.238,47.6,1908.140,18119e04,43,3,23010571.068,0.408,-95502486.072343,0.004,2370.086,33.2,1900.800,10b19e0b,48,7,19595255.763,0.071,-104711096.957720,0.006,-734.980,50.1,2308.900,18119e24,48,7,19595260.583,0.287,-81441981.897250,0.002,-571.656,36.3,2308.900,10b19e2b,47,0,21670906.073,0.074,-115518071.385464,0.006,-4157.973,49.7,2308.890,08119e64,47,0,21670917.451,0.574,-89847411.568943,0.005,-3233.992,30.2,2308.896,10b19e6b,58,11,20174657.380,0.072,-107958665.346182,0.007,-904.051,50.1,2308.900,18119ea4,58,11,20174659.384,0.481,-83967869.110409,0.003,-703.152,31.7,2308.904,00b19eab,49,6,21952269.657,0.087,-117265101.763995,0.008,3349.152,48.3,2308.910,18119ec4,49,6,21952277.221,0.325,-91206221.540790,0.003,2604.895,35.1,2288.348,00b19ecb,42,8,23079990.471,0.088,-123375780.360865,0.008,493.066,48.3,2308.910,18119f04,42,8,23079996.762,0.396,-95958979.670937,0.005,383.496,33.5,1957.364,00b19f0b,57,9,22264889.800,0.146,-119060365.900859,0.012,-2659.789,43.8,2308.900,08119f24,57,9,22264895.432,0.430,-92602519.163200,0.005,-2068.730,32.7,2308.900,10b19f2b,59,4,21325223.993,0.070,-113835533.568256,0.006,1506.094,50.3,2308.900,18119f44,59,4,21325230.985,0.200,-88538789.367425,0.002,1171.406,39.4,2308.908,10b19f4b*1b98ce63
#BESTXYZA,COM1,0,53.0,FINESTEERING,1761,317660.000,00000000,d821,9570;SOL_COMPUTED,SINGLE,423321.7526,-5361647.0111,3417282.4486,1.3829,2.1487,1.3954,SOL_COMPUTED,DOPPLER_VELOCITY,-0.0066,0.0091,-0.0087,0.1653,0.2568,0.1668,"",0.150,0.000,0.000,19,19,0,0,0,06,0,33*cad0e337
#RANGEA,COM1,0,56.5,FINESTEERING,1761,317661.000,00000000,5103,9570;38,4,0,21198071.346,0.032,-118408758.951910,0.005,2558.637,51.1,2360.060,18109c04,4,0,21198075.236,0.043,-92286137.151416,0.005,1993.742,46.7,2318.620,11309c0b,32,0,24630135.687,0.069,-129432240.192665,0.012,-1075.773,44.3,2296.010,08109c24,32,0,24630138.739,0.119,-100856295.881782,0.015,-838.270,37.9,2291.200,01309c2b,20,0,22702099.692,0.047,-126312465.992110,0.008,385.391,47.7,2322.400,08109c44,20,0,22702101.629,0.077,-92961330.832519,0.008,300.305,41.6,2305.580,01309c4b,10,0,25188650.749,0.065,-132367255.063984,0.014,3374.078,44.9,178.510,08109c64,10,0,25188664.344,0.149,-103143332.649376,0.017,2629.156,36.5,173.180,01309c6b,24,0,24201633.801,0.046,-127180451.832919,0.009,2141.426,47.8,2078.150,08109c84,24,0,24201639.536,0.091,-99101666.990980,0.010,1668.641,40.2,2073.680,01309c8b,28,0,20759957.752,0.032,-116106414.046006,0.006,-585.223,51.1,2337.870,08109ca4,28,0,20759957.997,0.037,-90492083.389865,0.006,-456.023,48.0,2318.620,01309cab,2,0,24358004.982,0.048,-128002211.949717,0.010,3154.238,47.4,1387.810,08109ce4,2,0,24358013.978,0.090,-99742029.182670,0.011,2457.855,40.3,1380.660,01309ceb,17,0,21021425.579,0.032,-117480450.325834,0.007,9.863,50.9,2349.120,08109d44,17,0,21021425.710,0.035,-91562767.853801,0.008,7.684,48.5,2317.580,01309d4b,8,0,23167821.091,0.047,-128759755.661720,0.008,-3813.941,47.8,2355.660,08109d64,8,0,23167828.564,0.097,-100351821.667016,0.010,-2971.914,39.6,2318.620,01309d6b,1,0,23813902.315,0.053,-132154989.487791,0.010,-3367.508,46.6,2358.860,18109d84,1,0,23813907.402,0.084,-102997489.283368,0.011,-2624.035,40.9,2317.580,11309d8b,9,0,23806983.249,0.051,-132118570.305228,0.010,-3851.062,47.0,2355.780,08109da4,9,0,23806992.197,0.097,-102969096.238804,0.011,-3000.840,39.6,2317.080,01309dab,43,3,23009991.657,0.100,-122785776.714988,0.009,3046.703,47.2,1909.140,18119e04,43,3,23010000.066,0.433,-95500116.296190,0.004,2369.668,32.7,1901.800,10b19e0b,48,7,19595393.403,0.072,-104711832.469562,0.006,-736.039,50.0,2309.900,18119e24,48,7,19595398.214,0.304,-81442553.959524,0.002,-572.465,35.7,2309.900,10b19e2b,47,0,21671686.172,0.074,-115522229.737455,0.006,-4158.551,49.8,2309.890,08119e64,47,0,21671697.533,0.567,-89850645.832769,0.004,-3234.441,30.3,2309.896,10b19e6b,58,11,20174826.350,0.073,-107959569.615384,0.007,-904.539,49.9,2309.900,18119ea4,58,11,20174828.326,0.488,-83968572.428403,0.003,-703.531,31.6,2309.904,00b19eab,49,6,21951642.786,0.088,-117261753.058894,0.008,3348.422,48.3,2309.910,18119ec4,49,6,21951650.344,0.317,-91203616.991132,0.002,2604.328,35.4,2289.348,00b19ecb,42,8,23079898.369,0.088,-123375287.768408,0.008,492.121,48.3,2309.910,18119f04,42,8,23079904.625,0.362,-95958596.540978,0.005,382.758,34.2,1958.364,00b19f0b,57,9,22265387.244,0.149,-119063025.895634,0.012,-2660.133,43.7,2309.900,08119f24,57,9,22265392.853,0.435,-92604588.049272,0.005,-2068.992,32.6,2309.900,10b19f2b,59,4,21324941.885,0.070,-113834027.683796,0.006,1505.750,50.2,2309.900,18119f44,59,4,21324948.870,0.205,-88537618.123956,0.002,1171.141,39.1,2309.908,10b19f4b*79253cf0
#BESTXYZA,COM1,0,56.5,FINESTEERING,1761,317661.000,00000000,d821,9570;SOL_COMPUTED,SINGLE,423321.7554,-5361647.0234,3417282.4542,1.3830,2.1487,1.3955,SOL_COMPUTED,DOPPLER_VELOCITY,-0.0106,-0.0062,0.0107,0.1653,0.2568,0.1668,"",0.150,0.000,0.000,19,19,0,0,0,06,0,33*8defdbc3
#RANGEA,COM1,0,51.5,FINESTEERING,1761,317662.000,00000000,5103,9570;38,4,0,21197584.465,0.031,-118406200.395785,0.005,2558.418,51.2,2361.060,18109c04,4,0,21197588.354,0.042,-92284143.475001,0.005,1993.574,46.9,2319.620,11309c0b,32,0,24630340.394,0.069,-129433315.925675,0.013,-1075.855,44.3,2297.010,08109c24,32,0,24630343.436,0.145,-100857134.114069,0.016,-838.332,36.1,2292.200,01309c2b,20,0,22702026.382,0.046,-126312080.790892,0.010,385.039,47.8,2323.400,08109c44,20,0,22702028.336,0.079,-92961030.676954,0.010,300.031,41.4,2306.580,01309c4b,10,0,25188008.628,0.064,-132363880.651405,0.014,3374.930,45.0,179.510,08109c64,10,0,25188022.190,0.150,-103140703.246798,0.016,2629.820,36.4,174.180,01309c6b,24,0,24201226.341,0.046,-127178310.548837,0.010,2141.238,47.9,2079.150,08109c84,24,0,24201232.072,0.090,-99099998.459157,0.010,1668.492,40.2,2074.680,01309c8b,28,0,20760069.133,0.031,-116106999.331866,0.005,-585.371,51.1,2338.870,08109ca4,28,0,20760069.372,0.037,-90492539.459224,0.005,-456.137,48.0,2319.620,01309cab,2,0,24357404.747,0.048,-127999057.672151,0.010,3154.172,47.5,1388.810,08109ce4,2,0,24357413.729,0.092,-99739571.312640,0.010,2457.805,40.1,1381.660,01309ceb,17,0,21021423.714,0.032,-117480440.517269,0.007,9.914,51.0,2350.120,08109d44,17,0,21021423.845,0.035,-91562760.211991,0.007,7.723,48.5,2318.580,01309d4b,8,0,23168546.852,0.047,-128763569.517227,0.008,-3813.887,47.7,2356.660,08109d64,8,0,23168554.319,0.095,-100354793.491428,0.009,-2971.871,39.8,2319.620,01309d6b,1,0,23814543.128,0.053,-132158357.006332,0.010,-3367.445,46.6,2359.860,18109d84,1,0,23814548.221,0.078,-103000113.323789,0.010,-2623.988,41.5,2318.580,11309d8b,9,0,23807716.031,0.051,-132122421.039742,0.012,-3850.430,47.0,2356.780,08109da4,9,0,23807724.984,0.094,-102972096.802560,0.013,-3000.348,39.9,2318.080,01309dab,43,3,23009420.686,0.098,-122782730.047104,0.009,3046.641,47.4,1910.140,18119e04,43,3,23009429.116,0.424,-95497746.678056,0.004,2369.621,32.8,1902.800,10b19e0b,48,7,19595531.213,0.071,-104712568.819250,0.006,-736.703,50.1,2310.900,18119e24,48,7,19595536.021,0.293,-81443126.672210,0.002,-572.996,36.0,2310.900,10b19e2b,47,0,21672466.321,0.074,-115526388.369106,0.006,-4158.633,49.8,2310.890,08119e64,47,0,21672477.666,0.528,-89853880.320325,0.005,-3234.500,30.9,2310.896,10b19e6b,58,11,20174995.355,0.072,-107960474.025760,0.006,-904.410,50.0,2310.900,18119ea4,58,11,20174997.307,0.465,-83969275.857448,0.003,-703.430,32.0,2310.904,00b19eab,49,6,21951015.991,0.087,-117258404.824615,0.007,3348.145,48.4,2310.910,18119ec4,49,6,21951023.560,0.311,-91201012.805178,0.003,2604.109,35.5,2290.348,00b19ecb,42,8,23079806.385,0.086,-123374795.866657,0.008,491.773,48.4,2310.910,18119f04,42,8,23079812.618,0.367,-95958213.944494,0.005,382.488,34.1,1959.364,00b19f0b,57,9,22265884.654,0.146,-119065685.749334,0.012,-2659.660,43.9,2310.900,08119f24,57,9,22265890.260,0.470,-92606656.825619,0.005,-2068.625,32.0,2310.900,10b19f2b,59,4,21324659.824,0.070,-113832522.032981,0.006,1505.672,50.3,2310.900,18119f44,59,4,21324666.797,0.200,-88536447.063456,0.002,1171.078,39.4,2310.908,10b19f4b*9dbcb618
#BESTXYZA,COM1,0,51.5,FINESTEERING,1761,317662.000,00000000,d821,9570;SOL_COMPUTED,SINGLE,423321.7621,-5361647.0262,3417282.4567,1.3830,2.1486,1.3955,SOL_COMPUTED,DOPPLER_VELOCITY,0.0054,0.0164,-0.0180,0.1653,0.2568,0.1668,"",0.150,0.000,0.000,19,19,0,0,0,06,0,33*db534096
#RANGEA,COM1,0,51.5,FINESTEERING,1761,317663.000,00000000,5103,9570;38,4,0,21197097.669,0.031,-118403642.277627,0.005,2558.227,51.2,2362.060,18109c04,4,0,21197101.558,0.043,-92282150.139860,0.005,1993.422,46.6,2320.620,11309c0b,32,0,24630545.201,0.073,-129434392.186452,0.014,-1076.215,43.9,2298.010,08109c24,32,0,24630548.185,0.133,-100857972.757602,0.017,-838.613,36.9,2293.200,01309c2b,20,0,22701953.179,0.046,-126311696.141071,0.009,384.590,47.9,2324.400,08109c44,20,0,22701955.159,0.078,-92960730.948593,0.010,299.680,41.5,2307.580,01309c4b,10,0,25187366.442,0.062,-132360506.041899,0.013,3375.156,45.2,180.510,08109c64,10,0,25187380.023,0.150,-103138073.684632,0.015,2629.996,36.4,175.180,01309c6b,24,0,24200818.968,0.046,-127176169.729504,0.011,2140.875,47.9,2080.150,08109c84,24,0,24200824.682,0.090,-99098330.285793,0.011,1668.211,40.2,2075.680,01309c8b,28,0,20760180.590,0.031,-116107585.035212,0.006,-585.566,51.2,2339.870,08109ca4,28,0,20760180.831,0.038,-90492995.851442,0.006,-456.289,47.8,2320.620,01309cab,2,0,24356804.530,0.048,-127995903.547400,0.009,3154.383,47.5,1389.810,08109ce4,2,0,24356813.518,0.093,-99737113.564142,0.010,2457.969,39.9,1382.660,01309ceb,17,0,21021421.880,0.032,-117480430.831587,0.007,10.016,51.1,2351.120,08109d44,17,0,21021422.004,0.034,-91562752.664706,0.007,7.801,48.7,2319.580,01309d4b,8,0,23169272.640,0.046,-128767383.505069,0.008,-3813.777,47.8,2357.660,08109d64,8,0,23169280.099,0.099,-100357765.423868,0.009,-2971.785,39.5,2320.620,01309d6b,1,0,23815183.964,0.053,-132161724.639878,0.009,-3367.059,46.6,2360.860,18109d84,1,0,23815189.061,0.091,-103002737.452597,0.010,-2623.688,40.2,2319.580,11309d8b,9,0,23808448.813,0.051,-132126271.772680,0.011,-3850.133,46.9,2357.780,08109da4,9,0,23808457.775,0.097,-102975097.362632,0.011,-3000.113,39.6,2319.080,01309dab,43,3,23008849.772,0.097,-122779683.625582,0.009,3046.703,47.4,1911.140,18119e04,43,3,23008858.236,0.435,-95495377.249048,0.004,2369.668,32.6,1903.800,10b19e0b,48,7,19595669.175,0.072,-104713306.069262,0.006,-737.395,50.0,2311.900,18119e24,48,7,19595673.999,0.299,-81443700.090132,0.002,-573.531,35.9,2311.900,10b19e2b,47,0,21673246.553,0.073,-115530547.353930,0.006,-4158.945,49.8,2311.890,08119e64,47,0,21673257.867,0.573,-89857115.080084,0.005,-3234.742,30.3,2311.896,10b19e6b,58,11,20175164.393,0.072,-107961378.649501,0.006,-904.328,50.0,2311.900,18119ea4,58,11,20175166.336,0.478,-83969979.453691,0.003,-703.371,31.8,2311.904,00b19eab,49,6,21950389.326,0.088,-117255057.160448,0.008,3347.840,48.3,2311.910,18119ec4,49,6,21950396.884,0.326,-91198409.067627,0.002,2603.871,35.1,2291.348,00b19ecb,42,8,23079714.547,0.086,-123374304.708494,0.008,491.086,48.5,2311.910,18119f04,42,8,23079720.759,0.359,-95957831.930097,0.005,381.953,34.3,1960.364,00b19f0b,57,9,22266382.026,0.144,-119068345.562956,0.012,-2659.641,44.0,2311.900,08119f24,57,9,22266387.622,0.438,-92608725.564559,0.005,-2068.613,32.6,2311.900,10b19f2b,59,4,21324377.814,0.070,-113831016.673423,0.006,1505.582,50.3,2311.900,18119f44,59,4,21324384.785,0.206,-88535276.230733,0.002,1171.008,39.1,2311.908,10b19f4b*7997e569
#BESTXYZA,COM1,0,51.5,FINESTEERING,1761,317663.000,00000000,d821,9570;SOL_COMPUTED,SINGLE,423321.7692,-5361647.0252,3417282.4507,1.3831,2.1487,1.3955,SOL_COMPUTED,DOPPLER_VELOCITY,-0.0021,0.0172,-0.0074,0.1653,0.2568,0.1668,"",0.150,0.000,0.000,19,19,0,0,0,06,0,33*22a8efcd
#RANGEA,COM1,0,53.0,FINESTEERING,1761,317664.000,00000000,5103,9570;38,4,0,21196610.923,0.032,-118401084.433593,0.006,2557.680,51.1,2363.060,18109c04,4,0,21196614.809,0.043,-92280157.018320,0.006,1992.996,46.8,2321.620,11309c0b,32,0,24630750.078,0.075,-129435468.830055,0.017,-1076.848,43.7,2299.010,08109c24,32,0,24630753.064,0.115,-100858811.710490,0.019,-839.105,38.1,2294.200,01309c2b,20,0,22701880.041,0.046,-126311311.872502,0.009,384.164,47.9,2325.400,08109c44,20,0,22701882.037,0.081,-92960431.519766,0.010,299.348,41.2,2308.580,01309c4b,10,0,25186724.189,0.063,-132357131.040114,0.015,3375.031,45.2,181.510,08109c64,10,0,25186737.780,0.173,-103135443.819249,0.017,2629.898,35.1,176.180,01309c6b,24,0,24200411.635,0.045,-127174029.198473,0.010,2140.332,48.1,2081.150,08109c84,24,0,24200417.351,0.088,-99096662.337080,0.011,1667.789,40.5,2076.680,01309c8b,28,0,20760292.094,0.031,-116108170.987474,0.006,-586.109,51.2,2340.870,08109ca4,28,0,20760292.330,0.037,-90493452.435165,0.006,-456.711,47.9,2321.620,01309cab,2,0,24356204.292,0.048,-127992749.347029,0.011,3154.180,47.6,1390.810,08109ce4,2,0,24356213.276,0.092,-99734655.753037,0.012,2457.809,40.1,1383.660,01309ceb,17,0,21021420.036,0.032,-117480421.112821,0.008,9.738,51.1,2352.120,08109d44,17,0,21021420.156,0.035,-91562745.096552,0.008,7.590,48.6,2320.580,01309d4b,8,0,23169998.415,0.046,-128771197.433045,0.008,-3813.871,47.9,2358.660,08109d64,8,0,23170005.867,0.099,-100360737.308432,0.010,-2971.859,39.5,2321.620,01309d6b,1,0,23815824.794,0.054,-132165092.224586,0.010,-3367.652,46.4,2361.860,18109d84,1,0,23815829.878,0.084,-103005361.542122,0.011,-2624.148,40.8,2320.580,11309d8b,9,0,23809181.560,0.051,-132130122.329171,0.012,-3850.461,46.9,2358.780,08109da4,9,0,23809190.534,0.097,-102978097.779075,0.013,-3000.375,39.7,2320.080,01309dab,43,3,23008278.874,0.090,-122776637.282447,0.009,3046.340,48.0,1912.140,18119e04,43,3,23008287.350,0.432,-95493007.882253,0.003,2369.383,32.7,1904.800,10b19e0b,48,7,19595807.282,0.069,-104714044.014542,0.006,-738.332,50.3,2312.900,18119e24,48,7,19595812.096,0.303,-81444274.046326,0.002,-574.262,35.8,2312.900,10b19e2b,47,0,21674026.800,0.071,-115534706.487373,0.007,-4159.203,50.1,2312.890,08119e64,47,0,21674038.110,0.605,-89860349.954193,0.005,-3234.949,29.8,2312.896,10b19e6b,58,11,20175333.440,0.069,-107962283.295701,0.006,-904.648,50.3,2312.900,18119ea4,58,11,20175335.404,0.513,-83970683.064907,0.003,-703.621,31.2,2312.904,00b19eab,49,6,21949762.721,0.082,-117251709.877422,0.008,3347.090,48.8,2312.910,18119ec4,49,6,21949770.266,0.323,-91195805.622783,0.002,2603.289,35.2,2292.348,00b19ecb,42,8,23079622.795,0.079,-123373814.069562,0.009,490.391,49.2,2312.910,18119f04,42,8,23079628.978,0.354,-95957450.319546,0.004,381.410,34.4,1961.364,00b19f0b,57,9,22266879.359,0.144,-119071005.152141,0.014,-2659.484,44.0,2312.900,08119f24,57,9,22266884.967,0.376,-92610794.130184,0.005,-2068.492,33.9,2312.900,10b19f2b,59,4,21324095.824,0.067,-113829511.393880,0.006,1505.328,50.6,2312.900,18119f44,59,4,21324102.783,0.199,-88534105.455266,0.002,1170.812,39.4,2312.908,10b19f4b*5112f798
#BESTXYZA,COM1,0,53.0,FINESTEERING,1761,317664.000,00000000,d821,9570;SOL_COMPUTED,SINGLE,423321.7702,-5361647.0229,3417282.4459,1.3831,2.1487,1.3955,SOL_COMPUTED,DOPPLER_VELOCITY,0.0052,-0.0119,0.0001,0.1653,0.2568,0.1668,"",0.150,0.000,0.000,19,19,0,0,0,06,0,33*5471e393
#RANGEA,COM1,0,55.5,FINESTEERING,1761,317665.000,00000000,5103,9570;38,4,0,21196124.297,0.031,-118398527.240206,0.005,2556.918,51.2,2364.060,18109c04,4,0,21196128.191,0.042,-92278164.402552,0.005,1992.402,47.0,2322.620,11309c0b,32,0,24630955.080,0.072,-129436546.174720,0.014,-1077.613,44.0,2300.010,08109c24,32,0,24630958.033,0.141,-100859651.202295,0.017,-839.699,36.4,2295.200,01309c2b,20,0,22701807.066,0.045,-126310928.375888,0.010,383.164,48.1,2326.400,08109c44,20,0,22701809.056,0.087,-92960132.691236,0.010,298.570,40.6,2309.580,01309c4b,10,0,25186081.940,0.062,-132353756.011546,0.015,3375.008,45.2,182.510,08109c64,10,0,25186095.543,0.166,-103132813.935452,0.017,2629.879,35.5,177.180,01309c6b,24,0,24200004.434,0.046,-127171889.349599,0.012,2139.613,47.9,2082.150,08109c84,24,0,24200010.153,0.080,-99094994.921145,0.012,1667.227,41.2,2077.680,01309c8b,28,0,20760403.719,0.031,-116108757.560452,0.007,-586.773,51.2,2341.870,08109ca4,28,0,20760403.951,0.038,-90493909.505018,0.006,-457.230,47.7,2322.620,01309cab,2,0,24355604.133,0.048,-127989595.510580,0.013,3153.648,47.5,1391.810,08109ce4,2,0,24355613.117,0.090,-99732198.227963,0.013,2457.395,40.3,1384.660,01309ceb,17,0,21021418.258,0.031,-117480411.737497,0.008,9.238,51.2,2353.120,08109d44,17,0,21021418.375,0.035,-91562737.792332,0.008,7.199,48.6,2321.580,01309d4b,8,0,23170724.256,0.046,-128775011.709190,0.008,-3814.355,47.9,2359.660,08109d64,8,0,23170731.709,0.100,-100363709.461841,0.010,-2972.238,39.4,2322.620,01309d6b,1,0,23816465.678,0.054,-132168460.129104,0.009,-3368.191,46.5,2362.860,18109d84,1,0,23816470.781,0.087,-103007985.879623,0.010,-2624.570,40.6,2321.580,11309d8b,9,0,23809914.337,0.051,-132133973.096769,0.010,-3851.031,47.0,2359.780,08109da4,9,0,23809923.302,0.096,-102981098.363700,0.011,-3000.816,39.7,2321.080,01309dab,43,3,23007708.066,0.089,-122773591.408039,0.009,3045.703,48.1,1913.140,18119e04,43,3,23007716.539,0.411,-95490638.880023,0.004,2368.887,33.1,1905.800,10b19e0b,48,7,19595945.590,0.071,-104714783.061998,0.006,-739.586,50.1,2313.900,18119e24,48,7,19595950.395,0.303,-81444848.857276,0.002,-575.238,35.8,2313.900,10b19e2b,47,0,21674807.140,0.071,-115538866.178540,0.006,-4159.992,50.1,2313.890,08119e64,47,0,21674818.462,0.624,-89863585.259602,0.005,-3235.559,29.5,2313.896,10b19e6b,58,11,20175502.562,0.070,-107963188.359006,0.007,-905.180,50.3,2313.900,18119ea4,58,11,20175504.506,0.471,-83971387.000538,0.003,-704.031,31.9,2313.904,00b19eab,49,6,21949136.253,0.085,-117248363.329457,0.008,3346.297,48.6,2313.910,18119ec4,49,6,21949143.800,0.328,-91193202.753389,0.003,2602.672,35.1,2293.348,00b19ecb,42,8,23079531.228,0.079,-123373324.366526,0.008,489.234,49.2,2313.910,18119f04,42,8,23079537.409,0.363,-95957069.438160,0.004,380.512,34.2,1962.364,00b19f0b,57,9,22267376.729,0.145,-119073664.877591,0.014,-2659.496,43.9,2313.900,08119f24,57,9,22267382.332,0.420,-92612862.799300,0.005,-2068.500,32.9,2313.900,10b19f2b,59,4,21323813.929,0.069,-113828006.618436,0.007,1504.617,50.4,2313.900,18119f44,59,4,21323820.883,0.199,-88532935.075610,0.002,1170.258,39.4,2313.908,10b19f4b*62cb2621
#BESTXYZA,COM1,0,55.5,FINESTEERING,1761,317665.000,00000000,d821,9570;SOL_COMPUTED,SINGLE,423321.7695,-5361647.0245,3417282.4508,1.3832,2.1485,1.3955,SOL_COMPUTED,DOPPLER_VELOCITY,0.0034,-0.0103,0.0045,0.1653,0.2568,0.1668,"",0.150,0.000,0.000,19,19,0,0,0,06,0,33*493dc90c
#RANGEA,COM1,0,55.0,FINESTEERING,1761,317666.000,00000000,5103,9570;38,4,0,21195637.793,0.031,-118395970.653356,0.005,2556.246,51.2,2365.060,18109c04,4,0,21195641.687,0.042,-92276172.261866,0.005,1991.879,47.0,2323.620,11309c0b,32,0,24631160.243,0.071,-129437624.247230,0.013,-1078.402,44.1,2301.010,08109c24,32,0,24631163.191,0.139,-100860491.266162,0.016,-840.312,36.5,2296.200,01309c2b,20,0,22701734.221,0.046,-126310545.613421,0.009,382.406,47.9,2327.400,08109c44,20,0,22701736.229,0.080,-92959834.437223,0.009,297.980,41.3,2310.580,01309c4b,10,0,25185439.676,0.062,-132350380.905783,0.014,3375.070,45.3,183.510,08109c64,10,0,25185453.281,0.155,-103130183.990275,0.016,2629.930,36.0,178.180,01309c6b,24,0,24199597.354,0.046,-127169750.121440,0.011,2138.914,47.8,2083.150,08109c84,24,0,24199603.084,0.086,-99093327.986429,0.012,1666.684,40.7,2078.680,01309c8b,28,0,20760515.453,0.031,-116109344.724212,0.006,-587.473,51.2,2342.870,08109ca4,28,0,20760515.686,0.038,-90494367.033993,0.006,-457.773,47.8,2323.620,01309cab,2,0,24355004.039,0.048,-127986441.971886,0.012,3153.336,47.5,1392.810,08109ce4,2,0,24355013.020,0.093,-99729740.933677,0.013,2457.152,40.0,1385.660,01309ceb,17,0,21021416.533,0.032,-117480402.658351,0.007,8.883,51.1,2354.120,08109d44,17,0,21021416.650,0.034,-91562730.717673,0.007,6.918,48.6,2322.580,01309d4b,8,0,23171450.161,0.044,-128778826.278362,0.008,-3814.652,48.1,2360.660,08109d64,8,0,23171457.607,0.102,-100366681.841128,0.009,-2972.469,39.2,2323.620,01309d6b,1,0,23817106.620,0.055,-132171828.303020,0.010,-3368.336,46.4,2363.860,18109d84,1,0,23817111.736,0.083,-103010610.427043,0.011,-2624.680,41.0,2322.580,11309d8b,9,0,23810647.155,0.052,-132137823.999853,0.010,-3850.883,46.8,2360.780,08109da4,9,0,23810656.107,0.102,-102984099.062491,0.011,-3000.699,39.2,2322.080,01309dab,43,3,23007137.344,0.089,-122770545.954366,0.008,3045.164,48.1,1914.140,18119e04,43,3,23007145.828,0.398,-95488270.206275,0.003,2368.469,33.4,1906.800,10b19e0b,48,7,19596084.094,0.072,-104715523.145948,0.006,-740.531,50.1,2314.900,18119e24,48,7,19596088.891,0.302,-81445424.476880,0.002,-575.973,35.8,2314.900,10b19e2b,47,0,21675587.596,0.071,-115543026.374694,0.006,-4160.426,50.1,2314.890,08119e64,47,0,21675598.893,0.510,-89866820.959022,0.005,-3235.898,31.2,2314.896,10b19e6b,58,11,20175671.744,0.071,-107964093.797706,0.006,-905.648,50.2,2314.900,18119ea4,58,11,20175673.705,0.441,-83972091.229390,0.003,-704.398,32.5,2314.904,00b19eab,49,6,21948509.904,0.085,-117245017.414060,0.008,3345.742,48.5,2314.910,18119ec4,49,6,21948517.444,0.305,-91190600.378483,0.003,2602.242,35.7,2294.348,00b19ecb,42,8,23079439.810,0.079,-123372835.533681,0.007,488.441,49.2,2314.910,18119f04,42,8,23079445.965,0.358,-95956689.236083,0.004,379.895,34.3,1963.364,00b19f0b,57,9,22267874.117,0.147,-119076324.753734,0.014,-2660.027,43.8,2314.900,08119f24,57,9,22267879.728,0.414,-92614931.585622,0.005,-2068.914,33.0,2314.900,10b19f2b,59,4,21323532.119,0.070,-113826502.271876,0.006,1504.098,50.3,2314.900,18119f44,59,4,21323539.066,0.191,-88531765.029530,0.002,1169.855,39.8,2314.908,10b19f4b*ed43191a
#BESTXYZA,COM1,0,55.0,FINESTEERING,1761,317666.000,00000000,d821,9570;SOL_COMPUTED,SINGLE,423321.7769,-5361647.0131,3417282.4491,1.3832,2.1484,1.3954,SOL_COMPUTED,DOPPLER_VELOCITY,0.0028,0.0054,-0.0110,0.1653,0.2568,0.1668,"",0.150,0.000,0.000,19,19,0,0,0,06,0,33*d2bf4a16
#RANGEA,COM1,0,52.5,FINESTEERING,1761,317667.000,00000000,5103,9570;38,4,0,21195151.397,0.031,-118393414.632082,0.005,2555.848,51.2,2366.060,18109c04,4,0,21195155.292,0.043,-92274180.561887,0.005,1991.570,46.7,2324.620,11309c0b,32,0,24631365.510,0.069,-129438702.978265,0.013,-1078.996,44.3,2302.010,08109c24,32,0,24631368.471,0.129,-100861331.835799,0.016,-840.777,37.1,2297.200,01309c2b,20,0,22701661.498,0.047,-126310163.533110,0.008,381.773,47.7,2328.400,08109c44,20,0,22701663.536,0.076,-92959536.713533,0.008,297.484,41.8,2311.580,01309c4b,10,0,25184797.392,0.063,-132347005.722824,0.013,3375.281,45.2,184.510,08109c64,10,0,25184811.000,0.155,-103127553.986173,0.014,2630.094,36.0,179.180,01309c6b,24,0,24199190.380,0.046,-127167611.466734,0.011,2138.422,47.8,2084.150,08109c84,24,0,24199196.131,0.092,-99091661.502243,0.011,1666.301,40.1,2079.680,01309c8b,28,0,20760627.290,0.031,-116109932.420464,0.005,-587.883,51.2,2343.870,08109ca4,28,0,20760627.519,0.038,-90494824.979124,0.005,-458.094,47.8,2324.620,01309cab,2,0,24354403.989,0.048,-127983288.688409,0.011,3153.184,47.5,1393.810,08109ce4,2,0,24354412.954,0.093,-99727283.838263,0.012,2457.035,40.0,1386.660,01309ceb,17,0,21021414.858,0.032,-117480393.843876,0.007,8.832,51.1,2355.120,08109d44,17,0,21021414.976,0.034,-91562723.848024,0.007,6.879,48.7,2323.580,01309d4b,8,0,23172176.104,0.044,-128782641.091724,0.007,-3814.723,48.1,2361.660,08109d64,8,0,23172183.550,0.096,-100369654.410692,0.009,-2972.523,39.7,2324.620,01309d6b,1,0,23817747.597,0.055,-132175196.711672,0.009,-3368.512,46.3,2364.860,18109d84,1,0,23817752.710,0.086,-103013235.156148,0.010,-2624.816,40.7,2323.580,11309d8b,9,0,23811380.001,0.052,-132141675.049450,0.011,-3850.953,46.7,2361.780,08109da4,9,0,23811388.940,0.096,-102987099.871766,0.012,-3000.754,39.7,2323.080,01309dab,43,3,23006566.686,0.088,-122767500.863836,0.008,3044.965,48.3,1915.140,18119e04,43,3,23006575.175,0.427,-95485901.816216,0.003,2368.312,32.8,1907.800,10b19e0b,48,7,19596222.792,0.071,-104716264.242362,0.007,-741.488,50.1,2315.900,18119e24,48,7,19596227.565,0.304,-81446000.883956,0.002,-576.719,35.7,2315.900,10b19e2b,47,0,21676368.111,0.072,-115547187.023101,0.006,-4160.715,50.1,2315.890,08119e64,47,0,21676379.405,0.612,-89870057.007707,0.006,-3236.125,29.7,2315.896,10b19e6b,58,11,20175841.003,0.071,-107964999.549235,0.006,-905.719,50.2,2315.900,18119ea4,58,11,20175842.947,0.462,-83972795.700306,0.003,-704.453,32.1,2315.904,00b19eab,49,6,21947883.678,0.086,-117241672.174469,0.008,3345.012,48.5,2315.910,18119ec4,49,6,21947891.210,0.318,-91187998.526714,0.002,2601.676,35.3,2295.348,00b19ecb,42,8,23079348.562,0.077,-123372347.569426,0.008,487.695,49.4,2315.910,18119f04,42,8,23079354.703,0.359,-95956309.717054,0.005,379.320,34.3,1964.364,00b19f0b,57,9,22268371.537,0.142,-119078984.673163,0.013,-2659.723,44.1,2315.900,08119f24,57,9,22268377.147,0.388,-92617000.403116,0.005,-2068.680,33.6,2315.900,10b19f2b,59,4,21323250.373,0.071,-113824998.333395,0.006,1503.883,50.2,2315.900,18119f44,59,4,21323257.327,0.192,-88530595.300845,0.002,1169.688,39.7,2315.908,10b19f4b*89991531
#BESTXYZA,COM1,0,52.5,FINESTEERING,1761,317667.000,00000000,d821,9570;SOL_COMPUTED,SINGLE,423321.7834,-5361647.0070,3417282.4477,1.3833,2.1484,1.3954,SOL_COMPUTED,DOPPLER_VELOCITY,-0.0011,-0.0147,-0.0025,0.1653,0.2568,0.1668,"",0.150,0.000,0.000,19,19,0,0,0,06,0,33*2b9a137a
#RANGEA,COM1,0,52.5,FINESTEERING,1761,317668.000,00000000,5103,9570;38,4,0,21194665.071,0.031,-118390858.977881,0.005,2555.559,51.4,2367.060,18109c04,4,0,21194668.958,0.043,-92272189.144257,0.005,1991.344,46.7,2325.620,11309c0b,32,0,24631570.876,0.066,-129439782.174049,0.013,-1079.320,44.7,2303.010,08109c24,32,0,24631573.852,0.138,-100862172.778627,0.016,-841.027,36.6,2298.200,01309c2b,20,0,22701588.880,0.046,-126309781.933302,0.009,381.406,47.8,2329.400,08109c44,20,0,22701590.932,0.093,-92959239.359351,0.009,297.195,40.0,2312.580,01309c4b,10,0,25184155.057,0.062,-132343630.231083,0.013,3375.754,45.2,185.510,08109c64,10,0,25184168.601,0.161,-103124923.745144,0.015,2630.461,35.7,180.180,01309c6b,24,0,24198783.487,0.047,-127165473.193280,0.012,2137.914,47.7,2085.150,08109c84,24,0,24198789.247,0.084,-99089995.318818,0.012,1665.902,40.9,2080.680,01309c8b,28,0,20760739.193,0.031,-116110520.464884,0.005,-588.207,51.2,2344.870,08109ca4,28,0,20760739.418,0.038,-90495283.198011,0.005,-458.348,47.8,2325.620,01309cab,2,0,24353803.946,0.047,-127980135.461648,0.012,3153.195,47.6,1394.810,08109ce4,2,0,24353812.920,0.092,-99724826.791952,0.012,2457.043,40.1,1387.660,01309ceb,17,0,21021413.193,0.031,-117480385.098720,0.007,8.812,51.2,2356.120,08109d44,17,0,21021413.310,0.034,-91562717.033616,0.007,6.863,48.7,2324.580,01309d4b,8,0,23172902.062,0.044,-128786455.971254,0.008,-3814.848,48.3,2362.660,08109d64,8,0,23172909.514,0.111,-100372627.040410,0.009,-2972.621,38.4,2325.620,01309d6b,1,0,23818388.585,0.054,-132178565.170739,0.010,-3368.523,46.4,2365.860,18109d84,1,0,23818393.713,0.078,-103015859.933129,0.011,-2624.828,41.5,2324.580,11309d8b,9,0,23812112.826,0.052,-132145525.993495,0.010,-3850.754,46.8,2362.780,08109da4,9,0,23812121.757,0.108,-102990100.602475,0.011,-3000.598,38.7,2324.080,01309dab,43,3,23005996.053,0.090,-122764455.966875,0.008,3044.852,48.0,1916.140,18119e04,43,3,23006004.548,0.388,-95483533.576711,0.003,2368.230,33.6,1908.800,10b19e0b,48,7,19596361.628,0.072,-104717006.138174,0.006,-742.207,50.0,2316.900,18119e24,48,7,19596366.413,0.292,-81446577.909048,0.002,-577.277,36.1,2316.900,10b19e2b,47,0,21677148.695,0.072,-115551347.947972,0.006,-4160.996,50.0,2316.890,08119e64,47,0,21677160.010,0.520,-89873293.275149,0.005,-3236.344,31.1,2316.896,10b19e6b,58,11,20176010.279,0.071,-107965905.432313,0.006,-905.824,50.1,2316.900,18119ea4,58,11,20176012.228,0.495,-83973500.276033,0.003,-704.535,31.5,2316.904,00b19eab,49,6,21947257.546,0.086,-117238327.420113,0.008,3344.543,48.5,2316.910,18119ec4,49,6,21947265.062,0.300,-91185397.049858,0.002,2601.312,35.8,2296.348,00b19ecb,42,8,23079257.420,0.078,-123371860.255810,0.007,487.043,49.3,2316.910,18119f04,42,8,23079263.547,0.342,-95955930.697846,0.005,378.812,34.7,1965.364,00b19f0b,57,9,22268868.938,0.140,-119081644.445103,0.013,-2659.645,44.2,2316.900,08119f24,57,9,22268874.526,0.381,-92619069.109637,0.004,-2068.621,33.8,2316.900,10b19f2b,59,4,21322968.666,0.073,-113823494.601355,0.006,1503.785,49.9,2316.900,18119f44,59,4,21322975.628,0.192,-88529425.735215,0.002,1169.609,39.7,2316.908,10b19f4b*5ce559ba
#BESTXYZA,COM1,0,52.5,FINESTEERING,1761,317668.000,00000000,d821,9570;SOL_COMPUTED,SINGLE,423321.7852,-5361647.0095,3417282.4509,1.3833,2.1484,1.3954,SOL_COMPUTED,DOPPLER_VELOCITY,0.0099,-0.0128,-0.0111,0.1653,0.2568,0.1668,"",0.150,0.000,0.000,19,19,0,0,0,06,0,33*4adcdde4
#RANGEA,COM1,0,54.0,FINESTEERING,1761,317669.000,00000000,5103,9570;38,4,0,21194178.835,0.031,-118388303.799457,0.005,2554.785,51.4,2368.060,18109c04,4,0,21194182.724,0.043,-92270198.101044,0.005,1990.742,46.6,2326.620,11309c0b,32,0,24631776.355,0.066,-129440861.938559,0.011,-1080.027,44.8,2304.010,08109c24,32,0,24631779.318,0.142,-100863014.154798,0.015,-841.578,36.3,2299.200,01309c2b,20,0,22701516.374,0.046,-126309400.933729,0.009,380.562,47.9,2330.400,08109c44,20,0,22701518.444,0.079,-92958942.476567,0.009,296.539,41.4,2313.580,01309c4b,10,0,25183512.682,0.063,-132340254.556593,0.013,3375.859,45.2,186.510,08109c64,10,0,25183526.203,0.151,-103122293.354348,0.015,2630.543,36.2,181.180,01309c6b,24,0,24198376.672,0.046,-127163335.397178,0.013,2137.531,47.8,2086.150,08109c84,24,0,24198382.442,0.083,-99088329.506129,0.014,1665.609,41.0,2081.680,01309c8b,28,0,20760851.184,0.031,-116111108.969327,0.006,-588.852,51.2,2345.870,08109ca4,28,0,20760851.409,0.037,-90495741.769218,0.006,-458.848,47.9,2326.620,01309cab,2,0,24353203.938,0.046,-127976982.411334,0.012,3152.926,47.8,1395.810,08109ce4,2,0,24353212.909,0.095,-99722369.879450,0.012,2456.832,39.8,1388.660,01309ceb,17,0,21021411.564,0.031,-117480376.507955,0.007,8.402,51.2,2357.120,08109d44,17,0,21021411.681,0.035,-91562710.337058,0.007,6.543,48.5,2325.580,01309d4b,8,0,23173628.044,0.044,-128790271.008326,0.008,-3815.090,48.3,2363.660,08109d64,8,0,23173635.501,0.106,-100375599.783066,0.010,-2972.809,38.8,2326.620,01309d6b,1,0,23819029.599,0.056,-132181933.770017,0.010,-3368.785,46.2,2366.860,18109d84,1,0,23819034.750,0.083,-103018484.812001,0.011,-2625.031,41.0,2325.580,11309d8b,9,0,23812845.662,0.052,-132149376.987953,0.012,-3851.336,46.7,2363.780,08109da4,9,0,23812854.592,0.092,-102993101.371239,0.012,-3001.051,40.1,2325.080,01309dab,43,3,23005425.486,0.086,-122761411.354670,0.008,3044.383,48.5,1917.140,18119e04,43,3,23005433.993,0.446,-95481165.558683,0.003,2367.863,32.4,1909.800,10b19e0b,48,7,19596500.646,0.070,-104717748.958340,0.006,-743.363,50.2,2317.900,18119e24,48,7,19596505.427,0.301,-81447155.656820,0.002,-578.176,35.8,2317.900,10b19e2b,47,0,21677929.340,0.071,-115555509.238799,0.007,-4161.609,50.2,2317.890,08119e64,47,0,21677940.640,0.552,-89876529.824738,0.005,-3236.820,30.6,2317.896,10b19e6b,58,11,20176179.598,0.070,-107966811.559236,0.007,-906.250,50.2,2317.900,18119ea4,58,11,20176181.554,0.450,-83974205.041417,0.003,-704.863,32.3,2317.904,00b19eab,49,6,21946631.525,0.083,-117234983.243877,0.008,3343.715,48.8,2317.910,18119ec4,49,6,21946639.028,0.332,-91182796.028879,0.002,2600.668,35.0,2297.348,00b19ecb,42,8,23079166.419,0.078,-123371373.695399,0.007,486.141,49.3,2317.910,18119f04,42,8,23079172.547,0.367,-95955552.269450,0.005,378.109,34.1,1966.364,00b19f0b,57,9,22269366.344,0.139,-119084304.205822,0.011,-2659.680,44.3,2317.900,08119f24,57,9,22269371.940,0.413,-92621137.808678,0.004,-2068.648,33.0,2317.900,10b19f2b,59,4,21322687.026,0.073,-113821991.202179,0.007,1503.078,49.9,2317.900,18119f44,59,4,21322693.999,0.196,-88528256.432213,0.002,1169.062,39.6,2317.908,10b19f4b*42161d82
