#GPSEPHEMA,COM1,12,59.5,SATTIME,1761,317010.000,00000000,9145,9570;1,317010.0,0,46,46,1761,1761,324000.0,2.656042496e+07,5.016994692e-09,2.202551220e+00,2.4175213184e-03,4.0835285082e-01,-4.284083843e-07,6.416812539e-06,2.55187500e+02,-8.93750000e+00,-7.264316082e-08,2.793967724e-08,9.6044927450e-01,-7.500312418e-12,2.438194543e+00,-8.18712674e-09,46,324000.0,8.381903172e-09,8.32425e-05,3.75167e-12,0.00000,TRUE,1.458583610e-04,4.00000000e+00*401b7b93
#GPSEPHEMA,COM1,11,59.5,SATTIME,1761,317010.000,00000000,9145,9570;2,317010.0,0,44,44,1761,1761,324000.0,2.656094866e+07,5.359151802e-09,3.044141497e+00,1.2637993321e-02,-2.553265965e+00,-5.289912224e-07,6.292015314e-06,2.44500000e+02,-8.59375000e+00,-1.117587090e-07,-1.825392246e-07,9.3894420465e-01,6.428839216e-12,2.413612370e+00,-8.20927052e-09,44,324000.0,-1.722946763e-08,4.55135e-04,1.81899e-12,0.00000,TRUE,1.458543895e-04,4.00000000e+00*0d6452e3
#GPSEPHEMA,COM1,10,59.5,SATTIME,1761,317010.000,00000000,9145,9570;4,317010.0,0,77,77,1761,1761,324000.0,2.655966468e+07,5.572732127e-09,3.6891196644e-02,1.0628628195e-02,1.035272366e+00,-1.545995474e-07,6.178393960e-06,2.47656250e+02,-6.96875000e+00,-6.519258022e-08,1.080334187e-07,9.3798840858e-01,-3.107272288e-11,2.429904002e+00,-8.67286126e-09,77,324000.0,-6.053596735e-09,1.81235e-06,4.54747e-13,0.00000,TRUE,1.458651794e-04,4.00000000e+00*c512851c
#GPSEPHEMA,COM1,9,59.5,SATTIME,1761,316320.000,00000000,9145,9570;7,316320.0,0,48,48,1761,1761,316800.0,2.656026876e+07,4.429470219e-09,6.0180875433e-01,6.9770587143e-03,-2.864033742e+00,4.153698683e-07,2.460554242e-06,3.38687500e+02,7.62500000e+00,1.117587090e-08,1.378357410e-07,9.7482666515e-01,5.714523747e-12,-6.8425508538e-01,-8.40320717e-09,48,316800.0,-1.071020961e-08,2.67641e-04,4.20641e-12,0.00000,TRUE,1.458590600e-04,4.00000000e+00*4daa70fb
#GPSEPHEMA,COM1,8,59.5,SATTIME,1761,317040.000,00000000,9145,9570;8,317040.0,0,58,58,1761,1761,324000.0,2.656044753e+07,3.889804883e-09,1.082089710e+00,1.3477348373e-02,-2.824466736e+00,-2.011656761e-07,2.894550562e-06,3.43437500e+02,-6.43750000e+00,-1.490116119e-07,2.086162567e-07,9.9782064621e-01,-1.803646558e-10,-5.9005804334e-01,-8.12355266e-09,58,324000.0,-3.725290298e-09,8.98121e-06,2.27374e-13,0.00000,TRUE,1.458570479e-04,4.00000000e+00*07d24ddb
#GPSEPHEMA,COM1,7,59.5,SATTIME,1761,317010.000,00000000,9145,9570;9,317010.0,0,67,67,1761,1761,324000.0,2.656078914e+07,4.149101398e-09,2.829930744e+00,1.6849673237e-02,1.732590499e+00,7.078051567e-07,2.117827535e-06,3.48250000e+02,1.22187500e+01,1.825392246e-07,-1.303851604e-08,9.8340362803e-01,-3.821587756e-11,-7.0653224243e-01,-7.96747473e-09,67,324000.0,-5.587935448e-09,2.74319e-04,2.72848e-12,0.00000,TRUE,1.458544934e-04,7.84000000e+00*b0bbe703
#GPSEPHEMA,COM1,6,59.5,SATTIME,1761,316530.000,00000000,9145,9570;11,316530.0,0,57,57,1761,1761,316800.0,2.656043392e+07,6.797783155e-09,8.3619183043e-01,1.4668348944e-02,1.224238066e+00,2.998858690e-07,6.301328540e-06,2.23375000e+02,3.40625000e+00,-1.806765795e-07,5.587935448e-08,8.8926424399e-01,1.100045821e-10,2.131292655e+00,-9.36824737e-09,57,316800.0,-1.164153218e-08,-4.27132e-04,-3.41061e-12,0.00000,TRUE,1.458600679e-04,4.00000000e+00*59acb335
#GPSEPHEMA,COM1,5,59.5,SATTIME,1761,317040.000,00000000,9145,9570;17,317040.0,0,12,12,1761,1761,324000.0,2.656053338e+07,4.425898642e-09,-1.781774207e+00,8.5887842579e-03,-2.190452221e+00,-1.117587090e-06,9.715557098e-06,1.92593750e+02,-2.32500000e+01,1.564621925e-07,1.676380634e-08,9.6621620875e-01,5.768097407e-10,1.428808649e+00,-7.79282460e-09,12,324000.0,-1.024454832e-08,-2.93832e-05,-3.63798e-12,0.00000,TRUE,1.458568768e-04,4.00000000e+00*c9f7edb9
#GPSEPHEMA,COM1,4,59.5,SATTIME,1761,317010.000,00000000,9145,9570;20,317010.0,0,4,4,1761,1761,323984.0,2.656026853e+07,5.350937174e-09,2.1779969568e-01,5.6309584761e-03,1.284218550e+00,5.867332220e-07,9.777024388e-06,1.72687500e+02,1.12812500e+01,-7.450580597e-09,3.352761269e-08,9.2796567009e-01,-5.250218693e-10,-2.857435879e+00,-8.45356641e-09,4,323984.0,-7.916241884e-09,1.28162e-04,2.72848e-12,0.00000,TRUE,1.458599835e-04,4.00000000e+00*9f01c6f2
#GPSEPHEMA,COM1,3,59.5,SATTIME,1761,317040.000,00000000,9145,9570;24,317040.0,0,56,56,1761,1761,324000.0,2.656013458e+07,4.726982612e-09,2.667018702e+00,1.1337259784e-03,1.3296966398e-01,8.530914783e-07,2.423301339e-06,3.29000000e+02,1.54375000e+01,-1.117587090e-08,3.166496754e-08,9.5827283129e-01,4.214461264e-11,-7.1510211455e-01,-8.45892378e-09,56,324000.0,3.259629011e-09,-1.52267e-05,-6.82121e-13,0.00000,TRUE,1.458604628e-04,7.84000000e+00*8a11c9ec
#GPSEPHEMA,COM1,2,59.5,SATTIME,1761,315390.000,00000000,9145,9570;26,315390.0,0,2,2,1761,1761,316784.0,2.656048128e+07,3.969808216e-09,2.187369768e+00,2.1079818718e-02,1.252201226e+00,4.768371582e-06,7.718801498e-06,2.34812500e+02,9.66875000e+01,2.011656761e-07,-3.799796104e-07,9.7723704358e-01,1.839362331e-10,-1.658595223e+00,-7.66781940e-09,2,316784.0,-5.587935448e-09,2.30192e-04,1.89857e-11,0.00000,TRUE,1.458568498e-04,4.00000000e+00*1070ab04
#GPSEPHEMA,COM1,1,59.5,SATTIME,1761,317040.000,00000000,9145,9570;28,317040.0,0,19,19,1761,1761,324000.0,2.656017170e+07,3.980165790e-09,-9.8825678854e-01,1.8845119048e-02,-1.762026741e+00,-4.811212420e-06,8.760020137e-06,2.26500000e+02,-9.86250000e+01,-1.695007086e-07,3.762543201e-07,9.8483024088e-01,-2.785830327e-11,3.9992204807e-01,-8.08747973e-09,19,324000.0,-1.071020961e-08,2.99238e-04,3.06954e-12,0.00000,TRUE,1.458594102e-04,4.00000000e+00*b8955e81
#GPSEPHEMA,COM1,0,59.5,SATTIME,1761,317010.000,00000000,9145,9570;32,317010.0,0,98,98,1761,1761,324000.0,2.655940903e+07,4.663408535e-09,2.176481080e+00,1.1627037893e-02,-2.7599505232e-01,1.631677151e-06,1.070834696e-05,1.65406250e+02,3.04375000e+01,4.097819328e-08,2.607703209e-07,9.4901526479e-01,-5.614519582e-10,-2.715001890e+00,-7.94854537e-09,98,324000.0,-2.793967724e-09,-5.41972e-04,3.52429e-12,0.00000,TRUE,1.458663760e-04,4.00000000e+00*1a519b01
#BESTXYZA,COM1,0,56.0,FINESTEERING,1761,317077.000,00000000,d821,9570;SOL_COMPUTED,SINGLE,423321.3381,-5361646.3261,3417281.3290,1.3590,2.2250,1.6346,SOL_COMPUTED,DOPPLER_VELOCITY,0.0092,-0.0169,0.0049,0.1624,0.2659,0.1954,"",0.150,0.000,0.000,18,18,0,0,0,06,0,33*14114288
#BESTXYZA,COM1,0,52.0,FINESTEERING,1761,317078.000,00000000,d821,9570;SOL_COMPUTED,SINGLE,423321.3414,-5361646.3396,3417281.3407,1.3591,2.2250,1.6346,SOL_COMPUTED,DOPPLER_VELOCITY,-0.0105,-0.0175,-0.0023,0.1624,0.2659,0.1954,"",0.150,0.000,0.000,18,18,0,0,0,06,0,33*afe14e6d
#BESTXYZA,COM1,0,52.0,FINESTEERING,1761,317079.000,00000000,d821,9570;SOL_COMPUTED,SINGLE,423321.3472,-5361646.3487,3417281.3502,1.3591,2.2250,1.6346,SOL_COMPUTED,DOPPLER_VELOCITY,-0.0076,-0.0291,0.0008,0.1624,0.2659,0.1954,"",0.150,0.000,0.000,18,18,0,0,0,06,0,33*dcc1452b
#BESTXYZA,COM1,0,57.0,FINESTEERING,1761,317080.000,00000000,d821,9570;SOL_COMPUTED,SINGLE,423321.3598,-5361646.3583,3417281.3599,1.3592,2.2251,1.6346,SOL_COMPUTED,DOPPLER_VELOCITY,0.0111,-0.0025,-0.0132,0.1625,0.2659,0.1954,"",0.150,0.000,0.000,18,18,0,0,0,06,0,33*b6b0925b
#BESTXYZA,COM1,0,57.0,FINESTEERING,1761,317081.000,00000000,d821,9570;SOL_COMPUTED,SINGLE,423321.3719,-5361646.3821,3417281.3731,1.3592,2.2251,1.6347,SOL_COMPUTED,DOPPLER_VELOCITY,-0.0067,-0.0047,-0.0137,0.1625,0.2659,0.1954,"",0.150,0.000,0.000,18,18,0,0,0,06,0,33*80342221
#BESTXYZA,COM1,0,55.5,FINESTEERING,1761,317082.000,00000000,d821,9570;SOL_COMPUTED,SINGLE,423321.3851,-5361646.4036,3417281.3859,1.3593,2.2251,1.6347,SOL_COMPUTED,DOPPLER_VELOCITY,0.0106,-0.0193,0.0029,0.1625,0.2659,0.1954,"",0.150,0.000,0.000,18,18,0,0,0,06,0,33*95d83873
#BESTXYZA,COM1,0,55.5,FINESTEERING,1761,317083.000,00000000,d821,9570;SOL_COMPUTED,SINGLE,423321.3909,-5361646.4152,3417281.3993,1.3593,2.2251,1.6348,SOL_COMPUTED,DOPPLER_VELOCITY,-0.0085,0.0128,0.0011,0.1625,0.2659,0.1954,"",0.150,0.000,0.000,18,18,0,0,0,06,0,33*dcaaeee0
#BESTXYZA,COM1,0,58.0,FINESTEERING,1761,317084.000,00000000,d821,9570;SOL_COMPUTED,SINGLE,423321.4023,-5361646.4415,3417281.4130,1.3594,2.2251,1.6348,SOL_COMPUTED,DOPPLER_VELOCITY,-0.0018,0.0298,-0.0026,0.1625,0.2660,0.1954,"",0.150,0.000,0.000,18,18,0,0,0,06,0,33*9b896347
#BESTXYZA,COM1,0,56.0,FINESTEERING,1761,317085.000,00000000,d821,9570;SOL_COMPUTED,SINGLE,423321.4075,-5361646.4575,3417281.4242,1.3594,2.2251,1.6348,SOL_COMPUTED,DOPPLER_VELOCITY,-0.0148,0.0145,-0.0126,0.1625,0.2660,0.1954,"",0.150,0.000,0.000,18,18,0,0,0,06,0,33*eac931a3
#BESTXYZA,COM1,0,56.0,FINESTEERING,1761,317086.000,00000000,d821,9570;SOL_COMPUTED,SINGLE,423321.4174,-5361646.4789,3417281.4361,1.3595,2.2251,1.6348,SOL_COMPUTED,DOPPLER_VELOCITY,-0.0057,-0.0165,0.0074,0.1625,0.2660,0.1954,"",0.150,0.000,0.000,18,18,0,0,0,06,0,33*a6f48764
#BESTXYZA,COM1,0,53.0,FINESTEERING,1761,317087.000,00000000,d821,9570;SOL_COMPUTED,SINGLE,423321.4205,-5361646.4973,3417281.4508,1.3595,2.2251,1.6349,SOL_COMPUTED,DOPPLER_VELOCITY,0.0011,0.0173,-0.0051,0.1625,0.2660,0.1954,"",0.150,0.000,0.000,18,18,0,0,0,06,0,33*007df208
#RANGEA,COM1,0,55.5,FINESTEERING,1761,317088.000,00000000,5103,9570;36,4,0,21491230.859,0.050,-111560708.203125,0.006,2814.695,50.0,1787.062,18109c04,4,0,21491234.062,0.050,-85097961.300781,0.006,2193.273,43.0,1745.625,11309c0b,32,0,24530391.820,0.050,-128908083.511719,0.010,-753.379,47.0,1723.000,08109c24,32,0,24530395.133,0.113,-100447862.417969,0.012,-587.047,38.0,1718.188,01309c2b,20,0,22762061.219,0.050,-118238951.031250,0.012,711.090,48.0,1749.406,08109c44,20,0,22762062.500,0.075,-93206857.152344,0.012,554.094,41.0,1732.594,01309c4b,24,0,24449792.117,0.050,-128484530.777344,0.010,2406.086,44.0,1505.156,08109c84,24,0,24449798.633,0.075,-100117831.554688,0.014,1874.867,39.0,1500.688,01309c8b,28,0,20709764.633,0.050,-107454039.246094,0.006,-337.801,51.0,1764.875,08109ca4,28,0,20709764.266,0.050,-81897943.324219,0.006,-263.227,48.0,1745.625,01309cab,2,0,24706523.195,0.050,-129833666.625000,0.010,3234.980,47.0,814.812,08109ce4,2,0,24706533.406,0.075,-101169131.656250,0.012,2520.770,38.0,807.656,01309ceb,17,0,21027570.922,0.050,-109124137.386719,0.006,103.641,51.0,1776.125,08109d44,17,0,21027571.531,0.050,-83199324.726562,0.006,80.754,49.0,1744.594,01309d4b,8,0,22757430.711,0.050,-118214553.601562,0.008,-3706.938,48.0,1782.656,08109d64,8,0,22757436.922,0.075,-90282756.300781,0.008,-2888.531,41.0,1745.625,01309d6b,1,0,23451520.797,0.050,-121862050.277344,0.010,-3274.383,48.0,1785.875,18109d84,1,0,23451523.859,0.075,-93124987.746094,0.010,-2551.473,40.0,1744.594,11309d8b,9,0,23388290.414,0.050,-121529738.925781,0.008,-3822.676,48.0,1782.781,08109da4,9,0,23388297.555,0.075,-92866034.199219,0.008,-2978.715,41.0,1744.094,01309dab,43,3,23344501.836,0.075,-124570770.894531,0.010,3174.652,47.0,1336.125,18119e04,43,3,23344512.477,0.380,-96888439.781250,0.004,2469.180,34.0,1328.812,10b19e0b,48,7,19544590.188,0.050,-104440358.035156,0.006,-210.859,50.0,1736.906,18119e24,48,7,19544594.836,0.253,-81231407.871094,0.002,-164.004,36.0,1736.906,10b19e2b,47,0,21236721.328,0.050,-113203640.945312,0.006,-3925.848,50.0,1736.875,08119e64,47,0,21236732.336,0.380,-88047303.375000,0.004,-3053.445,32.0,1736.906,10b19e6b,58,11,20085439.266,0.050,-107481240.875000,0.006,-761.668,50.0,1736.906,18119ea4,58,11,20085441.375,0.380,-83596538.898438,0.004,-592.410,33.0,1736.906,00b19eab,49,6,22326989.914,0.075,-119266781.457031,0.008,3641.176,49.0,1736.906,18119ec4,49,6,22326996.531,0.380,-92763082.695312,0.004,2832.023,33.0,1716.344,00b19ecb,42,8,23155175.164,0.075,-123777692.082031,0.010,908.113,47.0,1736.906,18119f04,42,8,23155182.609,0.570,-96271576.769531,0.008,706.305,30.0,1385.375,00b19f0b,57,9,21979661.492,0.113,-117535119.929688,0.010,-2670.625,44.0,1736.906,08119f24,57,9,21979666.086,0.380,-91416217.433594,0.004,-2077.160,33.0,1736.906,10b19f2b,59,4,21496213.203,0.075,-114748277.894531,0.008,1687.000,49.0,1736.906,18119f44,59,4,21496220.805,0.169,-89248699.304688,0.004,1312.113,38.0,1736.906,10b19f4b*9daa54b3
#BESTXYZA,COM1,0,53.0,FINESTEERING,1761,317088.000,00000000,d821,9570;SOL_COMPUTED,SINGLE,423321.4199,-5361646.5077,3417281.4580,1.3596,2.2251,1.6349,SOL_COMPUTED,DOPPLER_VELOCITY,-0.0146,0.0295,-0.0118,0.1625,0.2660,0.1954,"",0.150,0.000,0.000,18,18,0,0,0,06,0,33*0be1a85a
#RANGEA,COM1,0,53.0,FINESTEERING,1761,317089.000,00000000,5103,9570;36,4,0,21490695.250,0.050,-111557893.582031,0.006,2814.438,50.0,1788.062,18109c04,4,0,21490698.461,0.050,-85095768.089844,0.006,2193.066,43.0,1746.625,11309c0b,32,0,24530535.242,0.050,-128908837.167969,0.012,-753.664,47.0,1724.000,08109c24,32,0,24530538.531,0.113,-100448449.675781,0.014,-587.273,37.0,1719.188,01309c2b,20,0,22761925.898,0.050,-118238239.878906,0.012,710.867,48.0,1750.406,08109c44,20,0,22761927.188,0.075,-93206303.003906,0.012,553.922,41.0,1733.594,01309c4b,24,0,24449334.289,0.050,-128482124.890625,0.012,2405.676,44.0,1506.156,08109c84,24,0,24449340.797,0.113,-100115956.839844,0.014,1874.547,38.0,1501.688,01309c8b,28,0,20709828.953,0.050,-107454377.210938,0.006,-338.074,51.0,1765.875,08109ca4,28,0,20709828.578,0.050,-81898206.667969,0.006,-263.438,48.0,1746.625,01309cab,2,0,24705907.641,0.050,-129830431.691406,0.012,3234.961,47.0,815.812,08109ce4,2,0,24705917.805,0.075,-101166610.925781,0.014,2520.750,39.0,808.656,01309ceb,17,0,21027551.195,0.050,-109124033.679688,0.006,103.824,51.0,1777.125,08109d44,17,0,21027551.789,0.050,-83199243.921875,0.006,80.898,48.0,1745.594,01309d4b,8,0,22758136.117,0.050,-118218260.542969,0.008,-3706.953,48.0,1783.656,08109d64,8,0,22758142.336,0.075,-90285644.816406,0.008,-2888.543,41.0,1746.625,01309d6b,1,0,23452143.922,0.050,-121865324.750000,0.010,-3274.566,48.0,1786.875,18109d84,1,0,23452146.984,0.075,-93127539.285156,0.010,-2551.609,40.0,1745.594,11309d8b,9,0,23389017.859,0.050,-121533561.625000,0.008,-3822.777,48.0,1783.781,08109da4,9,0,23389025.016,0.075,-92869012.921875,0.008,-2978.797,40.0,1745.094,01309dab,43,3,23343906.945,0.075,-124567596.417969,0.010,3174.598,47.0,1337.125,18119e04,43,3,23343917.578,0.253,-96885970.753906,0.004,2469.137,34.0,1329.812,10b19e0b,48,7,19544629.711,0.050,-104440569.277344,0.008,-211.719,50.0,1737.906,18119e24,48,7,19544634.375,0.253,-81231572.167969,0.002,-164.676,35.0,1737.906,10b19e2b,47,0,21237457.836,0.050,-113207566.933594,0.006,-3926.211,50.0,1737.875,08119e64,47,0,21237468.852,0.380,-88050356.921875,0.004,-3053.727,33.0,1737.906,10b19e6b,58,11,20085581.633,0.050,-107482002.628906,0.006,-761.797,50.0,1737.906,18119ea4,58,11,20085583.750,0.380,-83597131.375000,0.004,-592.508,33.0,1737.906,00b19eab,49,6,22326308.273,0.075,-119263140.328125,0.008,3641.191,49.0,1737.906,18119ec4,49,6,22326314.859,0.380,-92760250.707031,0.002,2832.035,33.0,1717.344,00b19ecb,42,8,23155005.344,0.075,-123776784.222656,0.010,907.629,47.0,1737.906,18119f04,42,8,23155012.797,0.380,-96270870.652344,0.008,705.930,30.0,1386.375,00b19f0b,57,9,21980160.930,0.113,-117537790.621094,0.012,-2670.469,45.0,1737.906,08119f24,57,9,21980165.547,0.253,-91418294.628906,0.004,-2077.039,34.0,1737.906,10b19f2b,59,4,21495897.180,0.075,-114746591.035156,0.008,1686.781,49.0,1737.906,18119f44,59,4,21495904.781,0.169,-89247387.308594,0.002,1311.945,39.0,1737.906,10b19f4b*c3791647
#BESTXYZA,COM1,0,53.0,FINESTEERING,1761,317089.000,00000000,d821,9570;SOL_COMPUTED,SINGLE,423321.4240,-5361646.5206,3417281.4682,1.3596,2.2252,1.6350,SOL_COMPUTED,DOPPLER_VELOCITY,-0.0020,0.0096,0.0036,0.1625,0.2660,0.1954,"",0.150,0.000,0.000,18,18,0,0,0,06,0,33*cec3f322
#RANGEA,COM1,0,53.0,FINESTEERING,1761,317090.000,00000000,5103,9570;36,4,0,21490159.680,0.050,-111555079.195312,0.006,2814.102,50.0,1789.062,18109c04,4,0,21490162.898,0.050,-85093575.062500,0.006,2192.805,43.0,1747.625,11309c0b,32,0,24530678.727,0.050,-128909591.210938,0.012,-754.250,46.0,1725.000,08109c24,32,0,24530682.023,0.113,-100449037.250000,0.014,-587.727,37.0,1720.188,01309c2b,20,0,22761790.641,0.050,-118237529.078125,0.010,710.512,48.0,1751.406,08109c44,20,0,22761791.945,0.075,-93205749.136719,0.010,553.645,41.0,1734.594,01309c4b,24,0,24448876.500,0.050,-128479719.222656,0.012,2405.258,44.0,1507.156,08109c84,24,0,24448883.016,0.113,-100114082.296875,0.014,1874.227,38.0,1502.688,01309c8b,28,0,20709893.305,0.050,-107454715.398438,0.006,-338.535,51.0,1766.875,08109ca4,28,0,20709892.930,0.050,-81898470.191406,0.006,-263.797,48.0,1747.625,01309cab,2,0,24705292.062,0.050,-129827196.695312,0.010,3234.871,47.0,816.812,08109ce4,2,0,24705302.203,0.075,-101164090.148438,0.012,2520.680,40.0,809.656,01309ceb,17,0,21027531.469,0.050,-109123929.957031,0.006,103.488,51.0,1778.125,08109d44,17,0,21027532.047,0.050,-83199163.097656,0.006,80.637,48.0,1746.594,01309d4b,8,0,22758841.531,0.050,-118221967.511719,0.008,-3707.188,48.0,1784.656,08109d64,8,0,22758847.773,0.075,-90288533.351562,0.008,-2888.730,41.0,1747.625,01309d6b,1,0,23452767.039,0.050,-121868599.210938,0.010,-3274.656,48.0,1787.875,18109d84,1,0,23452770.094,0.075,-93130090.812500,0.010,-2551.684,40.0,1746.594,11309d8b,9,0,23389745.289,0.050,-121537384.203125,0.008,-3822.695,48.0,1784.781,08109da4,9,0,23389752.438,0.075,-92871991.546875,0.008,-2978.730,40.0,1746.094,01309dab,43,3,23343312.047,0.075,-124564421.914062,0.008,3174.391,47.0,1338.125,18119e04,43,3,23343322.672,0.380,-96883501.710938,0.004,2468.973,34.0,1330.812,10b19e0b,48,7,19544669.375,0.050,-104440781.222656,0.006,-212.457,50.0,1738.906,18119e24,48,7,19544674.031,0.253,-81231737.011719,0.002,-165.250,35.0,1738.906,10b19e2b,47,0,21238194.383,0.075,-113211493.144531,0.006,-3926.480,50.0,1738.875,08119e64,47,0,21238205.406,0.380,-88053410.636719,0.004,-3053.938,32.0,1738.906,10b19e6b,58,11,20085724.016,0.050,-107482764.441406,0.006,-762.047,50.0,1738.906,18119ea4,58,11,20085726.141,0.380,-83597723.906250,0.004,-592.703,33.0,1738.906,00b19eab,49,6,22325626.703,0.075,-119259499.535156,0.008,3640.348,49.0,1738.906,18119ec4,49,6,22325633.266,0.380,-92757418.972656,0.004,2831.379,34.0,1718.344,00b19ecb,42,8,23154835.633,0.075,-123775876.855469,0.010,906.949,47.0,1738.906,18119f04,42,8,23154843.070,0.380,-96270164.921875,0.008,705.402,30.0,1387.375,00b19f0b,57,9,21980660.320,0.113,-117540461.113281,0.012,-2670.598,45.0,1738.906,08119f24,57,9,21980664.984,0.253,-91420371.671875,0.004,-2077.141,34.0,1738.906,10b19f2b,59,4,21495581.188,0.075,-114744904.289062,0.008,1686.500,50.0,1738.906,18119f44,59,4,21495588.773,0.169,-89246075.402344,0.002,1311.727,38.0,1738.906,10b19f4b*8e085593
#BESTXYZA,COM1,0,53.0,FINESTEERING,1761,317090.000,00000000,d821,9570;SOL_COMPUTED,SINGLE,423321.4292,-5361646.5305,3417281.4745,1.3597,2.2252,1.6350,SOL_COMPUTED,DOPPLER_VELOCITY,0.0115,0.0201,-0.0193,0.1625,0.2660,0.1954,"",0.150,0.000,0.000,18,18,0,0,0,06,0,33*b707a358
#RANGEA,COM1,0,53.0,FINESTEERING,1761,317091.000,00000000,5103,9570;36,4,0,21489624.203,0.050,-111552265.238281,0.006,2813.895,50.0,1790.062,18109c04,4,0,21489627.422,0.050,-85091382.371094,0.006,2192.645,43.0,1748.625,11309c0b,32,0,24530822.336,0.050,-128910345.839844,0.012,-754.812,47.0,1726.000,08109c24,32,0,24530825.648,0.113,-100449625.273438,0.014,-588.164,37.0,1721.188,01309c2b,20,0,22761655.484,0.050,-118236818.832031,0.010,709.992,47.0,1752.406,08109c44,20,0,22761656.797,0.075,-93205195.703125,0.012,553.242,40.0,1735.594,01309c4b,24,0,24448418.820,0.050,-128477314.019531,0.012,2404.961,44.0,1508.156,08109c84,24,0,24448425.344,0.075,-100112208.109375,0.014,1873.996,39.0,1503.688,01309c8b,28,0,20709957.750,0.050,-107455054.015625,0.006,-338.652,51.0,1767.875,08109ca4,28,0,20709957.375,0.050,-81898734.050781,0.006,-263.891,48.0,1748.625,01309cab,2,0,24704676.508,0.050,-129823961.824219,0.010,3234.836,47.0,817.812,08109ce4,2,0,24704686.609,0.075,-101161569.468750,0.012,2520.652,40.0,810.656,01309ceb,17,0,21027511.773,0.050,-109123826.414062,0.006,103.547,51.0,1779.125,08109d44,17,0,21027512.344,0.050,-83199082.410156,0.006,80.684,48.0,1747.594,01309d4b,8,0,22759546.984,0.050,-118225674.703125,0.008,-3707.086,48.0,1785.656,08109d64,8,0,22759553.234,0.075,-90291422.066406,0.008,-2888.648,41.0,1748.625,01309d6b,1,0,23453390.195,0.050,-121871873.882812,0.010,-3274.492,48.0,1788.875,18109d84,1,0,23453393.266,0.075,-93132642.503906,0.012,-2551.555,40.0,1747.594,11309d8b,9,0,23390472.727,0.050,-121541206.871094,0.008,-3822.672,48.0,1785.781,08109da4,9,0,23390479.875,0.075,-92874970.234375,0.008,-2978.719,40.0,1747.094,01309dab,43,3,23342717.180,0.075,-124561247.601562,0.010,3174.375,47.0,1339.125,18119e04,43,3,23342727.805,0.253,-96881032.812500,0.004,2468.965,34.0,1331.812,10b19e0b,48,7,19544709.195,0.050,-104440994.109375,0.006,-213.336,50.0,1739.906,18119e24,48,7,19544713.883,0.253,-81231902.589844,0.002,-165.934,36.0,1739.906,10b19e2b,47,0,21238931.016,0.075,-113215419.835938,0.006,-3926.852,49.0,1739.875,08119e64,47,0,21238942.062,0.380,-88056464.718750,0.004,-3054.227,32.0,1739.906,10b19e6b,58,11,20085866.445,0.050,-107483526.546875,0.006,-762.141,50.0,1739.906,18119ea4,58,11,20085868.562,0.380,-83598316.652344,0.004,-592.777,32.0,1739.906,00b19eab,49,6,22324945.242,0.075,-119255859.222656,0.008,3640.137,49.0,1739.906,18119ec4,49,6,22324951.773,0.380,-92754587.617188,0.004,2831.215,33.0,1719.344,00b19ecb,42,8,23154666.039,0.075,-123774970.199219,0.008,906.336,47.0,1739.906,18119f04,42,8,23154673.477,0.570,-96269459.742188,0.006,704.926,30.0,1388.375,00b19f0b,57,9,21981159.719,0.113,-117543131.621094,0.012,-2670.344,45.0,1739.906,08119f24,57,9,21981164.422,0.253,-91422448.726562,0.004,-2076.941,34.0,1739.906,10b19f2b,59,4,21495265.266,0.050,-114743217.875000,0.008,1686.359,50.0,1739.906,18119f44,59,4,21495272.844,0.169,-89244763.750000,0.004,1311.617,39.0,1739.906,10b19f4b*e1856826
#BESTXYZA,COM1,0,53.0,FINESTEERING,1761,317091.000,00000000,d821,9570;SOL_COMPUTED,SINGLE,423321.4384,-5361646.5457,3417281.4754,1.3598,2.2252,1.6350,SOL_COMPUTED,DOPPLER_VELOCITY,0.0091,-0.0123,0.0024,0.1625,0.2660,0.1954,"",0.150,0.000,0.000,18,18,0,0,0,06,0,33*61295b13
#RANGEA,COM1,0,53.0,FINESTEERING,1761,317092.000,00000000,5103,9570;36,4,0,21489088.742,0.050,-111549451.421875,0.006,2813.844,50.0,1791.062,18109c04,4,0,21489091.961,0.050,-85089189.789062,0.006,2192.605,43.0,1749.625,11309c0b,32,0,24530966.000,0.050,-128911100.746094,0.010,-754.875,46.0,1727.000,08109c24,32,0,24530969.312,0.113,-100450213.519531,0.014,-588.215,38.0,1722.188,01309c2b,20,0,22761520.391,0.050,-118236108.863281,0.010,710.004,47.0,1753.406,08109c44,20,0,22761521.711,0.075,-93204642.476562,0.012,553.250,42.0,1736.594,01309c4b,24,0,24447961.148,0.075,-128474908.960938,0.012,2405.051,43.0,1509.156,08109c84,24,0,24447967.664,0.075,-100110334.042969,0.014,1874.066,39.0,1504.688,01309c8b,28,0,20710022.219,0.050,-107455392.777344,0.006,-338.750,51.0,1768.875,08109ca4,28,0,20710021.852,0.050,-81898998.023438,0.006,-263.965,48.0,1749.625,01309cab,2,0,24704060.930,0.050,-129820726.781250,0.010,3235.332,47.0,818.812,08109ce4,2,0,24704070.992,0.075,-101159048.660156,0.012,2521.039,39.0,811.656,01309ceb,17,0,21027492.047,0.050,-109123722.750000,0.006,103.852,51.0,1780.125,08109d44,17,0,21027492.609,0.050,-83199001.636719,0.006,80.918,48.0,1748.594,01309d4b,8,0,22760252.438,0.050,-118229381.847656,0.008,-3707.031,48.0,1786.656,08109d64,8,0,22760258.680,0.075,-90294310.738281,0.008,-2888.609,41.0,1749.625,01309d6b,1,0,23454013.328,0.050,-121875148.441406,0.010,-3274.422,48.0,1789.875,18109d84,1,0,23454016.391,0.075,-93135194.101562,0.010,-2551.500,41.0,1748.594,11309d8b,9,0,23391200.125,0.050,-121545029.339844,0.008,-3822.199,48.0,1786.781,08109da4,9,0,23391207.273,0.075,-92877948.769531,0.010,-2978.348,40.0,1748.094,01309dab,43,3,23342122.289,0.075,-124558073.164062,0.008,3174.637,47.0,1340.125,18119e04,43,3,23342132.898,0.380,-96878563.816406,0.004,2469.168,34.0,1332.812,10b19e0b,48,7,19544749.148,0.050,-104441207.613281,0.006,-213.750,50.0,1740.906,18119e24,48,7,19544753.844,0.253,-81232068.644531,0.002,-166.254,36.0,1740.906,10b19e2b,47,0,21239667.672,0.075,-113219346.679688,0.008,-3926.828,49.0,1740.875,08119e64,47,0,21239678.750,0.380,-88059518.921875,0.004,-3054.207,32.0,1740.906,10b19e6b,58,11,20086008.867,0.050,-107484288.628906,0.006,-761.938,50.0,1740.906,18119ea4,58,11,20086010.984,0.380,-83598909.386719,0.004,-592.617,33.0,1740.906,00b19eab,49,6,22324263.797,0.075,-119252219.062500,0.008,3640.230,49.0,1740.906,18119ec4,49,6,22324270.289,0.380,-92751756.378906,0.004,2831.285,33.0,1720.344,00b19ecb,42,8,23154496.539,0.075,-123774063.960938,0.010,906.141,47.0,1740.906,18119f04,42,8,23154503.992,0.570,-96268754.890625,0.006,704.773,30.0,1389.375,00b19f0b,57,9,21981659.047,0.113,-117545801.820312,0.012,-2669.965,45.0,1740.906,08119f24,57,9,21981663.828,0.253,-91424525.542969,0.004,-2076.648,34.0,1740.906,10b19f2b,59,4,21494949.352,0.075,-114741531.523438,0.006,1686.363,50.0,1740.906,18119f44,59,4,21494956.922,0.169,-89243452.140625,0.004,1311.621,38.0,1740.906,10b19f4b*40519fc5
#BESTXYZA,COM1,0,53.0,FINESTEERING,1761,317092.000,00000000,d821,9570;SOL_COMPUTED,SINGLE,423321.4409,-5361646.5561,3417281.4839,1.3598,2.2252,1.6351,SOL_COMPUTED,DOPPLER_VELOCITY,-0.0027,0.0168,-0.0142,0.1625,0.2660,0.1954,"",0.150,0.000,0.000,18,18,0,0,0,06,0,33*95f34a32
#RANGEA,COM1,0,56.0,FINESTEERING,1761,317093.000,00000000,5103,9570;36,4,0,21488553.344,0.050,-111546637.894531,0.006,2813.297,50.0,1792.062,18109c04,4,0,21488556.570,0.050,-85086997.433594,0.006,2192.180,44.0,1750.625,11309c0b,32,0,24531109.734,0.050,-128911856.078125,0.012,-755.551,46.0,1728.000,08109c24,32,0,24531113.055,0.113,-100450802.085938,0.014,-588.746,38.0,1723.188,01309c2b,20,0,22761385.375,0.050,-118235399.339844,0.012,709.184,47.0,1754.406,08109c44,20,0,22761386.711,0.075,-93204089.605469,0.012,552.609,42.0,1737.594,01309c4b,24,0,24447503.531,0.075,-128472504.214844,0.012,2404.355,43.0,1510.156,08109c84,24,0,24447510.047,0.075,-100108460.210938,0.014,1873.520,39.0,1505.688,01309c8b,28,0,20710086.734,0.050,-107455731.808594,0.006,-339.156,51.0,1769.875,08109ca4,28,0,20710086.367,0.050,-81899262.203125,0.006,-264.281,48.0,1750.625,01309cab,2,0,24703445.344,0.050,-129817491.738281,0.012,3235.027,47.0,819.812,08109ce4,2,0,24703455.367,0.075,-101156527.863281,0.014,2520.805,39.0,812.656,01309ceb,17,0,21027472.336,0.050,-109123619.128906,0.006,103.555,51.0,1781.125,08109d44,17,0,21027472.883,0.050,-83198920.886719,0.006,80.688,48.0,1749.594,01309d4b,8,0,22760957.898,0.050,-118233089.074219,0.008,-3707.387,48.0,1787.656,08109d64,8,0,22760964.156,0.075,-90297199.476562,0.008,-2888.883,41.0,1750.625,01309d6b,1,0,23454636.477,0.050,-121878423.062500,0.010,-3274.609,48.0,1790.875,18109d84,1,0,23454639.531,0.075,-93137745.746094,0.012,-2551.648,40.0,1749.594,11309d8b,9,0,23391927.516,0.050,-121548851.769531,0.008,-3822.480,48.0,1787.781,08109da4,9,0,23391934.688,0.075,-92880927.277344,0.008,-2978.566,41.0,1749.094,01309dab,43,3,23341527.414,0.075,-124554898.781250,0.010,3174.355,47.0,1341.125,18119e04,43,3,23341538.016,0.253,-96876094.863281,0.006,2468.949,34.0,1333.812,10b19e0b,48,7,19544789.250,0.050,-104441421.902344,0.008,-214.664,50.0,1741.906,18119e24,48,7,19544793.945,0.253,-81232235.312500,0.002,-166.965,36.0,1741.906,10b19e2b,47,0,21240404.391,0.075,-113223273.859375,0.008,-3927.348,49.0,1741.875,08119e64,47,0,21240415.484,0.380,-88062573.390625,0.004,-3054.613,32.0,1741.906,10b19e6b,58,11,20086151.312,0.050,-107485050.835938,0.006,-762.320,50.0,1741.906,18119ea4,58,11,20086153.438,0.380,-83599502.207031,0.004,-592.914,33.0,1741.906,00b19eab,49,6,22323582.398,0.075,-119248579.187500,0.008,3639.719,49.0,1741.906,18119ec4,49,6,22323588.875,0.380,-92748925.367188,0.004,2830.887,33.0,1721.344,00b19ecb,42,8,23154327.133,0.075,-123773158.289062,0.010,905.254,46.0,1741.906,18119f04,42,8,23154334.586,0.570,-96268050.488281,0.008,704.086,30.0,1390.375,00b19f0b,57,9,21982158.367,0.113,-117548471.894531,0.012,-2670.152,46.0,1741.906,08119f24,57,9,21982163.188,0.253,-91426602.265625,0.004,-2076.793,34.0,1741.906,10b19f2b,59,4,21494633.461,0.075,-114739845.332031,0.008,1686.156,50.0,1741.906,18119f44,59,4,21494641.023,0.169,-89242140.664062,0.002,1311.457,39.0,1741.906,10b19f4b*86e2e558
#BESTXYZA,COM1,0,56.0,FINESTEERING,1761,317093.000,00000000,d821,9570;SOL_COMPUTED,SINGLE,423321.4421,-5361646.5684,3417281.4954,1.3599,2.2252,1.6351,SOL_COMPUTED,DOPPLER_VELOCITY,0.0020,-0.0023,0.0033,0.1625,0.2660,0.1954,"",0.150,0.000,0.000,18,18,0,0,0,06,0,33*d5682a42
#RANGEA,COM1,0,56.0,FINESTEERING,1761,317094.000,00000000,5103,9570;36,4,0,21488018.062,0.050,-111543824.960938,0.006,2812.457,50.0,1793.062,18109c04,4,0,21488021.289,0.050,-85084805.546875,0.006,2191.527,43.0,1751.625,11309c0b,32,0,24531253.617,0.050,-128912612.140625,0.010,-756.469,47.0,1729.000,08109c24,32,0,24531256.930,0.075,-100451391.226562,0.012,-589.457,38.0,1724.188,01309c2b,20,0,22761250.484,0.050,-118234690.476562,0.010,708.422,47.0,1755.406,08109c44,20,0,22761251.828,0.075,-93203537.250000,0.012,552.016,41.0,1738.594,01309c4b,24,0,24447046.016,0.075,-128470100.050781,0.012,2403.773,43.0,1511.156,08109c84,24,0,24447052.523,0.075,-100106586.847656,0.016,1873.070,39.0,1506.688,01309c8b,28,0,20710151.367,0.050,-107456071.429688,0.006,-340.031,51.0,1770.875,08109ca4,28,0,20710150.992,0.050,-81899526.839844,0.006,-264.965,48.0,1751.625,01309cab,2,0,24702829.812,0.050,-129814256.980469,0.010,3234.527,47.0,820.812,08109ce4,2,0,24702839.797,0.075,-101154007.281250,0.012,2520.414,39.0,813.656,01309ceb,17,0,21027452.688,0.050,-109123515.828125,0.006,103.047,51.0,1782.125,08109d44,17,0,21027453.219,0.050,-83198840.398438,0.006,80.297,48.0,1750.594,01309d4b,8,0,22761663.430,0.050,-118236796.664062,0.008,-3707.914,47.0,1788.656,08109d64,8,0,22761669.703,0.075,-90300088.496094,0.008,-2889.297,41.0,1751.625,01309d6b,1,0,23455259.688,0.050,-121881698.039062,0.010,-3275.098,48.0,1791.875,18109d84,1,0,23455262.750,0.075,-93140297.679688,0.012,-2552.027,40.0,1750.594,11309d8b,9,0,23392654.953,0.050,-121552674.429688,0.008,-3823.000,48.0,1788.781,08109da4,9,0,23392662.125,0.075,-92883905.964844,0.010,-2978.973,41.0,1750.094,01309dab,43,3,23340932.617,0.075,-124551724.742188,0.008,3173.656,47.0,1342.125,18119e04,43,3,23340943.219,0.380,-96873626.183594,0.006,2468.406,34.0,1334.812,10b19e0b,48,7,19544829.555,0.050,-104441637.289062,0.006,-216.012,50.0,1742.906,18119e24,48,7,19544834.258,0.253,-81232402.835938,0.002,-168.012,36.0,1742.906,10b19e2b,47,0,21241141.227,0.075,-113227201.656250,0.008,-3928.348,49.0,1742.875,08119e64,47,0,21241152.328,0.380,-88065628.335938,0.004,-3055.391,32.0,1742.906,10b19e6b,58,11,20086293.844,0.050,-107485813.480469,0.006,-763.000,50.0,1742.906,18119ea4,58,11,20086295.961,0.380,-83600095.378906,0.004,-593.445,33.0,1742.906,00b19eab,49,6,22322901.117,0.075,-119244939.929688,0.008,3638.859,49.0,1742.906,18119ec4,49,6,22322907.594,0.380,-92746094.832031,0.004,2830.219,33.0,1722.344,00b19ecb,42,8,23154157.883,0.113,-123772253.480469,0.010,904.273,46.0,1742.906,18119f04,42,8,23154165.344,0.570,-96267346.750000,0.006,703.324,30.0,1391.375,00b19f0b,57,9,21982657.727,0.113,-117551142.113281,0.012,-2670.371,46.0,1742.906,08119f24,57,9,21982662.562,0.253,-91428679.097656,0.004,-2076.965,35.0,1742.906,10b19f2b,59,4,21494317.664,0.050,-114738159.648438,0.008,1685.352,50.0,1742.906,18119f44,59,4,21494325.227,0.169,-89240829.582031,0.002,1310.828,39.0,1742.906,10b19f4b*df8dab11
#BESTXYZA,COM1,0,56.0,FINESTEERING,1761,317094.000,00000000,d821,9570;SOL_COMPUTED,SINGLE,423321.4428,-5361646.5713,3417281.5002,1.3599,2.2253,1.6351,SOL_COMPUTED,DOPPLER_VELOCITY,-0.0014,0.0254,0.0002,0.1625,0.2660,0.1954,"",0.150,0.000,0.000,18,18,0,0,0,06,0,33*d6d1069d
#RANGEA,COM1,0,56.0,FINESTEERING,1761,317095.000,00000000,5103,9570;36,4,0,21487482.914,0.050,-111541012.753906,0.006,2811.859,50.0,1794.062,18109c04,4,0,21487486.148,0.050,-85082614.222656,0.008,2191.059,43.0,1752.625,11309c0b,32,0,24531397.656,0.050,-128913369.058594,0.010,-757.070,46.0,1730.000,08109c24,32,0,24531400.977,0.113,-100451981.031250,0.012,-589.930,38.0,1725.188,01309c2b,20,0,22761115.773,0.050,-118233982.500000,0.012,707.641,47.0,1756.406,08109c44,20,0,22761117.109,0.050,-93202985.582031,0.012,551.410,42.0,1739.594,01309c4b,24,0,24446588.656,0.075,-128467696.656250,0.012,2402.988,43.0,1512.156,08109c84,24,0,24446595.164,0.075,-100104714.074219,0.016,1872.457,39.0,1507.688,01309c8b,28,0,20710216.133,0.050,-107456411.769531,0.006,-340.770,51.0,1771.875,08109ca4,28,0,20710215.766,0.050,-81899792.039062,0.006,-265.539,48.0,1752.625,01309cab,2,0,24702214.367,0.050,-129811022.652344,0.010,3234.023,47.0,821.812,08109ce4,2,0,24702224.336,0.075,-101151487.023438,0.012,2520.023,39.0,814.656,01309ceb,17,0,21027433.125,0.050,-109123413.003906,0.006,102.578,51.0,1783.125,08109d44,17,0,21027433.656,0.050,-83198760.277344,0.006,79.930,48.0,1751.594,01309d4b,8,0,22762369.062,0.050,-118240504.789062,0.008,-3708.332,48.0,1789.656,08109d64,8,0,22762375.344,0.075,-90302977.929688,0.008,-2889.621,40.0,1752.625,01309d6b,1,0,23455883.000,0.050,-121884973.503906,0.010,-3275.629,48.0,1792.875,18109d84,1,0,23455886.062,0.075,-93142849.992188,0.010,-2552.441,41.0,1751.594,11309d8b,9,0,23393382.461,0.050,-121556497.468750,0.008,-3823.254,48.0,1789.781,08109da4,9,0,23393389.648,0.075,-92886884.953125,0.008,-2979.172,40.0,1751.094,01309dab,43,3,23340337.906,0.075,-124548551.187500,0.008,3173.324,47.0,1343.125,18119e04,43,3,23340348.492,0.253,-96871157.867188,0.004,2468.148,34.0,1335.812,10b19e0b,48,7,19544870.102,0.050,-104441853.910156,0.006,-217.195,50.0,1743.906,18119e24,48,7,19544874.805,0.253,-81232571.320312,0.002,-168.934,36.0,1743.906,10b19e2b,47,0,21241878.211,0.075,-113231130.210938,0.006,-3929.004,49.0,1743.875,08119e64,47,0,21241889.336,0.380,-88068683.867188,0.004,-3055.902,32.0,1743.906,10b19e6b,58,11,20086436.484,0.050,-107486576.714844,0.006,-763.504,50.0,1743.906,18119ea4,58,11,20086438.602,0.380,-83600689.011719,0.004,-593.836,33.0,1743.906,00b19eab,49,6,22322220.000,0.075,-119241301.480469,0.008,3638.090,49.0,1743.906,18119ec4,49,6,22322226.469,0.380,-92743264.929688,0.002,2829.621,33.0,1723.344,00b19ecb,42,8,23153988.820,0.113,-123771349.691406,0.010,903.168,46.0,1743.906,18119f04,42,8,23153996.289,0.380,-96266643.816406,0.008,702.465,31.0,1392.375,00b19f0b,57,9,21983157.141,0.113,-117553812.628906,0.012,-2670.652,46.0,1743.906,08119f24,57,9,21983162.016,0.253,-91430756.164062,0.004,-2077.180,35.0,1743.906,10b19f2b,59,4,21494001.992,0.050,-114736474.601562,0.008,1684.715,50.0,1743.906,18119f44,59,4,21494009.555,0.169,-89239518.992188,0.002,1310.336,39.0,1743.906,10b19f4b*5ee61cbc
#BESTXYZA,COM1,0,56.0,FINESTEERING,1761,317095.000,00000000,d821,9570;SOL_COMPUTED,SINGLE,423321.4459,-5361646.5836,3417281.5071,1.3600,2.2253,1.6352,SOL_COMPUTED,DOPPLER_VELOCITY,0.0153,0.0270,-0.0112,0.1626,0.2660,0.1954,"",0.150,0.000,0.000,18,18,0,0,0,06,0,33*b82c84d0
#RANGEA,COM1,0,52.0,FINESTEERING,1761,317096.000,00000000,5103,9570;36,4,0,21486947.867,0.050,-111538201.082031,0.006,2811.562,50.0,1795.062,18109c04,4,0,21486951.117,0.050,-85080423.312500,0.008,2190.832,43.0,1753.625,11309c0b,32,0,24531541.828,0.050,-128914126.656250,0.012,-757.707,46.0,1731.000,08109c24,32,0,24531545.141,0.113,-100452571.363281,0.014,-590.426,38.0,1726.188,01309c2b,20,0,22760981.188,0.050,-118233275.191406,0.012,707.227,47.0,1757.406,08109c44,20,0,22760982.516,0.075,-93202434.433594,0.012,551.086,42.0,1740.594,01309c4b,24,0,24446131.391,0.075,-128465293.792969,0.014,2402.828,42.0,1513.156,08109c84,24,0,24446137.906,0.075,-100102841.710938,0.016,1872.332,39.0,1508.688,01309c8b,28,0,20710280.992,0.050,-107456752.636719,0.006,-340.965,51.0,1772.875,08109ca4,28,0,20710280.633,0.050,-81900057.648438,0.006,-265.691,48.0,1753.625,01309cab,2,0,24701598.969,0.050,-129807788.546875,0.010,3233.926,47.0,822.812,08109ce4,2,0,24701608.875,0.075,-101148966.949219,0.012,2519.945,38.0,815.656,01309ceb,17,0,21027413.625,0.050,-109123310.460938,0.006,102.441,51.0,1784.125,08109d44,17,0,21027414.141,0.050,-83198680.375000,0.006,79.824,48.0,1752.594,01309d4b,8,0,22763074.758,0.050,-118244213.238281,0.008,-3708.363,47.0,1790.656,08109d64,8,0,22763081.055,0.075,-90305867.625000,0.008,-2889.645,42.0,1753.625,01309d6b,1,0,23456506.367,0.050,-121888249.277344,0.008,-3275.770,48.0,1793.875,18109d84,1,0,23456509.430,0.075,-93145402.535156,0.010,-2552.551,41.0,1752.594,11309d8b,9,0,23394110.000,0.050,-121560320.707031,0.008,-3823.199,48.0,1790.781,08109da4,9,0,23394117.203,0.075,-92889864.085938,0.010,-2979.129,41.0,1752.094,01309dab,43,3,23339743.250,0.075,-124545377.933594,0.010,3173.293,47.0,1344.125,18119e04,43,3,23339753.820,0.380,-96868689.792969,0.004,2468.125,34.0,1336.812,10b19e0b,48,7,19544910.836,0.050,-104442071.554688,0.006,-217.988,50.0,1744.906,18119e24,48,7,19544915.523,0.253,-81232740.597656,0.002,-169.551,35.0,1744.906,10b19e2b,47,0,21242615.305,0.075,-113235059.320312,0.008,-3929.184,49.0,1744.875,08119e64,47,0,21242626.445,0.380,-88071739.832031,0.004,-3056.043,33.0,1744.906,10b19e6b,58,11,20086579.203,0.050,-107487340.339844,0.006,-763.707,51.0,1744.906,18119ea4,58,11,20086581.312,0.380,-83601282.933594,0.004,-594.000,33.0,1744.906,00b19eab,49,6,22321538.984,0.075,-119237663.628906,0.008,3637.641,49.0,1744.906,18119ec4,49,6,22321545.445,0.380,-92740435.488281,0.002,2829.273,33.0,1724.344,00b19ecb,42,8,23153819.906,0.113,-123770446.722656,0.012,902.664,45.0,1744.906,18119f04,42,8,23153827.406,0.380,-96265941.515625,0.008,702.074,31.0,1393.375,00b19f0b,57,9,21983656.570,0.113,-117556483.253906,0.012,-2670.441,46.0,1744.906,08119f24,57,9,21983661.453,0.253,-91432833.316406,0.004,-2077.016,34.0,1744.906,10b19f2b,59,4,21493686.414,0.050,-114734789.988281,0.008,1684.586,50.0,1744.906,18119f44,59,4,21493693.961,0.169,-89238208.742188,0.002,1310.234,39.0,1744.906,10b19f4b*8d0725dc
#BESTXYZA,COM1,0,52.0,FINESTEERING,1761,317096.000,00000000,d821,9570;SOL_COMPUTED,SINGLE,423321.4451,-5361646.5919,3417281.5149,1.3601,2.2253,1.6352,SOL_COMPUTED,DOPPLER_VELOCITY,0.0150,0.0037,-0.0064,0.1626,0.2660,0.1954,"",0.150,0.000,0.000,18,18,0,0,0,06,0,33*7494203f
#RANGEA,COM1,0,52.0,FINESTEERING,1761,317097.000,00000000,5103,9570;36,4,0,21486412.883,0.050,-111535389.734375,0.006,2811.285,50.0,1796.062,18109c04,4,0,21486416.141,0.050,-85078232.664062,0.006,2190.617,43.0,1754.625,11309c0b,32,0,24531686.086,0.050,-128914884.742188,0.010,-758.406,47.0,1732.000,08109c24,32,0,24531689.414,0.113,-100453162.078125,0.012,-590.969,37.0,1727.188,01309c2b,20,0,22760846.680,0.050,-118232568.343750,0.012,706.727,48.0,1758.406,08109c44,20,0,22760848.031,0.075,-93201883.644531,0.012,550.695,42.0,1741.594,01309c4b,24,0,24445674.195,0.075,-128462891.308594,0.014,2402.180,42.0,1514.156,08109c84,24,0,24445680.680,0.075,-100100969.644531,0.016,1871.828,40.0,1509.688,01309c8b,28,0,20710345.914,0.050,-107457093.820312,0.006,-341.273,51.0,1773.875,08109ca4,28,0,20710345.562,0.050,-81900323.503906,0.006,-265.930,48.0,1754.625,01309cab,2,0,24700983.555,0.050,-129804554.441406,0.010,3234.254,47.0,823.812,08109ce4,2,0,24700993.445,0.075,-101146446.871094,0.012,2520.203,39.0,816.656,01309ceb,17,0,21027394.125,0.050,-109123207.972656,0.006,102.508,51.0,1785.125,08109d44,17,0,21027394.633,0.050,-83198600.519531,0.006,79.875,49.0,1753.594,01309d4b,8,0,22763780.484,0.050,-118247921.812500,0.008,-3708.590,48.0,1791.656,08109d64,8,0,22763786.797,0.075,-90308757.414062,0.008,-2889.820,41.0,1754.625,01309d6b,1,0,23457129.758,0.050,-121891525.132812,0.008,-3275.852,48.0,1794.875,18109d84,1,0,23457132.820,0.075,-93147955.152344,0.010,-2552.617,40.0,1753.594,11309d8b,9,0,23394837.539,0.050,-121564143.917969,0.008,-3823.160,48.0,1791.781,08109da4,9,0,23394844.742,0.075,-92892843.199219,0.008,-2979.098,41.0,1753.094,01309dab,43,3,23339148.609,0.075,-124542204.757812,0.010,3173.145,47.0,1345.125,18119e04,43,3,23339159.172,0.253,-96866221.773438,0.004,2468.008,34.0,1337.812,10b19e0b,48,7,19544951.727,0.050,-104442290.019531,0.008,-218.805,50.0,1745.906,18119e24,48,7,19544956.398,0.253,-81232910.515625,0.002,-170.184,36.0,1745.906,10b19e2b,47,0,21243352.453,0.075,-113238988.765625,0.008,-3929.570,49.0,1745.875,08119e64,47,0,21243363.609,0.380,-88074796.058594,0.004,-3056.344,32.0,1745.906,10b19e6b,58,11,20086721.945,0.050,-107488104.125000,0.006,-763.773,50.0,1745.906,18119ea4,58,11,20086724.055,0.380,-83601876.988281,0.004,-594.051,33.0,1745.906,00b19eab,49,6,22320858.047,0.075,-119234026.156250,0.008,3637.367,49.0,1745.906,18119ec4,49,6,22320864.477,0.380,-92737606.347656,0.002,2829.062,33.0,1725.344,00b19ecb,42,8,23153651.086,0.113,-123769544.347656,0.012,902.332,45.0,1745.906,18119f04,42,8,23153658.617,0.380,-96265239.675781,0.008,701.816,30.0,1394.375,00b19f0b,57,9,21984155.961,0.113,-117559153.757812,0.012,-2670.410,46.0,1745.906,08119f24,57,9,21984160.891,0.253,-91434910.371094,0.004,-2076.988,35.0,1745.906,10b19f2b,59,4,21493370.859,0.050,-114733105.589844,0.006,1684.359,50.0,1745.906,18119f44,59,4,21493378.391,0.169,-89236898.660156,0.002,1310.059,38.0,1745.906,10b19f4b*c4a7c7d7
#BESTXYZA,COM1,0,52.0,FINESTEERING,1761,317097.000,00000000,d821,9570;SOL_COMPUTED,SINGLE,423321.4438,-5361646.5964,3417281.5193,1.3602,2.2253,1.6352,SOL_COMPUTED,DOPPLER_VELOCITY,-0.0009,-0.0206,-0.0070,0.1626,0.2660,0.1954,"",0.150,0.000,0.000,18,18,0,0,0,06,0,33*e3aa8c94
#RANGEA,COM1,0,55.5,FINESTEERING,1761,317098.000,00000000,5103,9570;36,4,0,21485877.984,0.050,-111532578.808594,0.006,2810.684,50.0,1797.062,18109c04,4,0,21485881.242,0.050,-85076042.335938,0.006,2190.148,43.0,1755.625,11309c0b,32,0,24531830.445,0.050,-128915643.339844,0.010,-758.938,47.0,1733.000,08109c24,32,0,24531833.766,0.113,-100453753.191406,0.012,-591.383,37.0,1728.188,01309c2b,20,0,22760712.281,0.050,-118231862.015625,0.012,705.961,47.0,1759.406,08109c44,20,0,22760713.617,0.075,-93201333.257812,0.012,550.098,42.0,1742.594,01309c4b,24,0,24445217.055,0.075,-128460489.203125,0.014,2402.152,41.0,1515.156,08109c84,24,0,24445223.547,0.075,-100099097.882812,0.016,1871.809,40.0,1510.688,01309c8b,28,0,20710410.922,0.050,-107457435.410156,0.006,-341.852,51.0,1774.875,08109ca4,28,0,20710410.570,0.050,-81900589.675781,0.006,-266.383,48.0,1755.625,01309cab,2,0,24700368.172,0.050,-129801320.492188,0.010,3233.855,47.0,824.812,08109ce4,2,0,24700378.023,0.075,-101143926.917969,0.012,2519.891,40.0,817.656,01309ceb,17,0,21027374.656,0.050,-109123105.648438,0.006,102.211,51.0,1786.125,08109d44,17,0,21027375.164,0.050,-83198520.789062,0.006,79.645,48.0,1754.594,01309d4b,8,0,22764486.242,0.050,-118251630.585938,0.008,-3708.895,48.0,1792.656,08109d64,8,0,22764492.578,0.075,-90311647.355469,0.008,-2890.059,41.0,1755.625,01309d6b,1,0,23457753.164,0.050,-121894801.128906,0.008,-3276.129,48.0,1795.875,18109d84,1,0,23457756.234,0.075,-93150507.871094,0.010,-2552.832,40.0,1754.594,11309d8b,9,0,23395565.086,0.050,-121567967.191406,0.008,-3823.434,48.0,1792.781,08109da4,9,0,23395572.305,0.075,-92895822.363281,0.008,-2979.312,41.0,1754.094,01309dab,43,3,23338553.977,0.075,-124539031.738281,0.010,3172.695,47.0,1346.125,18119e04,43,3,23338564.547,0.380,-96863753.875000,0.004,2467.656,34.0,1338.812,10b19e0b,48,7,19544992.781,0.050,-104442509.378906,0.006,-219.844,50.0,1746.906,18119e24,48,7,19544997.438,0.253,-81233081.125000,0.002,-170.992,36.0,1746.906,10b19e2b,47,0,21244089.695,0.075,-113242918.632812,0.006,-3930.059,50.0,1746.875,08119e64,47,0,21244100.852,0.380,-88077852.613281,0.004,-3056.723,32.0,1746.906,10b19e6b,58,11,20086864.750,0.050,-107488868.164062,0.006,-764.160,50.0,1746.906,18119ea4,58,11,20086866.852,0.380,-83602471.234375,0.004,-594.352,33.0,1746.906,00b19eab,49,6,22320177.180,0.075,-119230389.093750,0.008,3636.805,49.0,1746.906,18119ec4,49,6,22320183.625,0.380,-92734777.523438,0.002,2828.625,33.0,1726.344,00b19ecb,42,8,23153482.391,0.113,-123768642.652344,0.014,901.258,44.0,1746.906,18119f04,42,8,23153489.953,0.570,-96264538.367188,0.008,700.980,30.0,1395.375,00b19f0b,57,9,21984655.359,0.113,-117561824.222656,0.012,-2670.469,46.0,1746.906,08119f24,57,9,21984660.320,0.253,-91436987.394531,0.004,-2077.035,35.0,1746.906,10b19f2b,59,4,21493055.375,0.050,-114731421.488281,0.006,1683.867,50.0,1746.906,18119f44,59,4,21493062.891,0.169,-89235588.804688,0.002,1309.676,39.0,1746.906,10b19f4b*9e6590d5
#BESTXYZA,COM1,0,55.5,FINESTEERING,1761,317098.000,00000000,d821,9570;SOL_COMPUTED,SINGLE,423321.4402,-5361646.5931,3417281.5221,1.3602,2.2254,1.6353,SOL_COMPUTED,DOPPLER_VELOCITY,-0.0239,0.0218,0.0031,0.1626,0.2660,0.1955,"",0.150,0.000,0.000,18,18,0,0,0,06,0,33*321f5b80
#RANGEA,COM1,0,58.0,FINESTEERING,1761,317099.000,00000000,5103,9570;36,4,0,21485343.156,0.050,-111529768.261719,0.006,2810.398,50.0,1798.062,18109c04,4,0,21485346.422,0.050,-85073852.304688,0.006,2189.926,43.0,1756.625,11309c0b,32,0,24531974.914,0.050,-128916402.492188,0.010,-759.434,46.0,1734.000,08109c24,32,0,24531978.234,0.113,-100454344.738281,0.012,-591.770,38.0,1729.188,01309c2b,20,0,22760577.977,0.050,-118231156.195312,0.012,705.520,47.0,1760.406,08109c44,20,0,22760579.305,0.075,-93200783.269531,0.012,549.754,41.0,1743.594,01309c4b,24,0,24444760.031,0.075,-128458087.515625,0.016,2401.559,41.0,1516.156,08109c84,24,0,24444766.516,0.075,-100097226.437500,0.018,1871.344,39.0,1511.688,01309c8b,28,0,20710475.992,0.050,-107457777.371094,0.006,-342.051,51.0,1775.875,08109ca4,28,0,20710475.656,0.050,-81900856.136719,0.006,-266.535,48.0,1756.625,01309cab,2,0,24699752.805,0.050,-129798086.589844,0.012,3233.992,47.0,825.812,08109ce4,2,0,24699762.617,0.075,-101141406.992188,0.012,2519.992,39.0,818.656,01309ceb,17,0,21027355.219,0.050,-109123003.449219,0.006,102.180,51.0,1787.125,08109d44,17,0,21027355.719,0.050,-83198441.152344,0.006,79.621,48.0,1755.594,01309d4b,8,0,22765192.031,0.050,-118255339.539062,0.008,-3709.059,48.0,1793.656,08109d64,8,0,22765198.383,0.075,-90314537.445312,0.008,-2890.188,41.0,1756.625,01309d6b,1,0,23458376.609,0.050,-121898077.304688,0.010,-3276.082,48.0,1796.875,18109d84,1,0,23458379.680,0.075,-93153060.734375,0.010,-2552.797,41.0,1755.594,11309d8b,9,0,23396292.648,0.050,-121571790.503906,0.008,-3823.258,48.0,1793.781,08109da4,9,0,23396299.859,0.075,-92898801.558594,0.010,-2979.172,41.0,1755.094,01309dab,43,3,23337959.367,0.075,-124535858.847656,0.010,3172.824,47.0,1347.125,18119e04,43,3,23337969.961,0.253,-96861286.078125,0.004,2467.758,34.0,1339.812,10b19e0b,48,7,19545034.000,0.050,-104442729.621094,0.008,-220.574,50.0,1747.906,18119e24,48,7,19545038.656,0.253,-81233252.425781,0.002,-171.562,36.0,1747.906,10b19e2b,47,0,21244827.008,0.050,-113246848.906250,0.006,-3930.340,50.0,1747.875,08119e64,47,0,21244838.180,0.380,-88080909.488281,0.004,-3056.941,33.0,1747.906,10b19e6b,58,11,20087007.578,0.050,-107489632.437500,0.006,-764.379,50.0,1747.906,18119ea4,58,11,20087009.711,0.380,-83603065.664062,0.004,-594.520,33.0,1747.906,00b19eab,49,6,22319496.383,0.075,-119226752.445312,0.008,3636.480,49.0,1747.906,18119ec4,49,6,22319502.812,0.380,-92731949.019531,0.002,2828.375,33.0,1727.344,00b19ecb,42,8,23153313.859,0.113,-123767741.632812,0.012,900.707,44.0,1747.906,18119f04,42,8,23153321.438,0.380,-96263837.570312,0.008,700.551,31.0,1396.375,00b19f0b,57,9,21985154.742,0.075,-117564494.640625,0.010,-2670.395,46.0,1747.906,08119f24,57,9,21985159.734,0.253,-91439064.386719,0.004,-2076.977,34.0,1747.906,10b19f2b,59,4,21492739.945,0.050,-114729737.671875,0.006,1683.785,50.0,1747.906,18119f44,59,4,21492747.453,0.169,-89234279.167969,0.002,1309.609,39.0,1747.906,10b19f4b*2cec86aa
#BESTXYZA,COM1,0,58.0,FINESTEERING,1761,317099.000,00000000,d821,9570;SOL_COMPUTED,SINGLE,423321.4440,-5361646.6066,3417281.5292,1.3603,2.2254,1.6353,SOL_COMPUTED,DOPPLER_VELOCITY,-0.0142,0.0039,-0.0002,0.1626,0.2660,0.1955,"",0.150,0.000,0.000,18,18,0,0,0,06,0,33*10c5c16c
#RANGEA,COM1,0,57.5,FINESTEERING,1761,317100.000,00000000,5103,9570;36,4,0,21484808.414,0.050,-111526958.214844,0.006,2809.691,50.0,1799.062,18109c04,4,0,21484811.695,0.050,-85071662.656250,0.006,2189.375,43.0,1757.625,11309c0b,32,0,24532119.500,0.050,-128917162.253906,0.010,-760.121,46.0,1735.000,08109c24,32,0,24532122.828,0.113,-100454936.757812,0.012,-592.305,37.0,1730.188,01309c2b,20,0,22760443.797,0.050,-118230451.007812,0.012,704.805,47.0,1761.406,08109c44,20,0,22760445.102,0.075,-93200233.773438,0.012,549.199,41.0,1744.594,01309c4b,24,0,24444303.086,0.075,-128455686.312500,0.016,2401.039,41.0,1517.156,08109c84,24,0,24444309.531,0.075,-100095355.367188,0.018,1870.941,39.0,1512.688,01309c8b,28,0,20710541.164,0.050,-107458119.832031,0.006,-342.812,51.0,1776.875,08109ca4,28,0,20710540.820,0.050,-81901122.988281,0.006,-267.129,48.0,1757.625,01309cab,2,0,24699137.484,0.050,-129794852.910156,0.010,3233.445,47.0,826.812,08109ce4,2,0,24699147.258,0.075,-101138887.246094,0.012,2519.566,39.0,819.656,01309ceb,17,0,21027335.812,0.050,-109122901.488281,0.006,101.750,51.0,1788.125,08109d44,17,0,21027336.312,0.050,-83198361.703125,0.006,79.285,48.0,1756.594,01309d4b,8,0,22765897.875,0.050,-118259048.769531,0.008,-3709.523,48.0,1794.656,08109d64,8,0,22765904.227,0.075,-90317427.746094,0.008,-2890.551,41.0,1757.625,01309d6b,1,0,23459000.102,0.050,-121901353.722656,0.010,-3276.590,48.0,1797.875,18109d84,1,0,23459003.172,0.075,-93155613.789062,0.012,-2553.191,41.0,1756.594,11309d8b,9,0,23397020.234,0.050,-121575613.980469,0.008,-3823.746,48.0,1794.781,08109da4,9,0,23397027.477,0.075,-92901780.882812,0.008,-2979.555,41.0,1756.094,01309dab,43,3,23337364.805,0.075,-124532686.199219,0.010,3172.391,47.0,1348.125,18119e04,43,3,23337375.383,0.380,-96858818.468750,0.004,2467.418,33.0,1340.812,10b19e0b,48,7,19545075.406,0.050,-104442950.843750,0.006,-221.801,50.0,1748.906,18119e24,48,7,19545080.039,0.253,-81233424.488281,0.002,-172.516,36.0,1748.906,10b19e2b,47,0,21245564.414,0.050,-113250779.691406,0.006,-3931.141,50.0,1748.875,08119e64,47,0,21245575.586,0.380,-88083966.757812,0.004,-3057.562,32.0,1748.906,10b19e6b,58,11,20087150.484,0.050,-107490397.046875,0.006,-764.879,50.0,1748.906,18119ea4,58,11,20087152.602,0.380,-83603660.359375,0.004,-594.910,33.0,1748.906,00b19eab,49,6,22318815.695,0.075,-119223116.332031,0.008,3635.613,49.0,1748.906,18119ec4,49,6,22318822.109,0.380,-92729120.933594,0.002,2827.699,34.0,1728.344,00b19ecb,42,8,23153145.461,0.113,-123766841.367188,0.014,899.500,44.0,1748.906,18119f04,42,8,23153153.070,0.380,-96263137.359375,0.008,699.609,31.0,1397.375,00b19f0b,57,9,21985654.141,0.075,-117567165.136719,0.010,-2670.688,46.0,1748.906,08119f24,57,9,21985659.164,0.253,-91441141.441406,0.004,-2077.207,34.0,1748.906,10b19f2b,59,4,21492424.586,0.050,-114728054.246094,0.006,1683.145,50.0,1748.906,18119f44,59,4,21492432.078,0.169,-89232969.843750,0.002,1309.113,39.0,1748.906,10b19f4b*5a86d375
#BESTXYZA,COM1,0,57.5,FINESTEERING,1761,317100.000,00000000,d821,9570;SOL_COMPUTED,SINGLE,423321.4438,-5361646.6177,3417281.5380,1.3604,2.2254,1.6353,SOL_COMPUTED,DOPPLER_VELOCITY,-0.0103,0.0200,0.0055,0.1626,0.2660,0.1955,"",0.150,0.000,0.000,18,18,0,0,0,06,0,33*7dd9056c
#RANGEA,COM1,0,54.0,FINESTEERING,1761,317101.000,00000000,5103,9570;36,4,0,21484273.773,0.050,-111524148.636719,0.006,2809.438,50.0,1800.062,18109c04,4,0,21484277.055,0.050,-85069473.375000,0.006,2189.172,43.0,1758.625,11309c0b,32,0,24532264.188,0.050,-128917922.636719,0.012,-760.691,46.0,1736.000,08109c24,32,0,24532267.547,0.113,-100455529.261719,0.012,-592.750,38.0,1731.188,01309c2b,20,0,22760309.719,0.050,-118229746.414062,0.010,704.180,47.0,1762.406,08109c44,20,0,22760311.016,0.075,-93199684.742188,0.010,548.711,41.0,1745.594,01309c4b,24,0,24443846.219,0.075,-128453285.605469,0.016,2400.629,41.0,1518.156,08109c84,24,0,24443852.656,0.113,-100093484.691406,0.020,1870.621,38.0,1513.688,01309c8b,28,0,20710606.414,0.050,-107458462.757812,0.006,-343.113,51.0,1777.875,08109ca4,28,0,20710606.078,0.050,-81901390.203125,0.006,-267.363,48.0,1758.625,01309cab,2,0,24698522.195,0.050,-129791619.390625,0.010,3233.543,47.0,827.812,08109ce4,2,0,24698531.930,0.075,-101136367.625000,0.012,2519.648,39.0,820.656,01309ceb,17,0,21027316.461,0.050,-109122799.746094,0.006,101.676,51.0,1789.125,08109d44,17,0,21027316.953,0.050,-83198282.425781,0.006,79.227,48.0,1757.594,01309d4b,8,0,22766603.773,0.050,-118262758.257812,0.008,-3709.508,48.0,1795.656,08109d64,8,0,22766610.141,0.075,-90320318.246094,0.008,-2890.539,41.0,1758.625,01309d6b,1,0,23459623.633,0.050,-121904630.355469,0.010,-3276.656,48.0,1798.875,18109d84,1,0,23459626.711,0.075,-93158167.007812,0.010,-2553.242,41.0,1757.594,11309d8b,9,0,23397747.836,0.050,-121579437.550781,0.010,-3823.586,48.0,1795.781,08109da4,9,0,23397755.102,0.075,-92904760.281250,0.010,-2979.430,41.0,1757.094,01309dab,43,3,23336770.297,0.075,-124529513.757812,0.010,3172.559,47.0,1349.125,18119e04,43,3,23336780.859,0.380,-96856351.015625,0.004,2467.551,34.0,1341.812,10b19e0b,48,7,19545116.992,0.050,-104443173.011719,0.006,-222.559,50.0,1749.906,18119e24,48,7,19545121.594,0.253,-81233597.285156,0.002,-173.105,35.0,1749.906,10b19e2b,47,0,21246301.914,0.050,-113254710.957031,0.006,-3931.363,50.0,1749.875,08119e64,47,0,21246313.086,0.380,-88087024.410156,0.004,-3057.734,32.0,1749.906,10b19e6b,58,11,20087293.438,0.050,-107491161.949219,0.006,-765.125,50.0,1749.906,18119ea4,58,11,20087295.562,0.380,-83604255.281250,0.004,-595.102,34.0,1749.906,00b19eab,49,6,22318135.117,0.075,-119219480.765625,0.008,3635.359,49.0,1749.906,18119ec4,49,6,22318141.523,0.380,-92726293.269531,0.002,2827.500,34.0,1729.344,00b19ecb,42,8,23152977.203,0.113,-123765941.835938,0.014,899.457,44.0,1749.906,18119f04,42,8,23152984.828,0.380,-96262437.714844,0.008,699.574,30.0,1398.375,00b19f0b,57,9,21986153.555,0.075,-117569835.660156,0.010,-2670.531,46.0,1749.906,08119f24,57,9,21986158.578,0.380,-91443218.515625,0.004,-2077.082,34.0,1749.906,10b19f2b,59,4,21492109.289,0.050,-114726371.187500,0.008,1682.820,50.0,1749.906,18119f44,59,4,21492116.773,0.169,-89231660.796875,0.002,1308.859,38.0,1749.906,10b19f4b*63e942bc
#BESTXYZA,COM1,0,54.0,FINESTEERING,1761,317101.000,00000000,d821,9570;SOL_COMPUTED,SINGLE,423321.4473,-5361646.6201,3417281.5451,1.3604,2.2254,1.6354,SOL_COMPUTED,DOPPLER_VELOCITY,-0.0175,0.0128,-0.0120,0.1626,0.2660,0.1955,"",0.150,0.000,0.000,18,18,0,0,0,06,0,33*05483ffb
#RANGEA,COM1,0,54.0,FINESTEERING,1761,317102.000,00000000,5103,9570;36,4,0,21483739.211,0.050,-111521339.476562,0.006,2808.871,50.0,1801.062,18109c04,4,0,21483742.492,0.050,-85067284.425781,0.006,2188.730,43.0,1759.625,11309c0b,32,0,24532408.984,0.050,-128918683.550781,0.010,-761.574,46.0,1737.000,08109c24,32,0,24532412.328,0.113,-100456122.179688,0.012,-593.438,37.0,1732.188,01309c2b,20,0,22760175.742,0.050,-118229042.347656,0.010,703.758,47.0,1763.406,08109c44,20,0,22760177.031,0.075,-93199136.117188,0.010,548.383,41.0,1746.594,01309c4b,24,0,24443389.430,0.075,-128450885.308594,0.016,2399.793,41.0,1519.156,08109c84,24,0,24443395.859,0.075,-100091614.339844,0.018,1869.969,39.0,1514.688,01309c8b,28,0,20710671.750,0.050,-107458806.074219,0.006,-343.641,51.0,1778.875,08109ca4,28,0,20710671.422,0.050,-81901657.722656,0.006,-267.777,48.0,1759.625,01309cab,2,0,24697906.914,0.050,-129788385.972656,0.010,3233.270,47.0,828.812,08109ce4,2,0,24697916.633,0.075,-101133848.082031,0.010,2519.430,39.0,821.656,01309ceb,17,0,21027297.133,0.050,-109122698.144531,0.006,101.445,51.0,1790.125,08109d44,17,0,21027297.617,0.050,-83198203.257812,0.006,79.047,48.0,1758.594,01309d4b,8,0,22767309.711,0.050,-118266467.968750,0.008,-3709.891,48.0,1796.656,08109d64,8,0,22767316.086,0.075,-90323208.917969,0.008,-2890.836,41.0,1759.625,01309d6b,1,0,23460247.195,0.050,-121907907.175781,0.010,-3276.867,48.0,1799.875,18109d84,1,0,23460250.266,0.075,-93160720.367188,0.010,-2553.406,41.0,1758.594,11309d8b,9,0,23398475.461,0.050,-121583261.210938,0.008,-3823.832,48.0,1796.781,08109da4,9,0,23398482.750,0.075,-92907739.746094,0.010,-2979.621,40.0,1758.094,01309dab,43,3,23336175.812,0.075,-124526341.500000,0.010,3172.117,47.0,1350.125,18119e04,43,3,23336186.391,0.380,-96853883.710938,0.004,2467.207,33.0,1342.812,10b19e0b,48,7,19545158.742,0.050,-104443396.093750,0.006,-223.590,50.0,1750.906,18119e24,48,7,19545163.336,0.253,-81233770.789062,0.002,-173.906,35.0,1750.906,10b19e2b,47,0,21247039.492,0.050,-113258642.671875,0.006,-3932.035,50.0,1750.875,08119e64,47,0,21247050.672,0.380,-88090082.406250,0.004,-3058.258,32.0,1750.906,10b19e6b,58,11,20087436.438,0.050,-107491927.089844,0.006,-765.398,50.0,1750.906,18119ea4,58,11,20087438.570,0.380,-83604850.386719,0.004,-595.312,34.0,1750.906,00b19eab,49,6,22317454.625,0.075,-119215845.671875,0.008,3634.777,49.0,1750.906,18119ec4,49,6,22317461.039,0.380,-92723465.976562,0.002,2827.035,34.0,1730.344,00b19ecb,42,8,23152809.094,0.113,-123765043.027344,0.014,898.594,45.0,1750.906,18119f04,42,8,23152816.703,0.380,-96261738.632812,0.008,698.902,31.0,1399.375,00b19f0b,57,9,21986652.961,0.075,-117572506.179688,0.010,-2670.637,46.0,1750.906,08119f24,57,9,21986658.000,0.253,-91445295.582031,0.004,-2077.164,34.0,1750.906,10b19f2b,59,4,21491794.055,0.050,-114724688.441406,0.006,1682.512,50.0,1750.906,18119f44,59,4,21491801.523,0.169,-89230351.996094,0.002,1308.621,39.0,1750.906,10b19f4b*6c648269
#BESTXYZA,COM1,0,54.0,FINESTEERING,1761,317102.000,00000000,d821,9570;SOL_COMPUTED,SINGLE,423321.4459,-5361646.6147,3417281.5522,1.3605,2.2254,1.6354,SOL_COMPUTED,DOPPLER_VELOCITY,0.0037,-0.0229,0.0031,0.1626,0.2660,0.1955,"",0.150,0.000,0.000,18,18,0,0,0,06,0,33*4907181d
