#GPSEPHEMA,COM1,13,80.0,SATTIME,1761,317550.000,00000000,9145,3245;1,317550.0,0,46,46,1761,1761,324000.0,2.656042496e+07,5.016994692e-09,2.202551220e+00,2.4175213184e-03,4.0835285082e-01,-4.284083843e-07,6.416812539e-06,2.55187500e+02,-8.93750000e+00,-7.264316082e-08,2.793967724e-08,9.6044927450e-01,-7.500312418e-12,2.438194543e+00,-8.18712674e-09,46,324000.0,8.381903172e-09,8.32425e-05,3.75167e-12,0.00000,TRUE,1.458583610e-04,4.00000000e+00*e96e9247
#GPSEPHEMA,COM1,12,80.0,SATTIME,1761,317550.000,00000000,9145,3245;2,317550.0,0,44,44,1761,1761,324000.0,2.656094866e+07,5.359151802e-09,3.044141497e+00,1.2637993321e-02,-2.553265965e+00,-5.289912224e-07,6.292015314e-06,2.44500000e+02,-8.59375000e+00,-1.117587090e-07,-1.825392246e-07,9.3894420465e-01,6.428839216e-12,2.413612370e+00,-8.20927052e-09,44,324000.0,-1.722946763e-08,4.55135e-04,1.81899e-12,0.00000,TRUE,1.458543895e-04,4.00000000e+00*fac2c753
#GPSEPHEMA,COM1,11,80.0,SATTIME,1761,317550.000,00000000,9145,3245;4,317550.0,0,77,77,1761,1761,324000.0,2.655966468e+07,5.572732127e-09,3.6891196644e-02,1.0628628195e-02,1.035272366e+00,-1.545995474e-07,6.178393960e-06,2.47656250e+02,-6.96875000e+00,-6.519258022e-08,1.080334187e-07,9.3798840858e-01,-3.107272288e-11,2.429904002e+00,-8.67286126e-09,77,324000.0,-6.053596735e-09,1.81235e-06,4.54747e-13,0.00000,TRUE,1.458651794e-04,4.00000000e+00*4405e638
#GPSEPHEMA,COM1,10,80.0,SATTIME,1761,316320.000,00000000,9145,3245;7,316320.0,0,48,48,1761,1761,316800.0,2.656026876e+07,4.429470219e-09,6.0180875433e-01,6.9770587143e-03,-2.864033742e+00,4.153698683e-07,2.460554242e-06,3.38687500e+02,7.62500000e+00,1.117587090e-08,1.378357410e-07,9.7482666515e-01,5.714523747e-12,-6.8425508538e-01,-8.40320717e-09,48,316800.0,-1.071020961e-08,2.67641e-04,4.20641e-12,0.00000,TRUE,1.458590600e-04,4.00000000e+00*cec9456b
#GPSEPHEMA,COM1,9,80.0,SATTIME,1761,317550.000,00000000,9145,3245;8,317550.0,0,58,58,1761,1761,324000.0,2.656044753e+07,3.889804883e-09,1.082089710e+00,1.3477348373e-02,-2.824466736e+00,-2.011656761e-07,2.894550562e-06,3.43437500e+02,-6.43750000e+00,-1.490116119e-07,2.086162567e-07,9.9782064621e-01,-1.803646558e-10,-5.9005804334e-01,-8.12355266e-09,58,324000.0,-3.725290298e-09,8.98121e-06,2.27374e-13,0.00000,TRUE,1.458570479e-04,4.00000000e+00*30bc0738
#GPSEPHEMA,COM1,8,80.0,SATTIME,1761,317550.000,00000000,9145,3245;9,317550.0,0,67,67,1761,1761,324000.0,2.656078914e+07,4.149101398e-09,2.829930744e+00,1.6849673237e-02,1.732590499e+00,7.078051567e-07,2.117827535e-06,3.48250000e+02,1.22187500e+01,1.825392246e-07,-1.303851604e-08,9.8340362803e-01,-3.821587756e-11,-7.0653224243e-01,-7.96747473e-09,67,324000.0,-5.587935448e-09,2.74319e-04,2.72848e-12,0.00000,TRUE,1.458544934e-04,7.84000000e+00*c2ba1556
#GPSEPHEMA,COM1,7,80.0,SATTIME,1761,316530.000,00000000,9145,3245;11,316530.0,0,57,57,1761,1761,316800.0,2.656043392e+07,6.797783155e-09,8.3619183043e-01,1.4668348944e-02,1.224238066e+00,2.998858690e-07,6.301328540e-06,2.23375000e+02,3.40625000e+00,-1.806765795e-07,5.587935448e-08,8.8926424399e-01,1.100045821e-10,2.131292655e+00,-9.36824737e-09,57,316800.0,-1.164153218e-08,-4.27132e-04,-3.41061e-12,0.00000,TRUE,1.458600679e-04,4.00000000e+00*ea69f454
#GPSEPHEMA,COM1,6,80.0,SATTIME,1761,317550.000,00000000,9145,3245;17,317550.0,0,12,12,1761,1761,324000.0,2.656053338e+07,4.425898642e-09,-1.781774207e+00,8.5887842579e-03,-2.190452221e+00,-1.117587090e-06,9.715557098e-06,1.92593750e+02,-2.32500000e+01,1.564621925e-07,1.676380634e-08,9.6621620875e-01,5.768097407e-10,1.428808649e+00,-7.79282460e-09,12,324000.0,-1.024454832e-08,-2.93832e-05,-3.63798e-12,0.00000,TRUE,1.458568768e-04,4.00000000e+00*3bc219ba
#GPSEPHEMA,COM1,5,80.0,SATTIME,1761,317550.000,00000000,9145,3245;20,317550.0,0,4,4,1761,1761,323984.0,2.656026853e+07,5.350937174e-09,2.1779969568e-01,5.6309584761e-03,1.284218550e+00,5.867332220e-07,9.777024388e-06,1.72687500e+02,1.12812500e+01,-7.450580597e-09,3.352761269e-08,9.2796567009e-01,-5.250218693e-10,-2.857435879e+00,-8.45356641e-09,4,323984.0,-7.916241884e-09,1.28162e-04,2.72848e-12,0.00000,TRUE,1.458599835e-04,4.00000000e+00*d55d859d
#GPSEPHEMA,COM1,4,80.0,SATTIME,1761,317550.000,00000000,9145,3245;24,317550.0,0,56,56,1761,1761,324000.0,2.656013458e+07,4.726982612e-09,2.667018702e+00,1.1337259784e-03,1.3296966398e-01,8.530914783e-07,2.423301339e-06,3.29000000e+02,1.54375000e+01,-1.117587090e-08,3.166496754e-08,9.5827283129e-01,4.214461264e-11,-7.1510211455e-01,-8.45892378e-09,56,324000.0,3.259629011e-09,-1.52267e-05,-6.82121e-13,0.00000,TRUE,1.458604628e-04,7.84000000e+00*e8bd4fa8
#GPSEPHEMA,COM1,3,80.0,SATTIME,1761,315390.000,00000000,9145,3245;26,315390.0,0,2,2,1761,1761,316784.0,2.656048128e+07,3.969808216e-09,2.187369768e+00,2.1079818718e-02,1.252201226e+00,4.768371582e-06,7.718801498e-06,2.34812500e+02,9.66875000e+01,2.011656761e-07,-3.799796104e-07,9.7723704358e-01,1.839362331e-10,-1.658595223e+00,-7.66781940e-09,2,316784.0,-5.587935448e-09,2.30192e-04,1.89857e-11,0.00000,TRUE,1.458568498e-04,4.00000000e+00*59652ee6
#GPSEPHEMA,COM1,2,80.0,SATTIME,1761,317550.000,00000000,9145,3245;28,317550.0,0,19,19,1761,1761,324000.0,2.656017170e+07,3.980165790e-09,-9.8825678854e-01,1.8845119048e-02,-1.762026741e+00,-4.811212420e-06,8.760020137e-06,2.26500000e+02,-9.86250000e+01,-1.695007086e-07,3.762543201e-07,9.8483024088e-01,-2.785830327e-11,3.9992204807e-01,-8.08747973e-09,19,324000.0,-1.071020961e-08,2.99238e-04,3.06954e-12,0.00000,TRUE,1.458594102e-04,4.00000000e+00*2968c972
#GPSEPHEMA,COM1,1,80.0,SATTIME,1761,317550.000,00000000,9145,3245;32,317550.0,0,98,98,1761,1761,324000.0,2.655940903e+07,4.663408535e-09,2.176481080e+00,1.1627037893e-02,-2.7599505232e-01,1.631677151e-06,1.070834696e-05,1.65406250e+02,3.04375000e+01,4.097819328e-08,2.607703209e-07,9.4901526479e-01,-5.614519582e-10,-2.715001890e+00,-7.94854537e-09,98,324000.0,-2.793967724e-09,-5.41972e-04,3.52429e-12,0.00000,TRUE,1.458663760e-04,4.00000000e+00*8bcff51b
#GPSEPHEMA,COM1,0,80.0,SATTIME,1761,317550.000,00000000,9145,3245;10,317550.0,0,22,22,1761,1761,324000.0,2.656024621e+07,5.014851746e-09,-7.2518313717e-01,1.2913242797e-02,8.2064569990e-01,5.885958672e-07,9.896233678e-06,1.78500000e+02,1.09687500e+01,6.891787052e-08,2.123415470e-07,9.4333399170e-01,-5.610948004e-10,-2.785202137e+00,-8.33713299e-09,22,324000.0,-2.328306437e-09,-9.74825e-05,-1.36424e-12,0.00000,TRUE,1.458598312e-04,4.00000000e+00*6ff97518
#BESTXYZA,COM1,0,75.5,FINESTEERING,1761,317606.000,00000000,d821,3245;SOL_COMPUTED,SINGLE,423323.0286,-5361646.2522,3417281.4143,1.4666,2.1980,1.4485,SOL_COMPUTED,DOPPLER_VELOCITY,-0.0100,0.0444,-0.0290,0.1753,0.2627,0.1731,"",0.150,0.000,0.000,11,11,0,0,0,06,0,03*b618ff7b
#BESTXYZA,COM1,0,75.5,FINESTEERING,1761,317607.000,00000000,d821,3245;SOL_COMPUTED,SINGLE,423323.0275,-5361646.2405,3417281.4087,1.4667,2.1979,1.4485,SOL_COMPUTED,DOPPLER_VELOCITY,0.0046,-0.0113,-0.0019,0.1753,0.2627,0.1731,"",0.150,0.000,0.000,11,11,0,0,0,06,0,03*b00767f0
#BESTXYZA,COM1,0,74.5,FINESTEERING,1761,317608.000,00000000,d821,3245;SOL_COMPUTED,SINGLE,423323.0226,-5361646.2333,3417281.4074,1.4667,2.1979,1.4485,SOL_COMPUTED,DOPPLER_VELOCITY,0.0038,0.0269,-0.0179,0.1753,0.2627,0.1731,"",0.150,0.000,0.000,11,11,0,0,0,06,0,03*6f6e788f
#BESTXYZA,COM1,0,74.5,FINESTEERING,1761,317609.000,00000000,d821,3245;SOL_COMPUTED,SINGLE,423323.0167,-5361646.2270,3417281.4045,1.4668,2.1979,1.4485,SOL_COMPUTED,DOPPLER_VELOCITY,0.0093,0.0282,-0.0070,0.1753,0.2627,0.1731,"",0.150,0.000,0.000,11,11,0,0,0,06,0,03*3dc949f1
#BESTXYZA,COM1,0,77.5,FINESTEERING,1761,317610.000,00000000,d821,3245;SOL_COMPUTED,SINGLE,423323.0071,-5361646.2019,3417281.3945,1.4668,2.1976,1.4485,SOL_COMPUTED,DOPPLER_VELOCITY,0.0052,0.0239,-0.0152,0.1753,0.2627,0.1731,"",0.150,0.000,0.000,11,11,0,0,0,06,0,03*53db54f5
#BESTXYZA,COM1,0,76.0,FINESTEERING,1761,317611.000,00000000,d821,3245;SOL_COMPUTED,SINGLE,423323.0096,-5361646.1925,3417281.3899,1.4668,2.1975,1.4485,SOL_COMPUTED,DOPPLER_VELOCITY,-0.0232,-0.0239,0.0002,0.1753,0.2626,0.1731,"",0.150,0.000,0.000,11,11,0,0,0,06,0,03*afa45be3
#BESTXYZA,COM1,0,76.0,FINESTEERING,1761,317612.000,00000000,d821,3245;SOL_COMPUTED,SINGLE,423323.0064,-5361646.1910,3417281.3954,1.4668,2.1974,1.4485,SOL_COMPUTED,DOPPLER_VELOCITY,0.0049,-0.0149,0.0054,0.1753,0.2626,0.1731,"",0.150,0.000,0.000,11,11,0,0,0,06,0,03*5eeda637
#BESTXYZA,COM1,0,76.5,FINESTEERING,1761,317613.000,00000000,d821,3245;SOL_COMPUTED,SINGLE,423323.0064,-5361646.1887,3417281.3912,1.4669,2.1974,1.4485,SOL_COMPUTED,DOPPLER_VELOCITY,0.0008,0.0169,-0.0261,0.1753,0.2626,0.1731,"",0.150,0.000,0.000,11,11,0,0,0,06,0,03*6e158bf9
#RANGEA,COM1,0,75.0,FINESTEERING,1761,317614.000,00000000,5103,3245;22,28,0,20754817.359,0.031,-110957356.850232,0.005,-564.117,51.4,2631.650,18109c04,28,0,20754816.891,0.046,-86465544.368709,0.005,-439.574,47.8,2613.480,11309c0b,1,0,23783812.789,0.053,-126874832.077599,0.009,-3360.930,46.7,2631.620,18109c24,1,0,23783815.907,0.106,-98868786.468867,0.010,-2618.910,40.6,2612.440,11309c2b,4,0,21221054.340,0.030,-113407509.029349,0.004,2580.750,51.7,2631.640,18109c44,4,0,21221057.590,0.060,-88374772.805349,0.004,2010.973,45.5,2613.480,11309c4b,10,0,25218787.038,0.054,-132525611.388896,0.009,3364.949,46.6,132.034,18109c64,10,0,25218800.722,0.229,-103266726.290256,0.016,2622.043,34.2,126.480,11309c6b,20,0,22705668.841,0.040,-121209182.671395,0.009,412.996,49.2,2640.520,08109ca4,20,0,22705669.391,0.104,-94453993.961546,0.010,321.816,40.8,2623.980,01309cab,32,0,24620632.474,0.061,-131272370.843449,0.011,-1048.938,45.5,2629.970,08109cc4,32,0,24620635.684,0.197,-102295445.605642,0.013,-817.359,35.2,2611.940,01309ccb,9,0,23772545.691,0.053,-126815562.573860,0.013,-3849.723,46.6,2645.540,08109ce4,9,0,23772554.414,0.132,-98822576.271613,0.014,-2999.801,38.7,2629.980,01309ceb,24,0,24220888.688,0.050,-127281649.339086,0.009,2164.445,47.2,2040.830,08109d04,24,0,24220894.578,0.107,-99180521.880841,0.010,1686.582,40.5,2035.980,01309d0b,8,0,23133742.157,0.059,-123458628.327122,0.012,-3806.523,45.7,2630.040,18109d24,8,0,23133749.886,0.164,-96206798.764318,0.015,-2966.137,36.8,2611.940,11309d2b,2,0,24386251.570,0.049,-128150646.285048,0.010,3161.887,47.3,1342.330,18109d44,2,0,24386259.897,0.110,-99857689.241855,0.011,2463.816,40.3,1335.940,11309d4b,17,0,21021547.641,0.029,-112359045.080779,0.005,17.590,51.9,2642.660,18109da4,17,0,21021547.604,0.041,-87557777.912389,0.005,13.707,48.9,2625.500,11309dab*1984dc99
#BESTXYZA,COM1,0,75.0,FINESTEERING,1761,317614.000,00000000,d821,3245;SOL_COMPUTED,SINGLE,423322.9931,-5361646.2035,3417281.3920,1.4669,2.1973,1.4485,SOL_COMPUTED,DOPPLER_VELOCITY,-0.0149,0.0115,0.0028,0.1753,0.2626,0.1731,"",0.150,0.000,0.000,11,11,0,0,0,06,0,03*41e29ad3
#RANGEA,COM1,0,75.0,FINESTEERING,1761,317615.000,00000000,5103,3245;22,28,0,20754924.761,0.031,-110957921.231844,0.005,-564.570,51.4,2632.650,18109c04,28,0,20754924.292,0.045,-86465984.146588,0.005,-439.930,48.0,2614.480,11309c0b,1,0,23784452.335,0.053,-126878192.949442,0.010,-3361.004,46.7,2632.620,18109c24,1,0,23784455.457,0.104,-98871405.326361,0.010,-2618.969,40.8,2613.440,11309c2b,4,0,21220563.286,0.030,-113404928.543377,0.004,2580.328,51.7,2632.640,18109c44,4,0,21220566.532,0.061,-88372762.037060,0.004,2010.645,45.4,2614.480,11309c4b,10,0,25218146.691,0.054,-132522246.324859,0.009,3365.355,46.5,133.034,18109c64,10,0,25218160.408,0.231,-103264104.166118,0.016,2622.359,34.1,127.480,11309c6b,20,0,22705590.309,0.040,-121208769.961769,0.008,412.445,49.1,2641.520,08109ca4,20,0,22705590.874,0.099,-94453672.370856,0.009,321.387,41.2,2624.980,01309cab,32,0,24620832.162,0.062,-131273420.196051,0.011,-1049.473,45.2,2630.970,08109cc4,32,0,24620835.369,0.170,-102296263.286678,0.013,-817.770,36.5,2612.940,01309ccb,9,0,23773278.257,0.054,-126819412.287502,0.011,-3849.566,46.5,2646.540,08109ce4,9,0,23773287.013,0.128,-98825576.033745,0.013,-2999.680,39.0,2630.980,01309ceb,24,0,24220476.881,0.051,-127279485.305939,0.009,2163.793,47.0,2041.830,08109d04,24,0,24220482.783,0.112,-99178835.624929,0.010,1686.074,40.1,2036.980,01309d0b,8,0,23134466.508,0.058,-123462434.778155,0.012,-3806.461,45.8,2631.040,18109d24,8,0,23134474.231,0.146,-96209764.820237,0.014,-2966.090,37.8,2612.940,11309d2b,2,0,24385649.897,0.048,-128147484.544717,0.010,3161.684,47.4,1343.330,18109d44,2,0,24385658.230,0.120,-99855225.562822,0.011,2463.656,39.5,1336.940,11309d4b,17,0,21021544.318,0.029,-112359027.612522,0.005,17.441,51.9,2643.660,18109da4,17,0,21021544.273,0.041,-87557764.303216,0.006,13.590,48.8,2626.500,11309dab*0912f471
#BESTXYZA,COM1,0,75.0,FINESTEERING,1761,317615.000,00000000,d821,3245;SOL_COMPUTED,SINGLE,423322.9887,-5361646.2007,3417281.3901,1.4670,2.1973,1.4485,SOL_COMPUTED,DOPPLER_VELOCITY,0.0063,0.0052,-0.0208,0.1753,0.2626,0.1731,"",0.150,0.000,0.000,11,11,0,0,0,06,0,03*64e1ab25
#RANGEA,COM1,0,76.0,FINESTEERING,1761,317616.000,00000000,5103,3245;22,28,0,20755032.235,0.031,-110958486.002584,0.005,-564.840,51.4,2633.650,18109c04,28,0,20755031.764,0.047,-86466424.225230,0.005,-440.141,47.8,2615.480,11309c0b,1,0,23785091.904,0.052,-126881553.903208,0.009,-3361.000,46.7,2633.620,18109c24,1,0,23785095.028,0.118,-98874024.251373,0.010,-2618.965,39.7,2614.440,11309c2b,4,0,21220072.314,0.030,-113402348.470166,0.004,2579.891,51.6,2633.640,18109c44,4,0,21220075.558,0.061,-88370751.591629,0.004,2010.305,45.4,2615.480,11309c4b,10,0,25217506.303,0.054,-132518881.004030,0.010,3365.508,46.4,134.034,18109c64,10,0,25217520.017,0.269,-103261481.851703,0.016,2622.477,32.7,128.480,11309c6b,20,0,22705511.871,0.040,-121208357.779908,0.006,412.016,49.0,2642.520,08109ca4,20,0,22705512.437,0.097,-94453351.192641,0.007,321.051,41.3,2625.980,01309cab,32,0,24621031.952,0.062,-131274470.062241,0.011,-1049.949,45.2,2631.970,08109cc4,32,0,24621035.125,0.170,-102297081.364228,0.012,-818.141,36.5,2613.940,01309ccb,9,0,23774010.827,0.056,-126823261.972786,0.012,-3849.621,46.2,2647.540,08109ce4,9,0,23774019.603,0.125,-98828575.770098,0.012,-2999.719,39.2,2631.980,01309ceb,24,0,24220065.151,0.050,-127277321.676100,0.011,2163.539,47.1,2042.830,08109d04,24,0,24220071.083,0.111,-99177149.684510,0.011,1685.875,40.2,2037.980,01309d0b,8,0,23135190.880,0.057,-123466241.341043,0.010,-3806.395,45.9,2632.040,18109d24,8,0,23135198.616,0.142,-96212730.965771,0.013,-2966.035,38.1,2613.940,11309d2b,2,0,24385048.244,0.050,-128144322.898912,0.011,3161.586,47.2,1344.330,18109d44,2,0,24385056.602,0.111,-99852761.957445,0.011,2463.586,40.2,1337.940,11309d4b,17,0,21021541.017,0.029,-112359010.254545,0.005,17.457,51.9,2644.660,18109da4,17,0,21021540.965,0.040,-87557750.777519,0.005,13.602,49.0,2627.500,11309dab*fb1674a9
#BESTXYZA,COM1,0,76.0,FINESTEERING,1761,317616.000,00000000,d821,3245;SOL_COMPUTED,SINGLE,423322.9848,-5361646.2035,3417281.3925,1.4670,2.1973,1.4485,SOL_COMPUTED,DOPPLER_VELOCITY,0.0065,-0.0023,-0.0028,0.1753,0.2626,0.1731,"",0.150,0.000,0.000,11,11,0,0,0,06,0,03*117faf94
#RANGEA,COM1,0,77.5,FINESTEERING,1761,317617.000,00000000,5103,3245;22,28,0,20755139.793,0.031,-110959051.214442,0.005,-565.180,51.4,2634.650,18109c04,28,0,20755139.321,0.047,-86466864.650054,0.005,-440.402,47.7,2616.480,11309c0b,1,0,23785731.500,0.053,-126884915.030269,0.009,-3360.949,46.6,2634.620,18109c24,1,0,23785734.624,0.119,-98876643.312648,0.009,-2618.926,39.6,2615.440,11309c2b,4,0,21219581.432,0.030,-113399768.863279,0.004,2579.434,51.6,2634.640,18109c44,4,0,21219584.676,0.063,-88368741.514479,0.004,2009.949,45.1,2616.480,11309c4b,10,0,25216865.878,0.055,-132515515.503602,0.010,3365.789,46.3,135.034,18109c64,10,0,25216879.583,0.233,-103258859.381382,0.016,2622.695,33.9,129.480,11309c6b,20,0,22705433.558,0.041,-121207946.196707,0.008,411.355,48.9,2643.520,08109ca4,20,0,22705434.122,0.103,-94453030.476003,0.007,320.531,40.8,2626.980,01309cab,32,0,24621231.852,0.062,-131275520.509761,0.011,-1050.500,45.2,2632.970,08109cc4,32,0,24621235.039,0.183,-102297899.889853,0.012,-818.574,35.8,2614.940,01309ccb,9,0,23774743.400,0.055,-126827111.689578,0.012,-3849.500,46.4,2648.540,08109ce4,9,0,23774752.188,0.115,-98831575.537141,0.013,-2999.625,39.9,2632.980,01309ceb,24,0,24219653.509,0.050,-127275158.503132,0.010,2163.277,47.2,2043.830,08109d04,24,0,24219659.444,0.109,-99175464.097640,0.010,1685.672,40.4,2038.980,01309d0b,8,0,23135915.296,0.057,-123470048.078803,0.010,-3806.641,46.0,2633.040,18109d24,8,0,23135923.024,0.139,-96215697.240203,0.013,-2966.230,38.3,2614.940,11309d2b,2,0,24384446.619,0.048,-128141161.412223,0.009,3161.582,47.5,1345.330,18109d44,2,0,24384454.978,0.118,-99850298.468690,0.011,2463.578,39.7,1338.940,11309d4b,17,0,21021537.743,0.029,-112358993.076165,0.006,17.320,51.9,2645.660,18109da4,17,0,21021537.692,0.042,-87557737.391768,0.006,13.496,48.7,2628.500,11309dab*f86b7d4d
#BESTXYZA,COM1,0,77.5,FINESTEERING,1761,317617.000,00000000,d821,3245;SOL_COMPUTED,SINGLE,423322.9717,-5361646.2020,3417281.3993,1.4671,2.1973,1.4485,SOL_COMPUTED,DOPPLER_VELOCITY,-0.0147,0.0218,-0.0020,0.1753,0.2626,0.1731,"",0.150,0.000,0.000,11,11,0,0,0,06,0,03*6153bc9c
#RANGEA,COM1,0,77.5,FINESTEERING,1761,317618.000,00000000,5103,3245;22,28,0,20755247.444,0.030,-110959616.919407,0.005,-565.930,51.5,2635.650,18109c04,28,0,20755246.971,0.047,-86467305.459117,0.004,-440.988,47.7,2617.480,11309c0b,1,0,23786371.125,0.054,-126888276.327476,0.010,-3361.305,46.5,2635.620,18109c24,1,0,23786374.244,0.109,-98879262.500367,0.011,-2619.203,40.4,2616.440,11309c2b,4,0,21219090.645,0.030,-113397189.757376,0.004,2578.871,51.7,2635.640,18109c44,4,0,21219093.884,0.061,-88366731.824022,0.004,2009.512,45.4,2617.480,11309c4b,10,0,25216225.419,0.056,-132512149.833029,0.009,3365.723,46.2,136.034,18109c64,10,0,25216239.117,0.224,-103256236.787074,0.015,2622.645,34.2,130.480,11309c6b,20,0,22705355.362,0.040,-121207535.237372,0.008,410.438,49.1,2644.520,08109ca4,20,0,22705355.924,0.101,-94452710.249177,0.008,319.820,41.0,2627.980,01309cab,32,0,24621431.858,0.061,-131276571.526007,0.012,-1051.230,45.4,2633.970,08109cc4,32,0,24621435.044,0.192,-102298718.868462,0.013,-819.141,35.4,2615.940,01309ccb,9,0,23775475.983,0.054,-126830961.459935,0.011,-3849.695,46.4,2649.540,08109ce4,9,0,23775484.811,0.130,-98834575.348377,0.013,-2999.777,38.8,2633.980,01309ceb,24,0,24219241.975,0.049,-127272995.884713,0.011,2162.258,47.2,2044.830,08109d04,24,0,24219247.905,0.122,-99173778.940430,0.011,1684.875,39.4,2039.980,01309d0b,8,0,23136639.744,0.056,-123473855.013490,0.010,-3807.059,46.2,2634.040,18109d24,8,0,23136647.464,0.152,-96218663.671768,0.012,-2966.551,37.5,2615.940,11309d2b,2,0,24383845.042,0.048,-128138000.122462,0.010,3161.125,47.4,1346.330,18109d44,2,0,24383853.406,0.127,-99847835.137067,0.011,2463.223,39.1,1339.940,11309d4b,17,0,21021534.505,0.029,-112358976.086836,0.007,16.977,51.9,2646.660,18109da4,17,0,21021534.452,0.042,-87557724.154558,0.006,13.227,48.7,2629.500,11309dab*b4fcb611
#BESTXYZA,COM1,0,77.5,FINESTEERING,1761,317618.000,00000000,d821,3245;SOL_COMPUTED,SINGLE,423322.9674,-5361646.2013,3417281.4042,1.4671,2.1972,1.4486,SOL_COMPUTED,DOPPLER_VELOCITY,-0.0054,0.0025,0.0025,0.1754,0.2626,0.1731,"",0.150,0.000,0.000,11,11,0,0,0,06,0,03*1d38766f
#RANGEA,COM1,0,78.5,FINESTEERING,1761,317619.000,00000000,5103,3245;22,28,0,20755355.192,0.030,-110960183.115902,0.005,-566.508,51.5,2636.650,18109c04,28,0,20755354.711,0.046,-86467746.647509,0.005,-441.438,47.8,2618.480,11309c0b,1,0,23787010.797,0.053,-126891637.807432,0.010,-3361.621,46.6,2636.620,18109c24,1,0,23787013.928,0.110,-98881881.836625,0.012,-2619.449,40.3,2617.440,11309c2b,4,0,21218599.952,0.030,-113394611.160334,0.004,2578.277,51.6,2636.640,18109c44,4,0,21218603.190,0.062,-88364722.531308,0.004,2009.047,45.3,2618.480,11309c4b,10,0,25215584.917,0.056,-132508784.004915,0.010,3365.992,46.1,137.034,18109c64,10,0,25215598.667,0.266,-103253614.066322,0.016,2622.852,32.7,131.480,11309c6b,20,0,22705277.271,0.041,-121207124.886149,0.009,409.938,48.9,2645.520,08109ca4,20,0,22705277.848,0.098,-94452390.494978,0.008,319.434,41.3,2628.980,01309cab,32,0,24621631.982,0.062,-131277623.162969,0.014,-1052.250,45.3,2634.970,08109cc4,32,0,24621635.156,0.161,-102299538.325834,0.014,-819.934,37.0,2616.940,01309ccb,9,0,23776208.583,0.054,-126834811.301186,0.013,-3849.832,46.4,2650.540,08109ce4,9,0,23776217.411,0.136,-98837575.209945,0.014,-2999.883,38.4,2634.980,01309ceb,24,0,24218830.537,0.050,-127270833.809813,0.011,2161.570,47.1,2045.830,08109d04,24,0,24218836.468,0.121,-99172094.205514,0.011,1684.340,39.5,2040.980,01309d0b,8,0,23137364.227,0.056,-123477662.134076,0.010,-3807.293,46.2,2635.040,18109d24,8,0,23137371.964,0.121,-96221630.246962,0.012,-2966.738,39.5,2616.940,11309d2b,2,0,24383243.487,0.048,-128134839.031204,0.011,3160.941,47.5,1347.330,18109d44,2,0,24383251.864,0.109,-99845371.958895,0.010,2463.078,40.4,1340.940,11309d4b,17,0,21021531.305,0.029,-112358959.313339,0.006,16.566,51.9,2647.660,18109da4,17,0,21021531.258,0.042,-87557711.084300,0.006,12.910,48.7,2630.500,11309dab*1c3290dd
#BESTXYZA,COM1,0,78.5,FINESTEERING,1761,317619.000,00000000,d821,3245;SOL_COMPUTED,SINGLE,423322.9593,-5361646.1986,3417281.4034,1.4672,2.1972,1.4486,SOL_COMPUTED,DOPPLER_VELOCITY,0.0048,-0.0162,-0.0211,0.1754,0.2626,0.1731,"",0.150,0.000,0.000,11,11,0,0,0,06,0,03*251f28e7
#RANGEA,COM1,0,77.5,FINESTEERING,1761,317620.000,00000000,5103,3245;22,28,0,20755463.038,0.031,-110960749.833862,0.005,-567.141,51.4,2637.650,18109c04,28,0,20755462.555,0.046,-86468188.247146,0.005,-441.934,47.9,2619.480,11309c0b,1,0,23787650.500,0.053,-126894999.531578,0.010,-3362.004,46.7,2637.620,18109c24,1,0,23787653.657,0.124,-98884501.361933,0.010,-2619.746,39.3,2618.440,11309c2b,4,0,21218109.369,0.030,-113392033.117839,0.004,2577.582,51.6,2637.640,18109c44,4,0,21218112.606,0.060,-88362713.670710,0.004,2008.504,45.6,2619.480,11309c4b,10,0,25214944.413,0.056,-132505418.068096,0.010,3365.777,46.1,138.034,18109c64,10,0,25214958.141,0.214,-103250991.262094,0.016,2622.688,34.6,132.480,11309c6b,20,0,22705199.315,0.040,-121206715.221809,0.008,409.176,49.0,2646.520,08109ca4,20,0,22705199.894,0.094,-94452071.283377,0.009,318.840,41.6,2629.980,01309cab,32,0,24621832.225,0.060,-131278675.423797,0.013,-1052.668,45.6,2635.970,08109cc4,32,0,24621835.354,0.153,-102300358.265654,0.015,-820.266,37.4,2617.940,01309ccb,9,0,23776941.200,0.055,-126838661.266895,0.011,-3850.387,46.3,2651.540,08109ce4,9,0,23776950.039,0.133,-98840575.163583,0.013,-3000.316,38.7,2635.980,01309ceb,24,0,24218419.200,0.049,-127268672.276858,0.013,2160.977,47.3,2046.830,08109d04,24,0,24218425.159,0.104,-99170409.895348,0.012,1683.879,40.8,2041.980,01309d0b,8,0,23138088.762,0.055,-123481469.524059,0.010,-3807.707,46.3,2636.040,18109d24,8,0,23138096.486,0.147,-96224597.032075,0.012,-2967.059,37.8,2617.940,11309d2b,2,0,24382641.972,0.048,-128131678.188863,0.010,3160.547,47.5,1348.330,18109d44,2,0,24382650.361,0.111,-99842908.969773,0.011,2462.773,40.2,1341.940,11309d4b,17,0,21021528.157,0.029,-112358942.791910,0.006,16.285,51.9,2648.660,18109da4,17,0,21021528.107,0.041,-87557698.210459,0.006,12.691,48.8,2631.500,11309dab*caf8ef8d
#BESTXYZA,COM1,0,77.5,FINESTEERING,1761,317620.000,00000000,d821,3245;SOL_COMPUTED,SINGLE,423322.9461,-5361646.1870,3417281.4045,1.4672,2.1972,1.4486,SOL_COMPUTED,DOPPLER_VELOCITY,0.0050,0.0029,0.0035,0.1754,0.2626,0.1731,"",0.150,0.000,0.000,11,11,0,0,0,06,0,03*8c03a474
#RANGEA,COM1,0,76.5,FINESTEERING,1761,317621.000,00000000,5103,3245;22,28,0,20755571.024,0.030,-110961317.290693,0.005,-567.727,51.5,2638.650,18109c04,28,0,20755570.544,0.047,-86468630.421301,0.005,-442.387,47.7,2620.480,11309c0b,1,0,23788290.287,0.053,-126898361.679512,0.010,-3362.113,46.6,2638.620,18109c24,1,0,23788293.429,0.111,-98887121.216238,0.010,-2619.832,40.2,2619.440,11309c2b,4,0,21217618.929,0.030,-113389455.837848,0.004,2576.844,51.6,2638.640,18109c44,4,0,21217622.163,0.063,-88360705.401814,0.004,2007.930,45.2,2620.480,11309c4b,10,0,25214303.914,0.056,-132502052.227377,0.010,3365.605,46.2,139.034,18109c64,10,0,25214317.630,0.201,-103248368.527840,0.016,2622.551,35.1,133.480,11309c6b,20,0,22705121.526,0.040,-121206306.431828,0.007,408.250,49.0,2647.520,08109ca4,20,0,22705122.107,0.094,-94451752.745729,0.008,318.117,41.6,2630.980,01309cab,32,0,24622032.627,0.058,-131279728.563709,0.012,-1053.582,45.8,2636.970,08109cc4,32,0,24622035.753,0.172,-102301178.896612,0.015,-820.977,36.4,2618.940,01309ccb,9,0,23777673.879,0.053,-126842511.520905,0.010,-3850.406,46.6,2652.540,08109ce4,9,0,23777682.735,0.118,-98843575.346782,0.012,-3000.332,39.7,2636.980,01309ceb,24,0,24218008.014,0.050,-127266511.522161,0.013,2160.547,47.1,2047.830,08109d04,24,0,24218013.984,0.115,-99168726.195300,0.013,1683.543,39.9,2042.980,01309d0b,8,0,23138813.382,0.054,-123485277.340981,0.010,-3808.016,46.5,2637.040,18109d24,8,0,23138821.112,0.148,-96227564.153551,0.012,-2967.297,37.7,2618.940,11309d2b,2,0,24382040.555,0.048,-128128517.803393,0.011,3160.117,47.4,1349.330,18109d44,2,0,24382048.964,0.104,-99840446.344020,0.011,2462.438,40.7,1342.940,11309d4b,17,0,21021525.097,0.029,-112358926.722626,0.005,15.848,51.9,2649.660,18109da4,17,0,21021525.046,0.041,-87557685.690167,0.005,12.348,48.8,2632.500,11309dab*b491eec2
#BESTXYZA,COM1,0,76.5,FINESTEERING,1761,317621.000,00000000,d821,3245;SOL_COMPUTED,SINGLE,423322.9378,-5361646.1751,3417281.4032,1.4673,2.1972,1.4486,SOL_COMPUTED,DOPPLER_VELOCITY,-0.0105,0.0151,0.0120,0.1754,0.2626,0.1731,"",0.150,0.000,0.000,11,11,0,0,0,06,0,03*021fda4d
#RANGEA,COM1,0,76.5,FINESTEERING,1761,317622.000,00000000,5103,3245;22,28,0,20755679.128,0.031,-110961885.365089,0.005,-568.301,51.4,2639.650,18109c04,28,0,20755678.639,0.045,-86469073.075447,0.005,-442.836,48.0,2621.480,11309c0b,1,0,23788930.132,0.054,-126901724.144105,0.010,-3362.484,46.5,2639.620,18109c24,1,0,23788933.285,0.114,-98889741.316064,0.010,-2620.121,40.0,2620.440,11309c2b,4,0,21217128.617,0.030,-113386879.184873,0.004,2576.387,51.6,2639.640,18109c44,4,0,21217131.837,0.065,-88358697.626414,0.004,2007.574,44.9,2621.480,11309c4b,10,0,25213663.406,0.056,-132498686.348849,0.010,3365.922,46.1,140.034,18109c64,10,0,25213677.127,0.243,-103245745.767805,0.015,2622.797,33.4,134.480,11309c6b,20,0,22705043.884,0.040,-121205898.385444,0.007,407.719,49.0,2648.520,08109ca4,20,0,22705044.466,0.105,-94451434.788736,0.007,317.703,40.7,2631.980,01309cab,32,0,24622233.174,0.057,-131280782.445645,0.014,-1054.242,46.0,2637.970,08109cc4,32,0,24622236.303,0.189,-102302000.099632,0.015,-821.492,35.6,2619.940,01309ccb,9,0,23778406.607,0.053,-126846361.990749,0.013,-3850.695,46.6,2653.540,08109ce4,9,0,23778415.464,0.148,-98846575.705528,0.014,-3000.559,37.7,2637.980,01309ceb,24,0,24217596.950,0.051,-127264351.419687,0.012,2159.887,47.0,2048.830,08109d04,24,0,24217602.934,0.110,-99167043.005932,0.013,1683.027,40.3,2043.980,01309d0b,8,0,23139538.069,0.054,-123489085.499770,0.009,-3808.254,46.4,2638.040,18109d24,8,0,23139545.802,0.140,-96230531.547554,0.012,-2967.480,38.2,2619.940,11309d2b,2,0,24381439.190,0.050,-128125357.726706,0.011,3160.027,47.2,1350.330,18109d44,2,0,24381447.632,0.107,-99837983.957650,0.013,2462.367,40.6,1343.940,11309d4b,17,0,21021522.103,0.029,-112358910.988906,0.005,15.609,51.9,2650.660,18109da4,17,0,21021522.049,0.041,-87557673.428898,0.006,12.164,48.9,2633.500,11309dab*3316522f
#BESTXYZA,COM1,0,76.5,FINESTEERING,1761,317622.000,00000000,d821,3245;SOL_COMPUTED,SINGLE,423322.9282,-5361646.1572,3417281.3998,1.4673,2.1971,1.4486,SOL_COMPUTED,DOPPLER_VELOCITY,-0.0094,0.0092,-0.0026,0.1754,0.2626,0.1731,"",0.150,0.000,0.000,11,11,0,0,0,06,0,03*1769401d
#RANGEA,COM1,0,76.5,FINESTEERING,1761,317623.000,00000000,5103,3245;22,28,0,20755787.327,0.031,-110962453.937318,0.006,-568.625,51.4,2640.650,18109c04,28,0,20755786.837,0.047,-86469516.121197,0.006,-443.086,47.7,2622.480,11309c0b,1,0,23789570.026,0.054,-126905086.833983,0.011,-3362.539,46.5,2640.620,18109c24,1,0,23789573.174,0.100,-98892361.595118,0.011,-2620.164,41.1,2621.440,11309c2b,4,0,21216638.397,0.030,-113384303.069117,0.004,2575.984,51.6,2640.640,18109c44,4,0,21216641.614,0.062,-88356690.263487,0.004,2007.262,45.2,2622.480,11309c4b,10,0,25213022.875,0.056,-132495320.323807,0.011,3366.391,46.2,141.034,18109c64,10,0,25213036.600,0.334,-103243122.900970,0.016,2623.164,30.7,135.480,11309c6b,20,0,22704966.362,0.040,-121205490.997587,0.008,407.309,49.1,2649.520,08109ca4,20,0,22704966.947,0.094,-94451117.346107,0.008,317.383,41.6,2632.980,01309cab,32,0,24622433.834,0.056,-131281836.930966,0.013,-1054.609,46.2,2638.970,08109cc4,32,0,24622436.968,0.200,-102302821.769140,0.016,-821.777,35.1,2620.940,01309ccb,9,0,23779139.350,0.053,-126850212.537787,0.012,-3850.340,46.6,2654.540,08109ce4,9,0,23779148.205,0.131,-98849576.119516,0.013,-3000.281,38.8,2638.980,01309ceb,24,0,24217185.994,0.050,-127262191.859158,0.011,2159.461,47.2,2049.830,08109d04,24,0,24217191.983,0.118,-99165360.231494,0.012,1682.695,39.7,2044.980,01309d0b,8,0,23140262.795,0.053,-123492893.877541,0.010,-3808.117,46.6,2639.040,18109d24,8,0,23140270.520,0.141,-96233499.108511,0.012,-2967.375,38.1,2620.940,11309d2b,2,0,24380837.877,0.048,-128122197.886331,0.010,3159.992,47.5,1351.330,18109d44,2,0,24380846.345,0.100,-99835521.755420,0.011,2462.340,41.1,1344.940,11309d4b,17,0,21021519.148,0.029,-112358895.486773,0.005,15.582,51.9,2651.660,18109da4,17,0,21021519.092,0.041,-87557661.349314,0.005,12.141,48.8,2634.500,11309dab*4ddab0dc
#BESTXYZA,COM1,0,76.5,FINESTEERING,1761,317623.000,00000000,d821,3245;SOL_COMPUTED,SINGLE,423322.9205,-5361646.1485,3417281.4014,1.4673,2.1971,1.4487,SOL_COMPUTED,DOPPLER_VELOCITY,0.0055,0.0137,-0.0270,0.1754,0.2626,0.1731,"",0.150,0.000,0.000,11,11,0,0,0,06,0,03*93522b7f
#RANGEA,COM1,0,77.5,FINESTEERING,1761,317624.000,00000000,5103,3245;22,28,0,20755895.547,0.031,-110963022.645033,0.005,-568.926,51.4,2641.650,18109c04,28,0,20755895.054,0.047,-86469959.271294,0.005,-443.320,47.7,2623.480,11309c0b,1,0,23790209.890,0.053,-126908449.317481,0.011,-3362.477,46.6,2641.620,18109c24,1,0,23790213.033,0.127,-98894981.709675,0.011,-2620.117,39.1,2622.440,11309c2b,4,0,21216148.204,0.030,-113381727.095149,0.004,2575.766,51.6,2641.640,18109c44,4,0,21216151.421,0.062,-88354683.011044,0.004,2007.090,45.3,2623.480,11309c4b,10,0,25212382.253,0.055,-132491953.793055,0.010,3366.707,46.2,142.034,18109c64,10,0,25212395.981,0.221,-103240499.635164,0.016,2623.410,34.2,136.480,11309c6b,20,0,22704888.885,0.039,-121205083.868098,0.008,406.902,49.2,2650.520,08109ca4,20,0,22704889.488,0.098,-94450800.101122,0.009,317.066,41.3,2633.980,01309cab,32,0,24622634.567,0.055,-131282891.674656,0.012,-1055.172,46.4,2639.970,08109cc4,32,0,24622637.669,0.181,-102303643.642430,0.015,-822.215,35.9,2621.940,01309ccb,9,0,23779872.038,0.054,-126854062.779195,0.010,-3850.184,46.5,2655.540,08109ce4,9,0,23779880.906,0.128,-98852576.297805,0.012,-3000.160,38.9,2639.980,01309ceb,24,0,24216775.075,0.049,-127260032.464047,0.010,2159.227,47.4,2050.830,08109d04,24,0,24216781.053,0.117,-99163677.593319,0.011,1682.520,39.8,2045.980,01309d0b,8,0,23140987.495,0.053,-123496702.099347,0.010,-3808.324,46.6,2640.040,18109d24,8,0,23140995.195,0.163,-96236466.547936,0.011,-2967.535,36.9,2621.940,11309d2b,2,0,24380236.536,0.048,-128119037.885264,0.009,3160.074,47.4,1352.330,18109d44,2,0,24380245.055,0.118,-99833059.435340,0.010,2462.406,39.7,1345.940,11309d4b,17,0,21021516.165,0.029,-112358879.817646,0.007,15.633,51.9,2652.660,18109da4,17,0,21021516.106,0.042,-87557649.139604,0.006,12.180,48.7,2635.500,11309dab*a6dbf779
#BESTXYZA,COM1,0,77.5,FINESTEERING,1761,317624.000,00000000,d821,3245;SOL_COMPUTED,SINGLE,423322.9140,-5361646.1583,3417281.4102,1.4674,2.1971,1.4487,SOL_COMPUTED,DOPPLER_VELOCITY,-0.0151,0.0059,-0.0094,0.1754,0.2626,0.1731,"",0.150,0.000,0.000,11,11,0,0,0,06,0,03*81ccac4c
#RANGEA,COM1,0,77.5,FINESTEERING,1761,317625.000,00000000,5103,3245;22,28,0,20756003.833,0.031,-110963591.689888,0.005,-569.281,51.4,2642.650,18109c04,28,0,20756003.340,0.047,-86470402.680414,0.005,-443.602,47.8,2624.480,11309c0b,1,0,23790849.745,0.053,-126911811.841940,0.010,-3362.539,46.6,2642.620,18109c24,1,0,23790852.911,0.129,-98897601.854921,0.011,-2620.164,38.9,2623.440,11309c2b,4,0,21215658.082,0.030,-113379151.481952,0.004,2575.469,51.6,2642.640,18109c44,4,0,21215661.294,0.063,-88352676.040949,0.004,2006.859,45.1,2624.480,11309c4b,10,0,25211741.565,0.055,-132488586.959822,0.010,3367.070,46.3,143.034,18109c64,10,0,25211755.285,0.218,-103237876.125066,0.016,2623.691,34.4,137.480,11309c6b,20,0,22704811.503,0.040,-121204677.211235,0.008,406.629,49.2,2651.520,08109ca4,20,0,22704812.108,0.106,-94450483.224417,0.008,316.855,40.6,2634.980,01309cab,32,0,24622835.372,0.054,-131283946.843709,0.012,-1055.465,46.5,2640.970,08109cc4,32,0,24622838.491,0.208,-102304465.853310,0.014,-822.445,34.7,2622.940,01309ccb,9,0,23780604.709,0.052,-126857912.948133,0.010,-3849.988,46.8,2656.540,08109ce4,9,0,23780613.553,0.133,-98855576.415942,0.012,-3000.008,38.6,2640.980,01309ceb,24,0,24216364.236,0.049,-127257873.464368,0.009,2158.762,47.3,2051.830,08109d04,24,0,24216370.236,0.108,-99161995.262044,0.011,1682.156,40.4,2046.980,01309d0b,8,0,23141712.198,0.053,-123500510.374716,0.010,-3808.340,46.7,2641.040,18109d24,8,0,23141719.901,0.147,-96239434.027871,0.012,-2967.551,37.8,2622.940,11309d2b,2,0,24379635.199,0.047,-128115877.945638,0.009,3159.887,47.6,1353.330,18109d44,2,0,24379643.743,0.122,-99830597.155770,0.010,2462.258,39.4,1346.940,11309d4b,17,0,21021513.195,0.029,-112358864.205234,0.007,15.695,52.0,2653.660,18109da4,17,0,21021513.128,0.042,-87557636.976544,0.007,12.230,48.7,2636.500,11309dab*57a876f3
#BESTXYZA,COM1,0,77.5,FINESTEERING,1761,317625.000,00000000,d821,3245;SOL_COMPUTED,SINGLE,423322.9122,-5361646.1556,3417281.4090,1.4674,2.1970,1.4487,SOL_COMPUTED,DOPPLER_VELOCITY,0.0104,-0.0059,-0.0058,0.1754,0.2626,0.1732,"",0.150,0.000,0.000,11,11,0,0,0,06,0,03*5e7c351b
#RANGEA,COM1,0,74.5,FINESTEERING,1761,317626.000,00000000,5103,3245;22,28,0,20756112.201,0.031,-110964161.155380,0.006,-569.746,51.3,2643.650,18109c04,28,0,20756111.707,0.047,-86470846.418530,0.006,-443.961,47.6,2625.480,11309c0b,1,0,23791489.630,0.053,-126915174.505036,0.009,-3363.020,46.6,2643.620,18109c24,1,0,23791492.815,0.113,-98900222.111879,0.010,-2620.539,40.1,2624.440,11309c2b,4,0,21215168.048,0.030,-113376576.328777,0.004,2574.793,51.5,2643.640,18109c44,4,0,21215171.255,0.065,-88350669.429314,0.004,2006.332,44.9,2625.480,11309c4b,10,0,25211100.846,0.056,-132485219.917058,0.010,3367.074,46.2,144.034,18109c64,10,0,25211114.548,0.276,-103235252.457835,0.015,2623.695,32.3,138.480,11309c6b,20,0,22704734.247,0.040,-121204271.167210,0.012,405.418,49.2,2652.520,08109ca4,20,0,22704734.852,0.109,-94450166.827703,0.011,315.910,40.4,2635.980,01309cab,32,0,24623036.274,0.054,-131285002.605120,0.012,-1056.258,46.5,2641.970,08109cc4,32,0,24623039.408,0.224,-102305288.519629,0.014,-823.062,34.1,2623.940,01309ccb,9,0,23781337.386,0.053,-126861763.145428,0.011,-3850.328,46.7,2657.540,08109ce4,9,0,23781346.236,0.141,-98858576.557402,0.011,-3000.270,38.1,2641.980,01309ceb,24,0,24215953.493,0.049,-127255714.946766,0.010,2158.125,47.2,2052.830,08109d04,24,0,24215959.493,0.112,-99160313.300277,0.011,1681.656,40.2,2047.980,01309d0b,8,0,23142436.936,0.054,-123504318.799750,0.009,-3808.547,46.5,2642.040,18109d24,8,0,23142444.626,0.148,-96242401.620745,0.011,-2967.711,37.7,2623.940,11309d2b,2,0,24379033.882,0.049,-128112718.133621,0.009,3159.566,47.3,1354.330,18109d44,2,0,24379042.449,0.107,-99828134.975637,0.010,2462.008,40.6,1347.940,11309d4b,17,0,21021510.253,0.029,-112358848.750363,0.006,15.289,51.9,2654.660,18109da4,17,0,21021510.188,0.042,-87557624.933788,0.006,11.914,48.6,2637.500,11309dab*9e219767
#BESTXYZA,COM1,0,74.5,FINESTEERING,1761,317626.000,00000000,d821,3245;SOL_COMPUTED,SINGLE,423322.9030,-5361646.1502,3417281.4105,1.4675,2.1970,1.4487,SOL_COMPUTED,DOPPLER_VELOCITY,-0.0121,-0.0248,-0.0043,0.1754,0.2626,0.1732,"",0.150,0.000,0.000,11,11,0,0,0,06,0,03*d2e6a034
#RANGEA,COM1,0,74.5,FINESTEERING,1761,317627.000,00000000,5103,3245;22,28,0,20756220.657,0.031,-110964731.123431,0.007,-570.016,51.3,2644.650,18109c04,28,0,20756220.166,0.047,-86471290.547024,0.007,-444.172,47.7,2626.480,11309c0b,1,0,23792129.546,0.055,-126918537.333552,0.010,-3362.816,46.3,2644.620,18109c24,1,0,23792132.751,0.121,-98902842.496508,0.010,-2620.379,39.5,2625.440,11309c2b,4,0,21214678.109,0.031,-113374001.689190,0.004,2574.598,51.4,2644.640,18109c44,4,0,21214681.318,0.062,-88348663.217876,0.004,2006.180,45.3,2626.480,11309c4b,10,0,25210460.086,0.055,-132481852.716752,0.010,3367.406,46.3,145.034,18109c64,10,0,25210473.795,0.251,-103232628.669072,0.014,2623.953,33.1,139.480,11309c6b,20,0,22704657.088,0.040,-121203865.712393,0.014,405.164,49.0,2653.520,08109ca4,20,0,22704657.707,0.102,-94449850.893795,0.013,315.711,41.0,2636.980,01309cab,32,0,24623237.291,0.054,-131286058.957314,0.012,-1056.703,46.4,2642.970,08109cc4,32,0,24623240.411,0.190,-102306111.652436,0.014,-823.410,35.5,2624.940,01309ccb,9,0,23782070.063,0.051,-126865613.402590,0.011,-3850.379,47.0,2658.540,08109ce4,9,0,23782078.941,0.140,-98861576.746740,0.012,-3000.312,38.2,2642.980,01309ceb,24,0,24215542.852,0.049,-127253556.944328,0.010,2158.027,47.3,2053.830,08109d04,24,0,24215548.843,0.115,-99158631.737480,0.010,1681.578,39.9,2048.980,01309d0b,8,0,23143161.714,0.054,-123508127.431164,0.009,-3808.676,46.5,2643.040,18109d24,8,0,23143169.392,0.156,-96245369.374435,0.011,-2967.812,37.2,2624.940,11309d2b,2,0,24378432.613,0.048,-128109558.537437,0.010,3159.852,47.5,1355.330,18109d44,2,0,24378441.196,0.118,-99825672.963684,0.011,2462.230,39.7,1348.940,11309d4b,17,0,21021507.346,0.029,-112358833.501873,0.005,15.289,51.9,2655.660,18109da4,17,0,21021507.283,0.042,-87557613.050620,0.006,11.914,48.7,2638.500,11309dab*3b781436
#BESTXYZA,COM1,0,74.5,FINESTEERING,1761,317627.000,00000000,d821,3245;SOL_COMPUTED,SINGLE,423322.9059,-5361646.1497,3417281.4120,1.4675,2.1970,1.4487,SOL_COMPUTED,DOPPLER_VELOCITY,-0.0357,-0.0018,0.0047,0.1754,0.2626,0.1732,"",0.150,0.000,0.000,11,11,0,0,0,06,0,03*091770e7
#RANGEA,COM1,0,76.0,FINESTEERING,1761,317628.000,00000000,5103,3245;22,28,0,20756329.192,0.031,-110965301.464856,0.006,-570.438,51.3,2645.650,18109c04,28,0,20756328.702,0.047,-86471734.970142,0.006,-444.500,47.8,2627.480,11309c0b,1,0,23792769.480,0.055,-126921900.270771,0.010,-3362.816,46.3,2645.620,18109c24,1,0,23792772.695,0.125,-98905462.967068,0.011,-2620.379,39.2,2626.440,11309c2b,4,0,21214188.246,0.031,-113371427.456061,0.005,2574.172,51.4,2645.640,18109c44,4,0,21214191.451,0.062,-88346657.328069,0.005,2005.848,45.3,2627.480,11309c4b,10,0,25209819.284,0.055,-132478485.234446,0.011,3367.773,46.3,146.034,18109c64,10,0,25209833.002,0.244,-103230004.666706,0.014,2624.242,33.4,140.480,11309c6b,20,0,22704580.028,0.041,-121203460.774313,0.011,404.809,48.9,2654.520,08109ca4,20,0,22704580.657,0.102,-94449535.357629,0.013,315.434,41.0,2637.980,01309cab,32,0,24623438.410,0.054,-131287115.791587,0.011,-1057.094,46.5,2643.970,08109cc4,32,0,24623441.539,0.187,-102306935.158434,0.014,-823.715,35.7,2625.940,01309ccb,9,0,23782802.742,0.051,-126869463.582556,0.010,-3849.816,47.0,2659.540,08109ce4,9,0,23782811.620,0.135,-98864576.879607,0.012,-2999.867,38.5,2643.980,01309ceb,24,0,24215132.283,0.049,-127251399.389308,0.010,2157.285,47.4,2054.830,08109d04,24,0,24215138.270,0.113,-99156950.524549,0.011,1681.000,40.1,2049.980,01309d0b,8,0,23143886.509,0.054,-123511936.152378,0.011,-3808.676,46.4,2644.040,18109d24,8,0,23143894.181,0.143,-96248337.199326,0.012,-2967.812,38.0,2625.940,11309d2b,2,0,24377831.356,0.048,-128106399.045230,0.010,3159.398,47.6,1356.330,18109d44,2,0,24377839.983,0.118,-99823211.030298,0.011,2461.875,39.7,1349.940,11309d4b,17,0,21021504.456,0.029,-112358818.355785,0.006,15.160,52.0,2656.660,18109da4,17,0,21021504.399,0.042,-87557601.248473,0.005,11.812,48.6,2639.500,11309dab*13014942
#BESTXYZA,COM1,0,76.0,FINESTEERING,1761,317628.000,00000000,d821,3245;SOL_COMPUTED,SINGLE,423322.8994,-5361646.1502,3417281.4177,1.4676,2.1970,1.4487,SOL_COMPUTED,DOPPLER_VELOCITY,0.0228,-0.0169,-0.0144,0.1754,0.2626,0.1732,"",0.150,0.000,0.000,11,11,0,0,0,06,0,03*75d6a1ed
#RANGEA,COM1,0,70.5,FINESTEERING,1761,317629.000,00000000,5103,3245;22,28,0,20756437.790,0.031,-110965872.162327,0.006,-571.016,51.3,2646.650,18109c04,28,0,20756437.307,0.047,-86472179.667014,0.006,-444.949,47.7,2628.480,11309c0b,1,0,23793409.435,0.057,-126925263.245800,0.011,-3363.105,46.0,2646.620,18109c24,1,0,23793412.683,0.116,-98908083.463408,0.011,-2620.605,39.8,2627.440,11309c2b,4,0,21213698.456,0.031,-113368853.607334,0.005,2573.605,51.4,2646.640,18109c44,4,0,21213701.662,0.062,-88344651.734114,0.005,2005.406,45.2,2628.480,11309c4b,10,0,25209178.432,0.055,-132475117.500073,0.011,3367.551,46.4,147.034,18109c64,10,0,25209192.141,0.242,-103227380.465470,0.014,2624.070,33.5,141.480,11309c6b,20,0,22704503.063,0.040,-121203056.346669,0.009,404.152,49.0,2655.520,08109ca4,20,0,22704503.711,0.104,-94449220.220433,0.009,314.926,40.8,2638.980,01309cab,32,0,24623639.607,0.054,-131288173.100060,0.012,-1057.645,46.4,2644.970,08109cc4,32,0,24623642.719,0.177,-102307759.026573,0.014,-824.141,36.2,2626.940,01309ccb,9,0,23783535.408,0.050,-126873313.737315,0.012,-3850.070,47.2,2660.540,08109ce4,9,0,23783544.295,0.140,-98867576.990378,0.013,-3000.066,38.2,2644.980,01309ceb,24,0,24214721.794,0.049,-127249242.217115,0.010,2156.785,47.4,2055.830,08109d04,24,0,24214727.767,0.120,-99155269.611152,0.011,1680.613,39.5,2050.980,01309d0b,8,0,23144611.317,0.054,-123515744.949211,0.010,-3808.875,46.5,2645.040,18109d24,8,0,23144618.988,0.134,-96251305.086824,0.012,-2967.965,38.5,2626.940,11309d2b,2,0,24377230.112,0.048,-128103239.616040,0.010,3159.418,47.5,1357.330,18109d44,2,0,24377238.770,0.117,-99820749.146016,0.010,2461.891,39.8,1350.940,11309d4b,17,0,21021501.580,0.029,-112358803.267988,0.005,15.004,51.9,2657.660,18109da4,17,0,21021501.525,0.042,-87557589.495431,0.005,11.691,48.6,2640.500,11309dab*3ba9d95d
#BESTXYZA,COM1,0,70.5,FINESTEERING,1761,317629.000,00000000,d821,3245;SOL_COMPUTED,SINGLE,423322.8971,-5361646.1496,3417281.4226,1.4676,2.1970,1.4488,SOL_COMPUTED,DOPPLER_VELOCITY,-0.0023,-0.0088,0.0015,0.1754,0.2626,0.1732,"",0.150,0.000,0.000,11,11,0,0,0,06,0,03*1f2e73da
#RANGEA,COM1,0,70.5,FINESTEERING,1761,317630.000,00000000,5103,3245;22,28,0,20756546.480,0.031,-110966443.345027,0.005,-571.547,51.3,2647.650,18109c04,28,0,20756546.000,0.048,-86472624.743215,0.005,-445.363,47.5,2629.480,11309c0b,1,0,23794049.422,0.057,-126928626.397276,0.010,-3363.199,46.1,2647.620,18109c24,1,0,23794052.684,0.105,-98910704.098467,0.011,-2620.680,40.7,2628.440,11309c2b,4,0,21213208.760,0.030,-113366280.251714,0.004,2573.055,51.5,2647.640,18109c44,4,0,21213211.960,0.063,-88342646.525625,0.005,2004.977,45.1,2629.480,11309c4b,10,0,25208537.531,0.056,-132471749.565622,0.011,3367.957,46.2,148.034,18109c64,10,0,25208551.271,0.199,-103224756.105872,0.016,2624.387,35.2,142.480,11309c6b,20,0,22704426.216,0.041,-121202652.520836,0.009,403.668,48.9,2656.520,08109ca4,20,0,22704426.875,0.097,-94448905.547270,0.009,314.547,41.4,2639.980,01309cab,32,0,24623840.924,0.055,-131289231.024523,0.012,-1058.375,46.2,2645.970,08109cc4,32,0,24623844.023,0.186,-102308583.380842,0.014,-824.711,35.7,2627.940,01309ccb,9,0,23784268.089,0.050,-126877163.931460,0.011,-3850.297,47.1,2661.540,08109ce4,9,0,23784276.970,0.149,-98870577.131839,0.012,-3000.242,37.6,2645.980,01309ceb,24,0,24214311.402,0.048,-127247085.549057,0.010,2156.188,47.4,2056.830,08109d04,24,0,24214317.359,0.110,-99153589.091815,0.011,1680.145,40.3,2051.980,01309d0b,8,0,23145336.154,0.054,-123519553.933519,0.010,-3809.250,46.5,2646.040,18109d24,8,0,23145343.814,0.144,-96254273.117952,0.012,-2968.258,38.0,2627.940,11309d2b,2,0,24376628.904,0.046,-128100080.358571,0.011,3159.266,47.8,1358.330,18109d44,2,0,24376637.613,0.128,-99818287.395543,0.012,2461.773,39.0,1351.940,11309d4b,17,0,21021498.752,0.029,-112358788.389722,0.006,14.691,51.8,2658.660,18109da4,17,0,21021498.688,0.041,-87557577.903204,0.006,11.449,48.8,2641.500,11309dab*2dcb743f
#BESTXYZA,COM1,0,70.5,FINESTEERING,1761,317630.000,00000000,d821,3245;SOL_COMPUTED,SINGLE,423322.8962,-5361646.1459,3417281.4177,1.4677,2.1969,1.4488,SOL_COMPUTED,DOPPLER_VELOCITY,0.0079,0.0093,-0.0158,0.1754,0.2626,0.1732,"",0.150,0.000,0.000,11,11,0,0,0,06,0,03*f6e08623
#RANGEA,COM1,0,76.0,FINESTEERING,1761,317631.000,00000000,5103,3245;22,28,0,20756655.241,0.031,-110967014.893224,0.005,-571.613,51.3,2648.650,18109c04,28,0,20756654.758,0.046,-86473070.101764,0.005,-445.418,47.8,2630.480,11309c0b,1,0,23794689.419,0.056,-126931989.616496,0.010,-3363.020,46.1,2648.620,18109c24,1,0,23794692.686,0.123,-98913324.788768,0.010,-2620.539,39.4,2629.440,11309c2b,4,0,21212719.132,0.031,-113363707.275770,0.004,2572.957,51.4,2648.640,18109c44,4,0,21212722.335,0.063,-88340641.614215,0.004,2004.902,45.1,2630.480,11309c4b,10,0,25207896.589,0.055,-132468381.372802,0.010,3368.492,46.3,149.034,18109c64,10,0,25207910.319,0.246,-103222131.551087,0.015,2624.805,33.3,143.480,11309c6b,20,0,22704349.478,0.041,-121202249.227495,0.010,403.262,48.9,2657.520,08109ca4,20,0,22704350.126,0.103,-94448591.295173,0.010,314.230,40.8,2640.980,01309cab,32,0,24624042.329,0.059,-131290289.410584,0.014,-1058.492,45.7,2646.970,08109cc4,32,0,24624045.408,0.200,-102309408.098481,0.015,-824.805,35.1,2628.940,01309ccb,9,0,23785000.755,0.050,-126881014.087794,0.011,-3850.105,47.1,2662.540,08109ce4,9,0,23785009.649,0.142,-98873577.245065,0.012,-3000.094,38.1,2646.980,01309ceb,24,0,24213901.077,0.047,-127244929.303212,0.010,2156.082,47.6,2057.830,08109d04,24,0,24213907.027,0.114,-99151908.896564,0.011,1680.059,40.0,2052.980,01309d0b,8,0,23146061.006,0.054,-123523363.013928,0.010,-3809.129,46.4,2647.040,18109d24,8,0,23146068.668,0.149,-96257241.222736,0.011,-2968.164,37.6,2628.940,11309d2b,2,0,24376027.722,0.047,-128096921.225560,0.011,3159.332,47.6,1359.330,18109d44,2,0,24376036.451,0.119,-99815825.744505,0.011,2461.824,39.6,1352.940,11309d4b,17,0,21021495.939,0.029,-112358773.593377,0.006,14.902,51.8,2659.660,18109da4,17,0,21021495.872,0.041,-87557566.373585,0.006,11.613,48.8,2642.500,11309dab*dd14fe4e
#BESTXYZA,COM1,0,76.0,FINESTEERING,1761,317631.000,00000000,d821,3245;SOL_COMPUTED,SINGLE,423322.8898,-5361646.1448,3417281.4209,1.4677,2.1969,1.4488,SOL_COMPUTED,DOPPLER_VELOCITY,0.0029,0.0090,-0.0021,0.1754,0.2626,0.1732,"",0.150,0.000,0.000,11,11,0,0,0,06,0,03*b5104b32
#RANGEA,COM1,0,76.0,FINESTEERING,1761,317632.000,00000000,5103,3245;22,28,0,20756764.076,0.031,-110967586.849455,0.005,-572.270,51.3,2649.650,18109c04,28,0,20756763.600,0.048,-86473515.781944,0.006,-445.930,47.5,2631.480,11309c0b,1,0,23795329.443,0.057,-126935352.942844,0.010,-3363.305,46.1,2649.620,18109c24,1,0,23795332.708,0.130,-98915945.561318,0.010,-2620.762,38.8,2630.440,11309c2b,4,0,21212229.588,0.031,-113361134.740943,0.004,2572.207,51.4,2649.640,18109c44,4,0,21212232.791,0.065,-88338637.046534,0.004,2004.316,44.8,2631.480,11309c4b,10,0,25207255.594,0.055,-132465012.927914,0.013,3368.496,46.3,150.034,18109c64,10,0,25207269.351,0.250,-103219506.794975,0.016,2624.805,33.2,144.480,11309c6b,20,0,22704272.839,0.041,-121201846.469797,0.008,402.391,49.0,2658.520,08109ca4,20,0,22704273.498,0.100,-94448277.462916,0.009,313.551,41.1,2641.980,01309cab,32,0,24624243.837,0.061,-131291348.329137,0.012,-1059.250,45.4,2647.970,08109cc4,32,0,24624246.920,0.182,-102310233.233504,0.015,-825.395,35.9,2629.940,01309ccb,9,0,23785733.424,0.050,-126884864.211045,0.012,-3850.164,47.1,2663.540,08109ce4,9,0,23785742.298,0.131,-98876577.326373,0.012,-3000.145,38.8,2647.980,01309ceb,24,0,24213490.846,0.047,-127242773.501634,0.012,2155.305,47.6,2058.830,08109d04,24,0,24213496.814,0.112,-99150229.045041,0.012,1679.453,40.1,2053.980,01309d0b,8,0,23146785.894,0.056,-123527172.196740,0.010,-3809.434,46.2,2648.040,18109d24,8,0,23146793.551,0.128,-96260209.407313,0.011,-2968.402,39.0,2629.940,11309d2b,2,0,24375426.559,0.046,-128093762.177622,0.013,3159.004,47.8,1360.330,18109d44,2,0,24375435.298,0.125,-99813364.159757,0.013,2461.570,39.2,1353.940,11309d4b,17,0,21021493.147,0.029,-112358758.923066,0.006,14.465,51.8,2660.660,18109da4,17,0,21021493.080,0.042,-87557554.942174,0.006,11.270,48.7,2643.500,11309dab*76a7e7e6
#BESTXYZA,COM1,0,76.0,FINESTEERING,1761,317632.000,00000000,d821,3245;SOL_COMPUTED,SINGLE,423322.8857,-5361646.1487,3417281.4244,1.4678,2.1969,1.4488,SOL_COMPUTED,DOPPLER_VELOCITY,0.0074,0.0210,-0.0189,0.1754,0.2626,0.1732,"",0.150,0.000,0.000,11,11,0,0,0,06,0,03*51e7e865
#RANGEA,COM1,0,76.5,FINESTEERING,1761,317633.000,00000000,5103,3245;22,28,0,20756873.008,0.031,-110968159.284614,0.005,-572.637,51.2,2650.650,18109c04,28,0,20756872.530,0.047,-86473961.835314,0.005,-446.215,47.7,2632.480,11309c0b,1,0,23795969.495,0.059,-126938716.458242,0.010,-3363.648,45.8,2650.620,18109c24,1,0,23795972.767,0.104,-98918566.479952,0.010,-2621.027,40.7,2631.440,11309c2b,4,0,21211740.140,0.031,-113358562.702374,0.004,2571.871,51.4,2650.640,18109c44,4,0,21211743.342,0.064,-88336632.869229,0.005,2004.059,45.0,2632.480,11309c4b,10,0,25206614.561,0.055,-132461644.331786,0.012,3368.824,46.3,151.034,18109c64,10,0,25206628.346,0.230,-103216881.922241,0.017,2625.062,33.9,145.480,11309c6b,20,0,22704196.321,0.041,-121201444.342266,0.009,401.926,48.9,2659.520,08109ca4,20,0,22704196.964,0.110,-94447964.113106,0.009,313.188,40.3,2642.980,01309cab,32,0,24624445.453,0.063,-131292407.846350,0.013,-1059.629,45.1,2648.970,08109cc4,32,0,24624448.520,0.168,-102311058.837470,0.014,-825.688,36.6,2630.940,01309ccb,9,0,23786466.108,0.048,-126888714.400464,0.010,-3850.125,47.5,2664.540,08109ce4,9,0,23786474.970,0.139,-98879577.461696,0.011,-3000.113,38.2,2648.980,01309ceb,24,0,24213080.702,0.047,-127240618.201041,0.011,2154.934,47.6,2059.830,08109d04,24,0,24213086.670,0.114,-99148549.592488,0.013,1679.164,39.9,2054.980,01309d0b,8,0,23147510.808,0.056,-123530981.582780,0.010,-3809.445,46.2,2649.040,18109d24,8,0,23147518.471,0.140,-96263177.756389,0.011,-2968.410,38.2,2630.940,11309d2b,2,0,24374825.426,0.046,-128090603.340790,0.011,3158.934,47.9,1361.330,18109d44,2,0,24374834.197,0.140,-99810902.738280,0.013,2461.516,38.2,1354.940,11309d4b,17,0,21021490.393,0.029,-112358744.454409,0.006,14.516,51.8,2661.660,18109da4,17,0,21021490.324,0.041,-87557543.669123,0.006,11.312,48.8,2644.500,11309dab*df36b903
#BESTXYZA,COM1,0,76.5,FINESTEERING,1761,317633.000,00000000,d821,3245;SOL_COMPUTED,SINGLE,423322.8766,-5361646.1373,3417281.4207,1.4678,2.1969,1.4488,SOL_COMPUTED,DOPPLER_VELOCITY,0.0032,0.0023,-0.0152,0.1754,0.2626,0.1732,"",0.150,0.000,0.000,11,11,0,0,0,06,0,03*deb7e633
#RANGEA,COM1,0,76.5,FINESTEERING,1761,317634.000,00000000,5103,3245;22,28,0,20756982.033,0.031,-110968732.249113,0.006,-573.223,51.2,2651.650,18109c04,28,0,20756981.562,0.047,-86474408.303613,0.005,-446.672,47.6,2633.480,11309c0b,1,0,23796609.578,0.058,-126942080.183171,0.010,-3363.930,45.8,2651.620,18109c24,1,0,23796612.872,0.118,-98921187.563085,0.011,-2621.246,39.7,2632.440,11309c2b,4,0,21211250.794,0.031,-113355991.208901,0.004,2571.188,51.4,2651.640,18109c44,4,0,21211253.994,0.063,-88334629.111763,0.004,2003.527,45.1,2633.480,11309c4b,10,0,25205973.513,0.054,-132458275.617502,0.013,3368.703,46.4,152.034,18109c64,10,0,25205987.276,0.223,-103214256.946388,0.018,2624.965,34.2,146.480,11309c6b,20,0,22704119.923,0.041,-121201042.874837,0.009,401.121,48.9,2660.520,08109ca4,20,0,22704120.583,0.102,-94447651.280115,0.009,312.562,41.0,2643.980,01309cab,32,0,24624647.193,0.066,-131293468.000032,0.013,-1060.527,44.7,2649.970,08109cc4,32,0,24624650.242,0.203,-102311884.931248,0.014,-826.387,35.0,2631.940,01309ccb,9,0,23787198.807,0.048,-126892564.697011,0.009,-3850.395,47.4,2665.540,08109ce4,9,0,23787207.685,0.135,-98882577.680496,0.011,-3000.324,38.5,2649.980,01309ceb,24,0,24212670.671,0.047,-127238463.486503,0.010,2154.395,47.6,2060.830,08109d04,24,0,24212676.629,0.107,-99146870.591692,0.011,1678.785,40.6,2055.980,01309d0b,8,0,23148235.765,0.056,-123534791.209860,0.010,-3809.613,46.2,2650.040,18109d24,8,0,23148243.435,0.144,-96266146.284695,0.011,-2968.543,38.0,2631.940,11309d2b,2,0,24374224.345,0.046,-128087444.749724,0.010,3158.473,47.9,1362.330,18109d44,2,0,24374233.128,0.130,-99808441.513220,0.011,2461.156,38.9,1355.940,11309d4b,17,0,21021487.680,0.029,-112358730.233092,0.006,14.137,51.8,2662.660,18109da4,17,0,21021487.618,0.041,-87557532.586350,0.006,11.016,48.8,2645.500,11309dab*586e713e
#BESTXYZA,COM1,0,76.5,FINESTEERING,1761,317634.000,00000000,d821,3245;SOL_COMPUTED,SINGLE,423322.8741,-5361646.1356,3417281.4232,1.4679,2.1969,1.4489,SOL_COMPUTED,DOPPLER_VELOCITY,0.0011,-0.0120,-0.0050,0.1754,0.2626,0.1732,"",0.150,0.000,0.000,11,11,0,0,0,06,0,03*95fb81ec
#RANGEA,COM1,0,77.0,FINESTEERING,1761,317635.000,00000000,5103,3245;22,28,0,20757091.146,0.031,-110969305.673636,0.006,-573.863,51.2,2652.650,18109c04,28,0,20757090.683,0.047,-86474855.127916,0.006,-447.172,47.7,2634.480,11309c0b,1,0,23797249.694,0.059,-126945444.094000,0.010,-3364.355,45.6,2652.620,18109c24,1,0,23797252.997,0.115,-98923808.792302,0.011,-2621.578,39.9,2633.440,11309c2b,4,0,21210761.539,0.030,-113353420.200656,0.004,2570.570,51.5,2652.640,18109c44,4,0,21210764.734,0.064,-88332625.732398,0.004,2003.047,45.0,2634.480,11309c4b,10,0,25205332.439,0.054,-132454906.729921,0.011,3368.797,46.5,153.034,18109c64,10,0,25205346.183,0.220,-103211631.845321,0.016,2625.039,34.3,147.480,11309c6b,20,0,22704043.647,0.041,-121200642.010793,0.010,400.195,48.9,2661.520,08109ca4,20,0,22704044.316,0.098,-94447338.922205,0.010,311.840,41.3,2644.980,01309cab,32,0,24624849.050,0.064,-131294528.744497,0.012,-1061.289,45.0,2650.970,08109cc4,32,0,24624852.074,0.171,-102312711.487832,0.014,-826.977,36.5,2632.940,01309ccb,9,0,23787931.518,0.047,-126896415.043971,0.010,-3850.641,47.6,2666.540,08109ce4,9,0,23787940.388,0.136,-98885577.939806,0.010,-3000.516,38.5,2650.980,01309ceb,24,0,24212260.736,0.047,-127236309.260346,0.010,2153.852,47.7,2061.830,08109d04,24,0,24212266.694,0.119,-99145191.978818,0.011,1678.324,39.6,2056.980,01309d0b,8,0,23148960.764,0.055,-123538601.024415,0.009,-3810.105,46.3,2651.040,18109d24,8,0,23148968.436,0.154,-96269114.959085,0.011,-2968.926,37.4,2632.940,11309d2b,2,0,24373623.299,0.045,-128084286.331954,0.010,3158.160,48.1,1363.330,18109d44,2,0,24373632.077,0.145,-99805980.418284,0.010,2460.910,37.9,1356.940,11309d4b,17,0,21021485.009,0.029,-112358716.191374,0.005,13.727,51.9,2663.660,18109da4,17,0,21021484.939,0.041,-87557521.644751,0.005,10.691,48.8,2646.500,11309dab*1b201f8e
#BESTXYZA,COM1,0,77.0,FINESTEERING,1761,317635.000,00000000,d821,3245;SOL_COMPUTED,SINGLE,423322.8691,-5361646.1373,3417281.4293,1.4679,2.1969,1.4489,SOL_COMPUTED,DOPPLER_VELOCITY,-0.0204,-0.0007,-0.0073,0.1754,0.2626,0.1732,"",0.150,0.000,0.000,11,11,0,0,0,06,0,03*d27abf94
#RANGEA,COM1,0,77.0,FINESTEERING,1761,317636.000,00000000,5103,3245;22,28,0,20757200.370,0.031,-110969879.657432,0.005,-574.355,51.2,2653.650,18109c04,28,0,20757199.904,0.047,-86475302.386790,0.006,-447.555,47.7,2635.480,11309c0b,1,0,23797889.851,0.060,-126948808.230114,0.011,-3364.355,45.6,2653.620,18109c24,1,0,23797893.185,0.121,-98926430.198294,0.012,-2621.578,39.5,2634.440,11309c2b,4,0,21210272.395,0.030,-113350849.767440,0.004,2570.117,51.6,2653.640,18109c44,4,0,21210275.590,0.063,-88330622.801108,0.004,2002.691,45.1,2635.480,11309c4b,10,0,25204691.331,0.053,-132451537.736788,0.010,3369.121,46.6,154.034,18109c64,10,0,25204705.099,0.283,-103209006.665687,0.015,2625.293,32.1,148.480,11309c6b,20,0,22703967.500,0.040,-121200241.839934,0.009,399.680,49.0,2662.520,08109ca4,20,0,22703968.170,0.095,-94447027.104440,0.010,311.438,41.5,2645.980,01309cab,32,0,24625051.029,0.065,-131295590.134884,0.012,-1061.656,44.8,2651.970,08109cc4,32,0,24625054.049,0.141,-102313538.545276,0.014,-827.266,38.1,2633.940,01309ccb,9,0,23788664.247,0.047,-126900265.515390,0.010,-3850.559,47.6,2667.540,08109ce4,9,0,23788673.108,0.144,-98888578.301007,0.011,-3000.445,38.0,2651.980,01309ceb,24,0,24211850.908,0.047,-127234155.591888,0.009,2153.754,47.6,2062.830,08109d04,24,0,24211856.868,0.119,-99143513.796831,0.010,1678.188,39.6,2057.980,01309d0b,8,0,23149685.796,0.056,-123542411.098914,0.009,-3810.273,46.2,2652.040,18109d24,8,0,23149693.483,0.143,-96272083.836029,0.011,-2969.055,38.0,2633.940,11309d2b,2,0,24373022.306,0.045,-128081128.177279,0.010,3157.852,48.0,1364.330,18109d44,2,0,24373031.107,0.132,-99803519.524676,0.010,2460.672,38.7,1357.940,11309d4b,17,0,21021482.388,0.029,-112358702.414326,0.005,13.656,51.9,2664.660,18109da4,17,0,21021482.317,0.042,-87557510.906934,0.006,10.637,48.7,2647.500,11309dab*1043b08c
#BESTXYZA,COM1,0,77.0,FINESTEERING,1761,317636.000,00000000,d821,3245;SOL_COMPUTED,SINGLE,423322.8639,-5361646.1280,3417281.4254,1.4680,2.1968,1.4489,SOL_COMPUTED,DOPPLER_VELOCITY,-0.0284,0.0419,-0.0047,0.1755,0.2626,0.1732,"",0.150,0.000,0.000,11,11,0,0,0,06,0,03*37deda3b
#RANGEA,COM1,0,77.0,FINESTEERING,1761,317637.000,00000000,5103,3245;22,28,0,20757309.652,0.031,-110970453.956313,0.005,-574.422,51.1,2654.650,18109c04,28,0,20757309.188,0.047,-86475749.893639,0.005,-447.605,47.8,2636.480,11309c0b,1,0,23798530.028,0.059,-126952172.377255,0.011,-3364.105,45.7,2654.620,18109c24,1,0,23798533.347,0.118,-98929051.609196,0.012,-2621.387,39.7,2635.440,11309c2b,4,0,21209783.314,0.030,-113348279.668213,0.004,2569.977,51.6,2654.640,18109c44,4,0,21209786.517,0.065,-88328620.131296,0.004,2002.582,44.9,2636.480,11309c4b,10,0,25204050.179,0.053,-132448168.423844,0.011,3369.410,46.6,155.034,18109c64,10,0,25204063.958,0.211,-103206381.231940,0.015,2625.520,34.6,149.480,11309c6b,20,0,22703891.440,0.040,-121199842.121221,0.007,399.496,49.1,2663.520,08109ca4,20,0,22703892.116,0.102,-94446715.637768,0.009,311.297,41.0,2646.980,01309cab,32,0,24625253.088,0.064,-131296651.986869,0.014,-1062.113,44.9,2652.970,08109cc4,32,0,24625256.104,0.167,-102314365.968546,0.015,-827.621,36.6,2634.940,01309ccb,9,0,23789396.960,0.047,-126904115.868652,0.010,-3850.266,47.7,2668.540,08109ce4,9,0,23789405.826,0.141,-98891578.573821,0.011,-3000.219,38.1,2652.980,01309ceb,24,0,24211441.141,0.048,-127232002.323586,0.010,2153.309,47.4,2063.830,08109d04,24,0,24211447.130,0.107,-99141835.929110,0.011,1677.961,40.6,2058.980,01309d0b,8,0,23150410.844,0.056,-123546221.206496,0.010,-3810.051,46.1,2653.040,18109d24,8,0,23150418.568,0.148,-96275052.742435,0.010,-2968.883,37.7,2634.940,11309d2b,2,0,24372421.314,0.044,-128077970.052536,0.010,3157.961,48.2,1365.330,18109d44,2,0,24372430.131,0.148,-99801058.654391,0.011,2460.758,37.7,1358.940,11309d4b,17,0,21021479.777,0.029,-112358688.679814,0.006,13.730,52.0,2665.660,18109da4,17,0,21021479.699,0.042,-87557500.205945,0.006,10.695,48.7,2648.500,11309dab*a7ca46b5
#BESTXYZA,COM1,0,77.0,FINESTEERING,1761,317637.000,00000000,d821,3245;SOL_COMPUTED,SINGLE,423322.8542,-5361646.1233,3417281.4277,1.4680,2.1968,1.4489,SOL_COMPUTED,DOPPLER_VELOCITY,-0.0044,-0.0019,0.0064,0.1755,0.2626,0.1732,"",0.150,0.000,0.000,11,11,0,0,0,06,0,03*0a83965d
