#BESTPOSA,COM1_30,0,65.0,FINESTEERING,1687,419234.000,00000000,6145,3153;SOL_COMPUTED,SINGLE,32.59535998647,-85.29567377157,200.9142,-29.2000,WGS84,1.3042,1.2961,3.1010,"",0.000,0.000,11,10,0,0,0,06,00,03*4d0c2769
#TRACKSTATA,COM1_30,0,65.0,FINESTEERING,1687,419234.000,00000000,457c,3153;SOL_COMPUTED,SINGLE,0.0,31,16,0,18109c04,20345218.646,-1123.945,50.179,3808.392,0.176,GOOD,0.247,16,0,11309c0b,20345219.114,-875.805,46.665,3779.920,0.000,OBSL2,0.000,3,0,18109c24,21629981.163,2794.805,49.177,3776.358,-1.024,GOOD,0.247,3,0,11309c2b,21629984.631,2177.770,40.936,3763.500,0.000,OBSL2,0.000,30,0,08109c44,21380659.788,-2441.781,49.361,3802.440,-0.137,GOOD,0.031,30,0,01309c4b,21380661.734,-1902.691,42.972,3781.480,0.000,OBSL2,0.000,20,0,08109c64,22849497.218,-2295.719,46.471,3806.340,-0.788,GOOD,0.247,20,0,01309c6b,22849500.466,-1788.875,37.594,3781.480,0.000,OBSL2,0.000,10,0,08008082,0.000,1491.000,0.000,0.000,0.000,NA,0.000,0,0,01208088,0.000,0.000,0.000,0.000,0.000,NA,0.000,6,0,08109ca4,21510852.019,1710.641,49.396,3809.700,1.051,GOOD,0.247,6,0,01309cab,21510854.913,1332.930,42.518,3779.940,0.000,OBSL2,0.000,0,0,080080c0,0.000,0.000,0.000,0.000,0.000,NA,0.000,0,0,012080c8,0.000,0.000,0.000,0.000,0.000,NA,0.000,13,0,08109ce4,22819988.649,3202.914,46.531,3615.094,0.420,GOOD,0.246,13,0,01309ceb,22819991.422,2495.777,36.344,3331.960,0.000,OBSL2,0.000,7,0,18009d04,24904236.305,2382.141,36.091,204.860,0.000,NOIONOCORR,0.000,7,0,01208109,0.000,1856.215,0.000,0.000,0.000,NA,0.000,19,0,08109d24,24327188.132,3594.445,43.848,1700.870,1.141,GOOD,0.241,19,0,01309d2b,24327196.709,2800.883,38.055,1663.440,0.000,OBSL2,0.000,31,0,08109d44,23975104.873,-2064.273,46.618,3802.040,-0.773,GOOD,0.246,31,0,01309d4b,23975107.206,-1608.527,40.134,3781.480,0.000,OBSL2,0.000,32,0,08109d64,23380712.707,-2840.652,46.589,3800.500,-0.314,GOOD,0.247,32,0,01309d6b,23380718.133,-2213.504,37.805,3781.480,0.000,OBSL2,0.000,23,0,08109d84,20701103.555,1873.762,51.315,3807.170,0.151,GOOD,0.247,23,0,01309d8b,20701102.482,1460.074,42.983,3781.480,0.000,OBSL2,0.000,0,0,080081a0,0.000,0.000,0.000,0.000,0.000,NA,0.000,0,0,012081a8,0.000,0.000,0.000,0.000,0.000,NA,0.000,0,0,0c0221c0,0.000,0.000,0.000,0.000,0.000,NA,0.000,0,0,0c0221e0,0.000,0.000,0.000,0.000,0.000,NA,0.000,0,0,0ae70200,0.000,0.000,0.000,0.000,0.000,NA,0.000*cb9743c9
#SATVISA,COM1_30,0,65.0,FINESTEERING,1687,419234.000,00000000,0947,3153;TRUE,TRUE,31,16,0,0,74.2,22.6,-1121.460,-1121.386,23,0,0,60.3,316.3,1871.181,1871.255,30,0,0,45.7,38.9,-2442.744,-2442.670,6,0,0,45.1,127.6,1714.463,1714.537,3,0,0,43.1,152.0,2796.940,2797.014,20,0,0,29.6,234.1,-2295.386,-2295.312,13,0,0,27.6,319.0,3203.912,3203.986,32,0,0,27.0,204.7,-2839.226,-2839.151,31,0,0,18.5,78.3,-2065.376,-2065.302,19,0,0,12.9,175.2,3593.533,3593.607,7,0,0,9.1,284.4,2385.001,2385.075,10,0,0,3.0,322.4,1928.379,1928.453,29,0,0,-6.0,27.3,-2837.892,-2837.818,14,0,0,-9.3,136.8,-3440.021,-3439.947,11,0,0,-9.4,194.8,1036.788,1036.862,21,0,0,-10.8,73.8,1322.863,1322.937,1,0,0,-13.3,208.7,-516.091,-516.016,8,0,0,-18.1,267.4,2092.894,2092.968,4,0,0,-18.8,298.9,-1789.732,-1789.658,2,0,0,-19.0,332.2,-910.078,-910.004,5,0,0,-28.2,357.1,2794.664,2794.738,22,0,0,-29.8,139.8,-1802.358,-1802.284,25,0,0,-31.5,50.0,-2815.775,-2815.701,28,0,0,-35.1,223.5,2731.951,2732.025,18,0,0,-48.6,103.1,-236.845,-236.770,17,0,0,-50.2,244.9,608.503,608.577,12,0,0,-62.5,54.2,-1416.841,-1416.766,26,0,0,-65.0,311.7,1838.464,1838.538,9,0,0,-65.2,143.9,-792.725,-792.650,27,0,0,-70.3,169.9,-128.442,-128.368,15,0,0,-86.3,106.2,-78.115,-78.041*71123295
#BESTPOSA,COM1_30,0,65.0,FINESTEERING,1687,419235.000,00000000,6145,3153;SOL_COMPUTED,SINGLE,32.59535998262,-85.29567370916,200.9123,-29.2000,WGS84,1.3043,1.2961,3.1011,"",0.000,0.000,11,10,0,0,0,06,00,03*aae26a8d
#TRACKSTATA,COM1_30,0,65.0,FINESTEERING,1687,419235.000,00000000,457c,3153;SOL_COMPUTED,SINGLE,0.0,31,16,0,18109c04,20345432.561,-1124.457,50.245,3809.392,0.174,GOOD,0.247,16,0,11309c0b,20345433.038,-876.203,46.525,3780.920,0.000,OBSL2,0.000,3,0,18109c24,21629449.363,2794.410,48.979,3777.358,-1.030,GOOD,0.247,3,0,11309c2b,21629452.819,2177.461,41.775,3764.500,0.000,OBSL2,0.000,30,0,08109c44,21381124.448,-2441.930,49.341,3803.440,-0.146,GOOD,0.031,30,0,01309c4b,21381126.380,-1902.805,42.787,3782.480,0.000,OBSL2,0.000,20,0,08109c64,22849934.121,-2296.090,46.637,3807.340,-0.778,GOOD,0.247,20,0,01309c6b,22849937.369,-1789.168,35.435,3782.480,0.000,OBSL2,0.000,10,0,08008083,0.000,1837.000,0.000,0.000,0.000,NA,0.000,0,0,01208088,0.000,0.000,0.000,0.000,0.000,NA,0.000,6,0,08109ca4,21510526.534,1710.086,49.377,3810.700,1.055,GOOD,0.247,6,0,01309cab,21510529.432,1332.535,42.657,3780.940,0.000,OBSL2,0.000,0,0,080080c0,0.000,0.000,0.000,0.000,0.000,NA,0.000,0,0,012080c8,0.000,0.000,0.000,0.000,0.000,NA,0.000,13,0,08109ce4,22819379.166,3202.730,46.574,3616.094,0.414,GOOD,0.246,13,0,01309ceb,22819381.943,2495.633,36.837,3332.960,0.000,OBSL2,0.000,7,0,18009d04,24903783.078,2382.633,35.860,205.860,0.000,NOIONOCORR,0.000,7,0,01208109,0.000,1856.598,0.000,0.000,0.000,NA,0.000,19,0,08109d24,24326504.108,3594.496,44.082,1701.870,1.134,GOOD,0.242,19,0,01309d2b,24326512.701,2800.922,38.938,1664.440,0.000,OBSL2,0.000,31,0,08109d44,23975497.708,-2064.145,46.363,3803.040,-0.767,GOOD,0.246,31,0,01309d4b,23975500.055,-1608.434,39.453,3782.480,0.000,OBSL2,0.000,32,0,08109d64,23381253.283,-2840.793,46.398,3801.500,-0.314,GOOD,0.247,32,0,01309d6b,23381258.714,-2213.613,37.213,3782.480,0.000,OBSL2,0.000,23,0,08109d84,20700747.043,1873.328,51.331,3808.170,0.152,GOOD,0.247,23,0,01309d8b,20700745.967,1459.734,43.135,3782.480,0.000,OBSL2,0.000,0,0,080081a0,0.000,0.000,0.000,0.000,0.000,NA,0.000,0,0,012081a8,0.000,0.000,0.000,0.000,0.000,NA,0.000,0,0,0c0221c0,0.000,0.000,0.000,0.000,0.000,NA,0.000,0,0,0c0221e0,0.000,0.000,0.000,0.000,0.000,NA,0.000,0,0,0ae70200,0.000,0.000,0.000,0.000,0.000,NA,0.000*6d505ea7
#SATVISA,COM1_30,0,65.0,FINESTEERING,1687,419235.000,00000000,0947,3153;TRUE,TRUE,31,16,0,0,74.2,22.6,-1122.052,-1121.803,23,0,0,60.3,316.3,1870.612,1870.861,30,0,0,45.7,38.9,-2443.045,-2442.796,6,0,0,45.1,127.6,1713.872,1714.121,3,0,0,43.1,152.0,2796.437,2796.686,20,0,0,29.6,234.1,-2295.838,-2295.589,13,0,0,27.6,319.0,3203.675,3203.924,32,0,0,27.0,204.7,-2839.502,-2839.253,31,0,0,18.5,78.3,-2065.368,-2065.119,19,0,0,12.9,175.2,3593.511,3593.760,7,0,0,9.1,284.4,2384.932,2385.181,10,0,0,3.0,322.4,1927.890,1928.139,29,0,0,-6.0,27.3,-2838.071,-2837.822,14,0,0,-9.3,136.8,-3440.036,-3439.787,11,0,0,-9.4,194.8,1037.171,1037.420,21,0,0,-10.8,73.8,1322.866,1323.115,1,0,0,-13.3,208.7,-515.717,-515.468,8,0,0,-18.1,267.4,2092.916,2093.165,4,0,0,-18.8,298.9,-1789.871,-1789.623,2,0,0,-19.0,332.2,-910.377,-910.128,5,0,0,-28.2,357.1,2794.676,2794.925,22,0,0,-29.8,139.8,-1801.861,-1801.613,25,0,0,-31.5,50.0,-2815.374,-2815.125,28,0,0,-35.1,223.5,2732.016,2732.265,18,0,0,-48.6,103.0,-236.285,-236.036,17,0,0,-50.2,244.9,608.965,609.214,12,0,0,-62.5,54.2,-1416.362,-1416.113,26,0,0,-65.0,311.7,1838.908,1839.157,9,0,0,-65.2,143.9,-792.490,-792.241,27,0,0,-70.3,169.9,-128.277,-128.028,15,0,0,-86.3,106.2,-77.647,-77.398*039342a2
#BESTPOSA,COM1_30,0,63.5,FINESTEERING,1687,419236.000,00000000,6145,3153;SOL_COMPUTED,SINGLE,32.59535996908,-85.29567371976,200.9247,-29.2000,WGS84,1.3044,1.2961,3.1012,"",0.000,0.000,11,10,0,0,0,06,00,03*45936452
#TRACKSTATA,COM1_30,0,63.5,FINESTEERING,1687,419236.000,00000000,457c,3153;SOL_COMPUTED,SINGLE,0.0,31,16,0,18109c04,20345646.560,-1124.953,50.139,3810.392,0.171,GOOD,0.247,16,0,11309c0b,20345647.049,-876.590,46.617,3781.920,0.000,OBSL2,0.000,3,0,18109c24,21628917.634,2793.887,48.993,3778.358,-1.035,GOOD,0.247,3,0,11309c2b,21628921.081,2177.055,41.453,3765.500,0.000,OBSL2,0.000,30,0,08109c44,21381589.150,-2442.340,49.434,3804.440,-0.147,GOOD,0.031,30,0,01309c4b,21381591.082,-1903.125,42.259,3783.480,0.000,OBSL2,0.000,20,0,08109c64,22850371.075,-2296.512,46.410,3808.340,-0.773,GOOD,0.247,20,0,01309c6b,22850374.332,-1789.496,37.572,3783.480,0.000,OBSL2,0.000,10,0,08008082,0.000,1418.000,0.000,0.000,0.000,NA,0.000,0,0,01208088,0.000,0.000,0.000,0.000,0.000,NA,0.000,6,0,08109ca4,21510201.141,1709.457,49.414,3811.700,1.062,GOOD,0.247,6,0,01309cab,21510204.046,1332.043,42.362,3781.940,0.000,OBSL2,0.000,0,0,080080c0,0.000,0.000,0.000,0.000,0.000,NA,0.000,0,0,012080c8,0.000,0.000,0.000,0.000,0.000,NA,0.000,13,0,08109ce4,22818769.702,3202.559,46.564,3617.094,0.414,GOOD,0.246,13,0,01309ceb,22818772.496,2495.496,37.826,3333.960,0.000,OBSL2,0.000,7,0,18009d04,24903329.818,2381.477,35.688,206.860,0.000,NOIONOCORR,0.000,7,0,0120810a,0.000,1855.695,0.000,0.000,0.000,NA,0.000,19,0,08109d24,24325820.060,3594.516,44.155,1702.870,1.133,GOOD,0.242,19,0,01309d2b,24325828.676,2800.938,36.828,1665.440,0.000,OBSL2,0.000,31,0,08109d44,23975890.561,-2064.664,46.596,3804.040,-0.767,GOOD,0.246,31,0,01309d4b,23975892.930,-1608.836,39.361,3783.480,0.000,OBSL2,0.000,32,0,08109d64,23381793.882,-2841.020,46.456,3802.500,-0.317,GOOD,0.247,32,0,01309d6b,23381799.277,-2213.789,37.825,3783.480,0.000,OBSL2,0.000,23,0,08109d84,20700390.608,1872.656,51.319,3809.170,0.151,GOOD,0.247,23,0,01309d8b,20700389.529,1459.211,42.737,3783.480,0.000,OBSL2,0.000,0,0,080081a0,0.000,0.000,0.000,0.000,0.000,NA,0.000,0,0,012081a8,0.000,0.000,0.000,0.000,0.000,NA,0.000,0,0,0c0221c0,0.000,0.000,0.000,0.000,0.000,NA,0.000,0,0,0c0221e0,0.000,0.000,0.000,0.000,0.000,NA,0.000,0,0,0ae70200,0.000,0.000,0.000,0.000,0.000,NA,0.000*68951806
#SATVISA,COM1_30,0,63.5,FINESTEERING,1687,419236.000,00000000,0947,3153;TRUE,TRUE,31,16,0,0,74.2,22.6,-1122.399,-1122.217,23,0,0,60.4,316.3,1870.346,1870.529,30,0,0,45.7,38.9,-2443.298,-2443.116,6,0,0,45.1,127.6,1713.438,1713.621,3,0,0,43.1,152.0,2796.164,2796.347,20,0,0,29.6,234.1,-2295.898,-2295.715,13,0,0,27.6,319.0,3203.623,3203.805,32,0,0,27.0,204.7,-2839.433,-2839.251,31,0,0,18.4,78.3,-2065.500,-2065.317,19,0,0,12.9,175.2,3593.679,3593.862,7,0,0,9.1,284.5,2385.098,2385.281,10,0,0,3.0,322.4,1927.445,1927.628,29,0,0,-6.0,27.3,-2838.513,-2838.331,14,0,0,-9.3,136.8,-3440.155,-3439.972,11,0,0,-9.4,194.8,1037.696,1037.879,21,0,0,-10.8,73.8,1322.553,1322.736,1,0,0,-13.3,208.7,-515.188,-515.005,8,0,0,-18.1,267.4,2093.064,2093.247,4,0,0,-18.8,298.9,-1789.987,-1789.804,2,0,0,-19.0,332.2,-910.797,-910.614,5,0,0,-28.2,357.1,2794.423,2794.606,22,0,0,-29.8,139.8,-1801.557,-1801.374,25,0,0,-31.5,50.0,-2815.366,-2815.183,28,0,0,-35.1,223.5,2732.114,2732.296,18,0,0,-48.6,103.0,-236.090,-235.907,17,0,0,-50.2,244.9,609.356,609.539,12,0,0,-62.5,54.2,-1416.289,-1416.106,26,0,0,-65.0,311.7,1839.098,1839.281,9,0,0,-65.2,143.9,-792.552,-792.369,27,0,0,-70.3,169.9,-128.375,-128.193,15,0,0,-86.3,106.1,-77.506,-77.323*1d259029
#BESTPOSA,COM1_30,0,63.5,FINESTEERING,1687,419237.000,00000000,6145,3153;SOL_COMPUTED,SINGLE,32.59535996375,-85.29567370671,200.9201,-29.2000,WGS84,1.3045,1.2961,3.1013,"",0.000,0.000,11,10,0,0,0,06,00,03*30c2c730
#TRACKSTATA,COM1_30,0,63.5,FINESTEERING,1687,419237.000,00000000,457c,3153;SOL_COMPUTED,SINGLE,0.0,31,16,0,18109c04,20345860.695,-1125.461,50.066,3811.392,0.169,GOOD,0.247,16,0,11309c0b,20345861.188,-876.988,46.535,3782.920,0.000,OBSL2,0.000,3,0,18109c24,21628386.012,2793.559,48.953,3779.358,-1.034,GOOD,0.247,3,0,11309c2b,21628389.465,2176.801,41.462,3766.500,0.000,OBSL2,0.000,30,0,08109c44,21382053.942,-2442.695,49.356,3805.440,-0.150,GOOD,0.031,30,0,01309c4b,21382055.879,-1903.402,42.816,3784.480,0.000,OBSL2,0.000,20,0,08109c64,22850808.119,-2297.090,46.198,3809.340,-0.763,GOOD,0.247,20,0,01309c6b,22850811.394,-1789.949,37.775,3784.480,0.000,OBSL2,0.000,10,0,08008081,0.000,1984.000,0.000,0.000,0.000,NA,0.000,0,0,01208088,0.000,0.000,0.000,0.000,0.000,NA,0.000,6,0,08109ca4,21509875.889,1708.930,49.374,3812.700,1.063,GOOD,0.247,6,0,01309cab,21509878.793,1331.633,41.847,3782.940,0.000,OBSL2,0.000,0,0,080080c0,0.000,0.000,0.000,0.000,0.000,NA,0.000,0,0,012080c8,0.000,0.000,0.000,0.000,0.000,NA,0.000,13,0,08109ce4,22818160.309,3202.328,46.447,3618.094,0.411,GOOD,0.246,13,0,01309ceb,22818163.098,2495.320,36.095,3334.960,0.000,OBSL2,0.000,7,0,18009d04,24902876.559,2382.047,35.610,207.860,0.000,NOIONOCORR,0.000,7,0,0120810a,0.000,1856.141,0.000,0.000,0.000,NA,0.000,19,0,08109d24,24325136.043,3594.527,44.136,1703.870,1.124,GOOD,0.242,19,0,01309d2b,24325144.647,2800.945,38.042,1666.440,0.000,OBSL2,0.000,31,0,08109d44,23976283.443,-2064.672,46.557,3805.040,-0.762,GOOD,0.246,31,0,01309d4b,23976285.825,-1608.844,39.697,3784.480,0.000,OBSL2,0.000,32,0,08109d64,23382334.537,-2841.414,46.544,3803.500,-0.316,GOOD,0.247,32,0,01309d6b,23382339.938,-2214.098,38.157,3784.480,0.000,OBSL2,0.000,23,0,08109d84,20700034.302,1872.148,51.291,3810.170,0.149,GOOD,0.247,23,0,01309d8b,20700033.219,1458.816,42.969,3784.480,0.000,OBSL2,0.000,0,0,080081a0,0.000,0.000,0.000,0.000,0.000,NA,0.000,0,0,012081a8,0.000,0.000,0.000,0.000,0.000,NA,0.000,0,0,0c0221c0,0.000,0.000,0.000,0.000,0.000,NA,0.000,0,0,0c0221e0,0.000,0.000,0.000,0.000,0.000,NA,0.000,0,0,0ae70200,0.000,0.000,0.000,0.000,0.000,NA,0.000*e67168cc
#SATVISA,COM1_30,0,63.5,FINESTEERING,1687,419237.000,00000000,0947,3153;TRUE,TRUE,31,16,0,0,74.2,22.6,-1122.796,-1122.930,23,0,0,60.4,316.3,1869.916,1869.782,30,0,0,45.7,38.9,-2443.425,-2443.560,6,0,0,45.1,127.6,1713.035,1712.901,3,0,0,43.1,152.0,2795.827,2795.693,20,0,0,29.6,234.1,-2296.309,-2296.443,13,0,0,27.6,319.0,3203.424,3203.290,32,0,0,27.0,204.7,-2839.648,-2839.782,31,0,0,18.4,78.3,-2065.352,-2065.486,19,0,0,12.9,175.2,3593.712,3593.577,7,0,0,9.1,284.5,2384.978,2384.844,10,0,0,3.0,322.4,1926.911,1926.777,29,0,0,-6.0,27.3,-2838.678,-2838.813,14,0,0,-9.3,136.8,-3440.141,-3440.275,11,0,0,-9.4,194.8,1038.031,1037.897,21,0,0,-10.8,73.8,1322.597,1322.463,1,0,0,-13.3,208.7,-514.895,-515.029,8,0,0,-18.0,267.4,2092.946,2092.812,4,0,0,-18.8,298.9,-1790.260,-1790.395,2,0,0,-19.0,332.2,-911.200,-911.335,5,0,0,-28.2,357.1,2794.335,2794.201,22,0,0,-29.8,139.8,-1801.107,-1801.241,25,0,0,-31.5,50.0,-2815.014,-2815.149,28,0,0,-35.1,223.5,2732.022,2731.888,18,0,0,-48.6,103.0,-235.622,-235.756,17,0,0,-50.2,244.9,609.622,609.487,12,0,0,-62.5,54.2,-1415.953,-1416.087,26,0,0,-65.0,311.7,1839.337,1839.203,9,0,0,-65.2,143.9,-792.472,-792.607,27,0,0,-70.3,170.0,-128.387,-128.521,15,0,0,-86.3,106.0,-77.228,-77.362*64b382d2
#BESTPOSA,COM1_30,0,63.5,FINESTEERING,1687,419238.000,00000000,6145,3153;SOL_COMPUTED,SINGLE,32.59535999426,-85.29567374739,200.9169,-29.2000,WGS84,1.3046,1.2961,3.1014,"",0.000,0.000,11,10,0,0,0,06,00,03*92e7e150
#TRACKSTATA,COM1_30,0,63.5,FINESTEERING,1687,419238.000,00000000,457c,3153;SOL_COMPUTED,SINGLE,0.0,31,16,0,18109c04,20346074.939,-1126.172,50.021,3812.392,0.171,GOOD,0.247,16,0,11309c0b,20346075.446,-877.539,46.604,3783.920,0.000,OBSL2,0.000,3,0,18109c24,21627854.498,2792.961,48.754,3780.358,-1.039,GOOD,0.247,3,0,11309c2b,21627857.951,2176.332,41.715,3767.500,0.000,OBSL2,0.000,30,0,08109c44,21382518.809,-2443.012,49.327,3806.440,-0.152,GOOD,0.031,30,0,01309c4b,21382520.749,-1903.648,42.671,3785.480,0.000,OBSL2,0.000,20,0,08109c64,22851245.239,-2297.191,46.301,3810.340,-0.756,GOOD,0.247,20,0,01309c6b,22851248.530,-1790.027,36.755,3785.480,0.000,OBSL2,0.000,10,0,08008082,0.000,1214.000,0.000,0.000,0.000,NA,0.000,0,0,01208088,0.000,0.000,0.000,0.000,0.000,NA,0.000,6,0,08109ca4,21509550.758,1708.426,49.366,3813.700,1.068,GOOD,0.247,6,0,01309cab,21509553.662,1331.242,41.938,3783.940,0.000,OBSL2,0.000,0,0,080080c0,0.000,0.000,0.000,0.000,0.000,NA,0.000,0,0,012080c8,0.000,0.000,0.000,0.000,0.000,NA,0.000,13,0,08109ce4,22817550.955,3202.133,46.456,3619.094,0.410,GOOD,0.246,13,0,01309ceb,22817553.729,2495.168,36.838,3335.960,0.000,OBSL2,0.000,7,0,18009d04,24902423.358,2382.008,35.096,208.860,0.000,NOIONOCORR,0.000,7,0,0120810a,0.000,1856.109,0.000,0.000,0.000,NA,0.000,19,0,08109d24,24324452.030,3594.512,43.966,1704.870,1.123,GOOD,0.242,19,0,01309d2b,24324460.640,2800.934,37.460,1667.440,0.000,OBSL2,0.000,31,0,08109d44,23976676.362,-2064.668,46.450,3806.040,-0.761,GOOD,0.246,31,0,01309d4b,23976678.775,-1608.840,39.488,3785.480,0.000,OBSL2,0.000,32,0,08109d64,23382875.245,-2841.445,46.633,3804.500,-0.320,GOOD,0.247,32,0,01309d6b,23382880.629,-2214.121,38.090,3785.480,0.000,OBSL2,0.000,23,0,08109d84,20699678.103,1871.738,51.255,3811.170,0.144,GOOD,0.247,23,0,01309d8b,20699677.014,1458.496,43.050,3785.480,0.000,OBSL2,0.000,0,0,080081a0,0.000,0.000,0.000,0.000,0.000,NA,0.000,0,0,012081a8,0.000,0.000,0.000,0.000,0.000,NA,0.000,0,0,0c0221c0,0.000,0.000,0.000,0.000,0.000,NA,0.000,0,0,0c0221e0,0.000,0.000,0.000,0.000,0.000,NA,0.000,0,0,0ae70200,0.000,0.000,0.000,0.000,0.000,NA,0.000*18f606b7
#SATVISA,COM1_30,0,63.5,FINESTEERING,1687,419238.000,00000000,0947,3153;TRUE,TRUE,31,16,0,0,74.2,22.6,-1123.519,-1123.675,23,0,0,60.4,316.3,1869.300,1869.143,30,0,0,45.7,38.9,-2443.908,-2444.065,6,0,0,45.1,127.6,1712.295,1712.138,3,0,0,43.1,152.0,2795.228,2795.071,20,0,0,29.6,234.1,-2296.656,-2296.813,13,0,0,27.6,319.0,3203.207,3203.050,32,0,0,27.0,204.7,-2839.859,-2840.016,31,0,0,18.4,78.3,-2065.553,-2065.710,19,0,0,12.9,175.2,3593.705,3593.548,7,0,0,9.1,284.5,2385.051,2384.894,10,0,0,3.0,322.4,1926.483,1926.326,29,0,0,-6.0,27.3,-2838.977,-2839.133,14,0,0,-9.3,136.8,-3440.221,-3440.378,11,0,0,-9.4,194.8,1038.529,1038.372,21,0,0,-10.7,73.8,1322.434,1322.277,1,0,0,-13.3,208.7,-514.367,-514.524,8,0,0,-18.0,267.4,2093.173,2093.016,4,0,0,-18.8,298.9,-1790.242,-1790.399,2,0,0,-19.0,332.2,-911.432,-911.589,5,0,0,-28.2,357.1,2794.355,2794.198,22,0,0,-29.8,139.8,-1800.624,-1800.781,25,0,0,-31.5,50.0,-2814.707,-2814.864,28,0,0,-35.1,223.5,2732.280,2732.123,18,0,0,-48.6,103.0,-235.093,-235.250,17,0,0,-50.2,244.9,610.282,610.125,12,0,0,-62.5,54.2,-1415.466,-1415.622,26,0,0,-65.0,311.7,1839.915,1839.758,9,0,0,-65.2,143.9,-792.171,-792.328,27,0,0,-70.3,170.0,-128.117,-128.274,15,0,0,-86.3,106.0,-76.667,-76.824*dcf1aa0b
#BESTPOSA,COM1_30,0,62.0,FINESTEERING,1687,419239.000,00000000,6145,3153;SOL_COMPUTED,SINGLE,32.59535996837,-85.29567379725,200.9314,-29.2000,WGS84,1.3047,1.2961,3.1015,"",0.000,0.000,11,10,0,0,0,06,00,03*645fdbe5
#TRACKSTATA,COM1_30,0,62.0,FINESTEERING,1687,419239.000,00000000,457c,3153;SOL_COMPUTED,SINGLE,0.0,31,16,0,18109c04,20346289.255,-1126.465,49.992,3813.392,0.173,GOOD,0.247,16,0,11309c0b,20346289.775,-877.770,46.396,3784.920,0.000,OBSL2,0.000,3,0,18109c24,21627323.036,2792.457,48.855,3781.358,-1.040,GOOD,0.247,3,0,11309c2b,21627326.484,2175.941,41.250,3768.500,0.000,OBSL2,0.000,30,0,08109c44,21382983.709,-2443.176,49.350,3807.440,-0.148,GOOD,0.031,30,0,01309c4b,21382985.651,-1903.773,42.604,3786.480,0.000,OBSL2,0.000,20,0,08109c64,22851682.394,-2297.520,46.330,3811.340,-0.744,GOOD,0.247,20,0,01309c6b,22851685.691,-1790.281,38.045,3786.480,0.000,OBSL2,0.000,10,0,08008082,0.000,2306.000,0.000,0.000,0.000,NA,0.000,0,0,01208088,0.000,0.000,0.000,0.000,0.000,NA,0.000,6,0,08109ca4,21509225.706,1707.914,49.292,3814.700,1.071,GOOD,0.247,6,0,01309cab,21509228.604,1330.844,42.740,3784.940,0.000,OBSL2,0.000,0,0,080080c0,0.000,0.000,0.000,0.000,0.000,NA,0.000,0,0,012080c8,0.000,0.000,0.000,0.000,0.000,NA,0.000,13,0,08109ce4,22816941.624,3201.891,46.366,3620.094,0.409,GOOD,0.246,13,0,01309ceb,22816944.383,2494.980,36.739,3336.960,0.000,OBSL2,0.000,7,0,18009d04,24901970.091,2381.902,35.582,209.860,0.000,NOIONOCORR,0.000,7,0,0120810a,0.000,1856.027,0.000,0.000,0.000,NA,0.000,19,0,08109d24,24323767.995,3594.707,43.935,1705.870,1.116,GOOD,0.242,19,0,01309d2b,24323776.594,2801.090,35.451,1668.440,0.000,OBSL2,0.000,31,0,08109d44,23977069.276,-2064.805,46.660,3807.040,-0.758,GOOD,0.246,31,0,01309d4b,23977071.714,-1608.945,40.049,3786.480,0.000,OBSL2,0.000,32,0,08109d64,23383415.960,-2841.574,46.671,3805.500,-0.323,GOOD,0.247,32,0,01309d6b,23383421.326,-2214.223,37.077,3786.480,0.000,OBSL2,0.000,23,0,08109d84,20699321.976,1871.180,51.367,3812.170,0.136,GOOD,0.247,23,0,01309d8b,20699320.888,1458.062,42.937,3786.480,0.000,OBSL2,0.000,0,0,080081a0,0.000,0.000,0.000,0.000,0.000,NA,0.000,0,0,012081a8,0.000,0.000,0.000,0.000,0.000,NA,0.000,0,0,0c0221c0,0.000,0.000,0.000,0.000,0.000,NA,0.000,0,0,0c0221e0,0.000,0.000,0.000,0.000,0.000,NA,0.000,0,0,0ae70200,0.000,0.000,0.000,0.000,0.000,NA,0.000*85160599
#SATVISA,COM1_30,0,62.0,FINESTEERING,1687,419239.000,00000000,0947,3153;TRUE,TRUE,31,16,0,0,74.2,22.6,-1123.931,-1123.919,23,0,0,60.4,316.3,1868.911,1868.923,30,0,0,45.7,38.9,-2444.146,-2444.134,6,0,0,45.1,127.6,1711.870,1711.882,3,0,0,43.1,152.0,2794.929,2794.940,20,0,0,29.6,234.0,-2296.880,-2296.868,13,0,0,27.6,319.0,3203.041,3203.053,32,0,0,27.0,204.7,-2839.909,-2839.897,31,0,0,18.4,78.3,-2065.568,-2065.556,19,0,0,12.9,175.2,3593.841,3593.852,7,0,0,9.1,284.5,2385.064,2385.076,10,0,0,3.0,322.3,1925.961,1925.972,29,0,0,-6.0,27.3,-2839.318,-2839.306,14,0,0,-9.3,136.8,-3440.241,-3440.229,11,0,0,-9.4,194.8,1039.007,1039.019,21,0,0,-10.7,73.8,1322.288,1322.300,1,0,0,-13.3,208.7,-513.909,-513.897,8,0,0,-18.0,267.4,2093.205,2093.216,4,0,0,-18.8,298.9,-1790.442,-1790.431,2,0,0,-19.0,332.2,-911.868,-911.856,5,0,0,-28.2,357.1,2794.160,2794.172,22,0,0,-29.8,139.8,-1800.206,-1800.194,25,0,0,-31.5,50.0,-2814.539,-2814.527,28,0,0,-35.1,223.5,2732.330,2732.341,18,0,0,-48.6,103.0,-234.736,-234.724,17,0,0,-50.2,244.9,610.648,610.660,12,0,0,-62.5,54.2,-1415.248,-1415.236,26,0,0,-65.0,311.7,1840.147,1840.158,9,0,0,-65.2,143.9,-792.121,-792.109,27,0,0,-70.3,170.0,-128.129,-128.118,15,0,0,-86.4,105.9,-76.427,-76.415*3305cf2d
#BESTPOSA,COM1_30,0,61.5,FINESTEERING,1687,419240.000,00000000,6145,3153;SOL_COMPUTED,SINGLE,32.59535992609,-85.29567377513,200.9310,-29.2000,WGS84,1.3048,1.2961,3.1016,"",0.000,0.000,11,10,0,0,0,06,00,03*c882aa5b
#TRACKSTATA,COM1_30,0,61.5,FINESTEERING,1687,419240.000,00000000,457c,3153;SOL_COMPUTED,SINGLE,0.0,31,16,0,18109c04,20346503.668,-1126.992,50.236,3814.392,0.174,GOOD,0.247,16,0,11309c0b,20346504.201,-878.180,46.542,3785.920,0.000,OBSL2,0.000,3,0,18109c24,21626791.649,2792.242,48.798,3782.358,-1.044,GOOD,0.247,3,0,11309c2b,21626795.098,2175.773,41.320,3769.500,0.000,OBSL2,0.000,30,0,08109c44,21383448.660,-2443.594,49.394,3808.440,-0.146,GOOD,0.031,30,0,01309c4b,21383450.600,-1904.098,42.690,3787.480,0.000,OBSL2,0.000,20,0,08109c64,22852119.609,-2297.770,46.443,3812.340,-0.739,GOOD,0.247,20,0,01309c6b,22852122.908,-1790.477,37.937,3787.480,0.000,OBSL2,0.000,10,0,08008082,0.000,1783.000,0.000,0.000,0.000,NA,0.000,0,0,01208088,0.000,0.000,0.000,0.000,0.000,NA,0.000,6,0,08109ca4,21508900.748,1707.375,49.396,3815.700,1.072,GOOD,0.247,6,0,01309cab,21508903.652,1330.422,42.550,3785.940,0.000,OBSL2,0.000,0,0,080080c0,0.000,0.000,0.000,0.000,0.000,NA,0.000,0,0,012080c8,0.000,0.000,0.000,0.000,0.000,NA,0.000,13,0,08109ce4,22816332.329,3201.816,46.487,3621.094,0.406,GOOD,0.246,13,0,01309ceb,22816335.054,2494.922,36.752,3337.960,0.000,OBSL2,0.000,7,0,18009d04,24901516.824,2381.953,35.583,210.860,0.000,NOIONOCORR,0.000,7,0,0120810a,0.000,1856.066,0.000,0.000,0.000,NA,0.000,19,0,08109d24,24323083.924,3594.863,43.888,1706.870,1.129,GOOD,0.242,19,0,01309d2b,24323092.490,2801.207,39.275,1669.440,0.000,OBSL2,0.000,31,0,08109d44,23977462.191,-2064.652,46.803,3808.040,-0.761,GOOD,0.246,31,0,01309d4b,23977464.624,-1608.824,39.069,3787.480,0.000,OBSL2,0.000,32,0,08109d64,23383956.707,-2841.684,46.616,3806.500,-0.339,GOOD,0.247,32,0,01309d6b,23383962.038,-2214.309,37.917,3787.480,0.000,OBSL2,0.000,23,0,08109d84,20698965.929,1870.730,51.348,3813.170,0.141,GOOD,0.247,23,0,01309d8b,20698964.833,1457.711,43.170,3787.480,0.000,OBSL2,0.000,0,0,080081a0,0.000,0.000,0.000,0.000,0.000,NA,0.000,0,0,012081a8,0.000,0.000,0.000,0.000,0.000,NA,0.000,0,0,0c0221c0,0.000,0.000,0.000,0.000,0.000,NA,0.000,0,0,0c0221e0,0.000,0.000,0.000,0.000,0.000,NA,0.000,0,0,0ae70200,0.000,0.000,0.000,0.000,0.000,NA,0.000*52c83836
#SATVISA,COM1_30,0,61.5,FINESTEERING,1687,419240.000,00000000,0947,3153;TRUE,TRUE,31,16,0,0,74.2,22.6,-1124.627,-1124.579,23,0,0,60.4,316.3,1868.257,1868.306,30,0,0,45.6,38.9,-2444.553,-2444.504,6,0,0,45.1,127.6,1711.212,1711.261,3,0,0,43.2,152.0,2794.377,2794.426,20,0,0,29.6,234.0,-2297.330,-2297.282,13,0,0,27.6,319.0,3202.752,3202.800,32,0,0,27.0,204.7,-2840.179,-2840.130,31,0,0,18.4,78.3,-2065.630,-2065.581,19,0,0,12.9,175.2,3593.836,3593.885,7,0,0,9.1,284.5,2385.003,2385.051,10,0,0,3.0,322.3,1925.454,1925.502,29,0,0,-6.0,27.3,-2839.540,-2839.492,14,0,0,-9.3,136.8,-3440.232,-3440.184,11,0,0,-9.4,194.8,1039.455,1039.504,21,0,0,-10.7,73.8,1322.263,1322.312,1,0,0,-13.3,208.7,-513.460,-513.412,8,0,0,-18.0,267.4,2093.291,2093.339,4,0,0,-18.8,298.9,-1790.542,-1790.493,2,0,0,-19.0,332.2,-912.157,-912.108,5,0,0,-28.2,357.1,2794.179,2794.228,22,0,0,-29.8,139.8,-1799.654,-1799.605,25,0,0,-31.5,50.0,-2814.134,-2814.086,28,0,0,-35.1,223.5,2732.494,2732.542,18,0,0,-48.6,103.0,-234.122,-234.073,17,0,0,-50.2,244.9,611.215,611.263,12,0,0,-62.5,54.2,-1414.711,-1414.662,26,0,0,-64.9,311.7,1840.674,1840.723,9,0,0,-65.2,143.9,-791.795,-791.747,27,0,0,-70.3,170.0,-127.863,-127.815,15,0,0,-86.4,105.8,-75.867,-75.818*71c5144d
#BESTPOSA,COM1_30,0,61.5,FINESTEERING,1687,419241.000,00000000,6145,3153;SOL_COMPUTED,SINGLE,32.59535988685,-85.29567379737,200.9424,-29.2000,WGS84,1.3049,1.2960,3.1016,"",0.000,0.000,11,10,0,0,0,06,00,03*f310922d
#TRACKSTATA,COM1_30,0,61.5,FINESTEERING,1687,419241.000,00000000,457c,3153;SOL_COMPUTED,SINGLE,0.0,31,16,0,18109c04,20346718.182,-1127.527,50.262,3815.392,0.171,GOOD,0.247,16,0,11309c0b,20346718.722,-878.598,46.724,3786.920,0.000,OBSL2,0.000,3,0,18109c24,21626260.344,2791.777,48.983,3783.358,-1.047,GOOD,0.247,3,0,11309c2b,21626263.785,2175.410,41.735,3770.500,0.000,OBSL2,0.000,30,0,08109c44,21383913.674,-2443.852,49.444,3809.440,-0.147,GOOD,0.031,30,0,01309c4b,21383915.602,-1904.301,42.424,3788.480,0.000,OBSL2,0.000,20,0,08109c64,22852556.883,-2297.918,46.592,3813.340,-0.732,GOOD,0.247,20,0,01309c6b,22852560.199,-1790.594,36.931,3788.480,0.000,OBSL2,0.000,10,0,08008082,0.000,2154.000,0.000,0.000,0.000,NA,0.000,0,0,01208088,0.000,0.000,0.000,0.000,0.000,NA,0.000,6,0,08109ca4,21508575.890,1706.863,49.457,3816.700,1.080,GOOD,0.247,6,0,01309cab,21508578.798,1330.023,42.506,3786.940,0.000,OBSL2,0.000,0,0,080080c0,0.000,0.000,0.000,0.000,0.000,NA,0.000,0,0,012080c8,0.000,0.000,0.000,0.000,0.000,NA,0.000,13,0,08109ce4,22815723.064,3201.633,46.710,3622.094,0.406,GOOD,0.246,13,0,01309ceb,22815725.768,2494.777,35.950,3338.960,0.000,OBSL2,0.000,7,0,18109d04,24901063.598,2381.418,35.918,211.860,0.000,NOIONOCORR,0.000,7,0,11309d0b,24901064.247,1855.648,31.421,0.960,0.000,OBSL2,0.000,19,0,08109d24,24322399.861,3594.734,43.731,1707.870,1.130,GOOD,0.242,19,0,01309d2b,24322408.414,2801.105,37.876,1670.440,0.000,OBSL2,0.000,31,0,08109d44,23977855.124,-2065.043,47.047,3809.040,-0.762,GOOD,0.246,31,0,01309d4b,23977857.579,-1609.129,38.569,3788.480,0.000,OBSL2,0.000,32,0,08109d64,23384497.477,-2841.812,46.786,3807.500,-0.347,GOOD,0.247,32,0,01309d6b,23384502.804,-2214.406,37.712,3788.480,0.000,OBSL2,0.000,23,0,08109d84,20698609.974,1870.391,51.390,3814.170,0.141,GOOD,0.247,23,0,01309d8b,20698608.873,1457.441,42.658,3788.480,0.000,OBSL2,0.000,0,0,080081a0,0.000,0.000,0.000,0.000,0.000,NA,0.000,0,0,012081a8,0.000,0.000,0.000,0.000,0.000,NA,0.000,0,0,0c0221c0,0.000,0.000,0.000,0.000,0.000,NA,0.000,0,0,0c0221e0,0.000,0.000,0.000,0.000,0.000,NA,0.000,0,0,0ae70200,0.000,0.000,0.000,0.000,0.000,NA,0.000*65b8c37c
#SATVISA,COM1_30,0,61.5,FINESTEERING,1687,419241.000,00000000,0947,3153;TRUE,TRUE,31,16,0,0,74.2,22.6,-1124.820,-1124.859,23,0,0,60.4,316.3,1868.156,1868.117,30,0,0,45.6,38.9,-2444.704,-2444.743,6,0,0,45.1,127.6,1710.852,1710.812,3,0,0,43.2,152.0,2794.182,2794.142,20,0,0,29.6,234.0,-2297.282,-2297.321,13,0,0,27.6,319.0,3202.820,3202.780,32,0,0,27.0,204.7,-2840.033,-2840.072,31,0,0,18.4,78.3,-2065.759,-2065.798,19,0,0,12.9,175.2,3594.015,3593.976,7,0,0,9.1,284.5,2385.252,2385.213,10,0,0,3.0,322.3,1925.067,1925.028,29,0,0,-6.0,27.3,-2840.006,-2840.046,14,0,0,-9.3,136.8,-3440.429,-3440.469,11,0,0,-9.4,194.8,1039.949,1039.909,21,0,0,-10.7,73.8,1321.874,1321.834,1,0,0,-13.3,208.7,-512.960,-512.999,8,0,0,-18.0,267.4,2093.441,2093.402,4,0,0,-18.8,298.9,-1790.653,-1790.692,2,0,0,-19.0,332.1,-912.586,-912.626,5,0,0,-28.2,357.1,2793.871,2793.831,22,0,0,-29.8,139.8,-1799.473,-1799.513,25,0,0,-31.5,50.0,-2814.236,-2814.275,28,0,0,-35.1,223.5,2732.518,2732.478,18,0,0,-48.6,103.0,-234.086,-234.126,17,0,0,-50.2,244.9,611.509,611.470,12,0,0,-62.5,54.2,-1414.795,-1414.835,26,0,0,-64.9,311.7,1840.742,1840.702,9,0,0,-65.2,143.9,-792.023,-792.063,27,0,0,-70.3,170.0,-128.123,-128.162,15,0,0,-86.4,105.7,-75.890,-75.929*1715f5f4
#BESTPOSA,COM1_30,0,65.5,FINESTEERING,1687,419242.000,00000000,6145,3153;SOL_COMPUTED,SINGLE,32.59535984612,-85.29567383921,200.9512,-29.2000,WGS84,1.3050,1.2960,3.1017,"",0.000,0.000,11,10,0,0,0,06,00,03*0feb8375
#TRACKSTATA,COM1_30,0,65.5,FINESTEERING,1687,419242.000,00000000,457c,3153;SOL_COMPUTED,SINGLE,0.0,31,16,0,18109c04,20346932.792,-1127.957,50.202,3816.392,0.171,GOOD,0.247,16,0,11309c0b,20346933.335,-878.930,46.805,3787.920,0.000,OBSL2,0.000,3,0,18109c24,21625729.131,2791.559,48.959,3784.358,-1.060,GOOD,0.247,3,0,11309c2b,21625732.556,2175.242,41.160,3771.500,0.000,OBSL2,0.000,30,0,08109c44,21384378.744,-2444.035,49.393,3810.440,-0.145,GOOD,0.031,30,0,01309c4b,21384380.669,-1904.441,42.213,3789.480,0.000,OBSL2,0.000,20,0,08109c64,22852994.222,-2298.207,46.453,3814.340,-0.731,GOOD,0.247,20,0,01309c6b,22852997.544,-1790.816,35.570,3789.480,0.000,OBSL2,0.000,10,0,08008083,0.000,1816.000,0.000,0.000,0.000,NA,0.000,0,0,01208088,0.000,0.000,0.000,0.000,0.000,NA,0.000,6,0,08109ca4,21508251.130,1706.406,49.429,3817.700,1.093,GOOD,0.247,6,0,01309cab,21508254.045,1329.668,42.324,3787.940,0.000,OBSL2,0.000,0,0,080080c0,0.000,0.000,0.000,0.000,0.000,NA,0.000,0,0,012080c8,0.000,0.000,0.000,0.000,0.000,NA,0.000,13,0,08109ce4,22815113.836,3201.504,46.413,3623.094,0.408,GOOD,0.246,13,0,01309ceb,22815116.512,2494.680,36.581,3339.960,0.000,OBSL2,0.000,7,0,18109d04,24900610.329,2382.387,35.268,212.860,0.000,NOIONOCORR,0.000,7,0,11309d0b,24900610.997,1856.406,32.917,1.960,0.000,OBSL2,0.000,19,0,08109d24,24321715.785,3595.023,43.769,1708.870,1.132,GOOD,0.242,19,0,01309d2b,24321724.354,2801.332,37.874,1671.440,0.000,OBSL2,0.000,31,0,08109d44,23978248.072,-2064.934,46.992,3810.040,-0.765,GOOD,0.246,31,0,01309d4b,23978250.542,-1609.043,40.060,3789.480,0.000,OBSL2,0.000,32,0,08109d64,23385038.267,-2841.797,46.701,3808.500,-0.348,GOOD,0.247,32,0,01309d6b,23385043.623,-2214.395,37.810,3789.480,0.000,OBSL2,0.000,23,0,08109d84,20698254.113,1870.023,51.382,3815.170,0.139,GOOD,0.247,23,0,01309d8b,20698253.009,1457.160,43.404,3789.480,0.000,OBSL2,0.000,0,0,080081a0,0.000,0.000,0.000,0.000,0.000,NA,0.000,0,0,012081a8,0.000,0.000,0.000,0.000,0.000,NA,0.000,0,0,0c0221c0,0.000,0.000,0.000,0.000,0.000,NA,0.000,0,0,0c0221e0,0.000,0.000,0.000,0.000,0.000,NA,0.000,0,0,0ae70200,0.000,0.000,0.000,0.000,0.000,NA,0.000*2afac91b
#SATVISA,COM1_30,0,65.5,FINESTEERING,1687,419242.000,00000000,0947,3153;TRUE,TRUE,31,16,0,0,74.2,22.7,-1125.404,-1125.443,23,0,0,60.4,316.3,1867.592,1867.553,30,0,0,45.6,38.9,-2445.049,-2445.088,6,0,0,45.1,127.6,1710.322,1710.283,3,0,0,43.2,152.0,2793.768,2793.730,20,0,0,29.6,234.0,-2297.635,-2297.674,13,0,0,27.6,319.0,3202.542,3202.503,32,0,0,27.0,204.7,-2840.189,-2840.228,31,0,0,18.4,78.4,-2065.785,-2065.824,19,0,0,12.9,175.2,3594.108,3594.069,7,0,0,9.2,284.5,2385.189,2385.150,10,0,0,3.0,322.3,1924.508,1924.469,29,0,0,-6.0,27.3,-2840.301,-2840.339,14,0,0,-9.3,136.8,-3440.389,-3440.427,11,0,0,-9.4,194.8,1040.439,1040.401,21,0,0,-10.7,73.8,1321.811,1321.772,1,0,0,-13.3,208.7,-512.486,-512.525,8,0,0,-18.0,267.4,2093.482,2093.444,4,0,0,-18.8,298.9,-1790.832,-1790.871,2,0,0,-19.0,332.1,-912.979,-913.018,5,0,0,-28.2,357.1,2793.766,2793.727,22,0,0,-29.8,139.8,-1798.938,-1798.977,25,0,0,-31.5,50.0,-2813.935,-2813.974,28,0,0,-35.0,223.5,2732.642,2732.603,18,0,0,-48.6,103.0,-233.558,-233.597,17,0,0,-50.2,244.9,611.988,611.949,12,0,0,-62.5,54.3,-1414.393,-1414.432,26,0,0,-64.9,311.7,1841.127,1841.088,9,0,0,-65.2,143.9,-791.795,-791.833,27,0,0,-70.3,170.0,-127.960,-127.998,15,0,0,-86.4,105.7,-75.461,-75.500*dda8c323
#BESTPOSA,COM1_30,0,64.5,FINESTEERING,1687,419243.000,00000000,6145,3153;SOL_COMPUTED,SINGLE,32.59535976950,-85.29567383722,200.9581,-29.2000,WGS84,1.3051,1.2960,3.1018,"",0.000,0.000,11,10,0,0,0,06,00,03*6a60637b
#TRACKSTATA,COM1_30,0,64.5,FINESTEERING,1687,419243.000,00000000,457c,3153;SOL_COMPUTED,SINGLE,0.0,31,16,0,18109c04,20347147.505,-1128.691,49.953,3817.392,0.169,GOOD,0.247,16,0,11309c0b,20347148.053,-879.504,46.621,3788.920,0.000,OBSL2,0.000,3,0,18109c24,21625197.985,2790.973,48.924,3785.358,-1.060,GOOD,0.247,3,0,11309c2b,21625201.395,2174.785,41.596,3772.500,0.000,OBSL2,0.000,30,0,08109c44,21384843.870,-2444.355,49.338,3811.440,-0.138,GOOD,0.031,30,0,01309c4b,21384845.806,-1904.695,42.389,3790.480,0.000,OBSL2,0.000,20,0,08109c64,22853431.623,-2298.922,46.479,3815.340,-0.730,GOOD,0.247,20,0,01309c6b,22853434.953,-1791.371,38.486,3790.480,0.000,OBSL2,0.000,10,0,08008082,0.000,2130.000,0.000,0.000,0.000,NA,0.000,0,0,01208088,0.000,0.000,0.000,0.000,0.000,NA,0.000,6,0,08109ca4,21507926.483,1705.906,49.419,3818.700,1.096,GOOD,0.247,6,0,01309cab,21507929.408,1329.277,42.971,3788.940,0.000,OBSL2,0.000,0,0,080080c0,0.000,0.000,0.000,0.000,0.000,NA,0.000,0,0,012080c8,0.000,0.000,0.000,0.000,0.000,NA,0.000,13,0,08109ce4,22814504.648,3201.340,46.357,3624.094,0.409,GOOD,0.246,13,0,01309ceb,22814507.345,2494.551,38.156,3340.960,0.000,OBSL2,0.000,7,0,18109d04,24900157.034,2381.496,34.639,213.860,0.000,NOIONOCORR,0.000,7,0,11309d0b,24900160.889,1855.711,32.411,0.920,0.000,OBSL2,0.000,19,0,08109d24,24321031.707,3594.852,43.455,1709.870,1.129,GOOD,0.241,19,0,01309d2b,24321040.256,2801.199,37.700,1672.440,0.000,OBSL2,0.000,31,0,08109d44,23978641.027,-2064.973,47.119,3811.040,-0.766,GOOD,0.246,31,0,01309d4b,23978643.491,-1609.074,39.315,3790.480,0.000,OBSL2,0.000,32,0,08109d64,23385579.087,-2841.938,46.256,3809.500,-0.346,GOOD,0.247,32,0,01309d6b,23385584.425,-2214.500,37.485,3790.480,0.000,OBSL2,0.000,23,0,08109d84,20697898.348,1869.500,51.245,3816.170,0.136,GOOD,0.247,23,0,01309d8b,20697897.239,1456.754,43.205,3790.480,0.000,OBSL2,0.000,0,0,080081a0,0.000,0.000,0.000,0.000,0.000,NA,0.000,0,0,012081a8,0.000,0.000,0.000,0.000,0.000,NA,0.000,0,0,0c0221c0,0.000,0.000,0.000,0.000,0.000,NA,0.000,0,0,0c0221e0,0.000,0.000,0.000,0.000,0.000,NA,0.000,0,0,0ae70200,0.000,0.000,0.000,0.000,0.000,NA,0.000*fcbc8cc3
#SATVISA,COM1_30,0,64.5,FINESTEERING,1687,419243.000,00000000,0947,3153;TRUE,TRUE,31,16,0,0,74.2,22.7,-1125.984,-1126.059,23,0,0,60.4,316.3,1867.032,1866.956,30,0,0,45.6,38.9,-2445.318,-2445.393,6,0,0,45.1,127.6,1709.716,1709.641,3,0,0,43.2,152.0,2793.237,2793.162,20,0,0,29.5,234.0,-2298.123,-2298.198,13,0,0,27.6,319.0,3202.327,3202.251,32,0,0,27.0,204.6,-2840.511,-2840.586,31,0,0,18.4,78.4,-2065.753,-2065.829,19,0,0,13.0,175.2,3594.038,3593.962,7,0,0,9.2,284.5,2385.117,2385.041,10,0,0,3.0,322.3,1924.048,1923.972,29,0,0,-6.0,27.3,-2840.428,-2840.503,14,0,0,-9.3,136.8,-3440.427,-3440.503,11,0,0,-9.4,194.8,1040.772,1040.697,21,0,0,-10.7,73.8,1321.841,1321.766,1,0,0,-13.3,208.7,-512.161,-512.237,8,0,0,-18.0,267.4,2093.489,2093.413,4,0,0,-18.8,298.9,-1790.960,-1791.036,2,0,0,-19.0,332.1,-913.243,-913.318,5,0,0,-28.2,357.1,2793.821,2793.745,22,0,0,-29.8,139.8,-1798.464,-1798.540,25,0,0,-31.5,50.0,-2813.495,-2813.571,28,0,0,-35.0,223.5,2732.671,2732.595,18,0,0,-48.6,103.0,-232.994,-233.070,17,0,0,-50.2,244.9,612.430,612.354,12,0,0,-62.5,54.3,-1413.893,-1413.969,26,0,0,-64.9,311.7,1841.582,1841.506,9,0,0,-65.2,143.9,-791.571,-791.646,27,0,0,-70.3,170.1,-127.807,-127.882,15,0,0,-86.4,105.6,-74.990,-75.066*93c39341
#BESTPOSA,COM1_30,0,63.0,FINESTEERING,1687,419244.000,00000000,6145,3153;SOL_COMPUTED,SINGLE,32.59535972889,-85.29567376735,200.9636,-29.2000,WGS84,1.3052,1.2960,3.1019,"",0.000,0.000,11,10,0,0,0,06,00,03*73c87b37
#TRACKSTATA,COM1_30,0,63.0,FINESTEERING,1687,419244.000,00000000,457c,3153;SOL_COMPUTED,SINGLE,0.0,31,16,0,18109c04,20347362.261,-1128.715,50.153,3818.392,0.173,GOOD,0.247,16,0,11309c0b,20347362.822,-879.523,46.726,3789.920,0.000,OBSL2,0.000,3,0,18109c24,21624666.877,2790.773,49.025,3786.358,-1.065,GOOD,0.247,3,0,11309c2b,21624670.278,2174.629,41.388,3773.500,0.000,OBSL2,0.000,30,0,08109c44,21385309.004,-2444.355,49.379,3812.440,-0.133,GOOD,0.031,30,0,01309c4b,21385310.937,-1904.695,42.628,3791.480,0.000,OBSL2,0.000,20,0,08109c64,22853869.043,-2298.812,46.488,3816.340,-0.730,GOOD,0.247,20,0,01309c6b,22853872.381,-1791.285,37.292,3791.480,0.000,OBSL2,0.000,10,0,08008082,0.000,1201.000,0.000,0.000,0.000,NA,0.000,0,0,01208088,0.000,0.000,0.000,0.000,0.000,NA,0.000,6,0,08109ca4,21507601.891,1705.578,49.396,3819.700,1.097,GOOD,0.247,6,0,01309cab,21507604.803,1329.023,42.217,3789.940,0.000,OBSL2,0.000,0,0,080080c0,0.000,0.000,0.000,0.000,0.000,NA,0.000,0,0,012080c8,0.000,0.000,0.000,0.000,0.000,NA,0.000,13,0,08109ce4,22813895.451,3201.512,46.239,3625.094,0.409,GOOD,0.246,13,0,01309ceb,22813898.132,2494.684,36.089,3341.960,0.000,OBSL2,0.000,7,0,18109d04,24899703.747,2382.168,35.273,214.860,0.000,NOIONOCORR,0.000,7,0,11309d0b,24899709.742,1856.234,28.681,1.920,0.000,OBSL2,0.000,19,0,08109d24,24320347.571,3595.328,43.410,1710.870,1.136,GOOD,0.241,19,0,01309d2b,24320356.147,2801.570,38.080,1673.440,0.000,OBSL2,0.000,31,0,08109d44,23979033.940,-2064.832,47.093,3812.040,-0.768,GOOD,0.246,31,0,01309d4b,23979036.416,-1608.965,39.674,3791.480,0.000,OBSL2,0.000,32,0,08109d64,23386119.898,-2841.965,46.479,3810.500,-0.350,GOOD,0.247,32,0,01309d6b,23386125.238,-2214.527,38.056,3791.480,0.000,OBSL2,0.000,23,0,08109d84,20697542.627,1869.160,51.370,3817.170,0.136,GOOD,0.247,23,0,01309d8b,20697541.515,1456.488,43.258,3791.480,0.000,OBSL2,0.000,0,0,080081a0,0.000,0.000,0.000,0.000,0.000,NA,0.000,0,0,012081a8,0.000,0.000,0.000,0.000,0.000,NA,0.000,0,0,0c0221c0,0.000,0.000,0.000,0.000,0.000,NA,0.000,0,0,0c0221e0,0.000,0.000,0.000,0.000,0.000,NA,0.000,0,0,0ae70200,0.000,0.000,0.000,0.000,0.000,NA,0.000*4f16f0e5
#SATVISA,COM1_30,0,63.0,FINESTEERING,1687,419244.000,00000000,0947,3153;TRUE,TRUE,31,16,0,0,74.2,22.7,-1126.528,-1126.283,23,0,0,60.4,316.3,1866.560,1866.805,30,0,0,45.6,38.9,-2445.652,-2445.407,6,0,0,45.1,127.5,1709.121,1709.366,3,0,0,43.2,152.0,2792.769,2793.014,20,0,0,29.5,234.0,-2298.411,-2298.166,13,0,0,27.6,319.0,3202.174,3202.419,32,0,0,27.0,204.6,-2840.660,-2840.415,31,0,0,18.4,78.4,-2065.861,-2065.616,19,0,0,13.0,175.2,3594.067,3594.312,7,0,0,9.2,284.5,2385.183,2385.428,10,0,0,3.0,322.3,1923.611,1923.856,29,0,0,-6.0,27.3,-2840.721,-2840.476,14,0,0,-9.4,136.8,-3440.515,-3440.270,11,0,0,-9.4,194.8,1041.225,1041.470,21,0,0,-10.7,73.8,1321.682,1321.927,1,0,0,-13.3,208.7,-511.698,-511.453,8,0,0,-18.0,267.4,2093.623,2093.868,4,0,0,-18.8,298.9,-1791.028,-1790.783,2,0,0,-19.0,332.1,-913.544,-913.299,5,0,0,-28.2,357.1,2793.759,2794.004,22,0,0,-29.8,139.8,-1798.053,-1797.808,25,0,0,-31.5,50.0,-2813.252,-2813.007,28,0,0,-35.0,223.5,2732.800,2733.045,18,0,0,-48.6,103.0,-232.576,-232.331,17,0,0,-50.2,244.9,612.929,613.174,12,0,0,-62.5,54.3,-1413.549,-1413.304,26,0,0,-64.9,311.8,1841.987,1842.232,9,0,0,-65.3,144.0,-791.424,-791.179,27,0,0,-70.3,170.1,-127.705,-127.460,15,0,0,-86.4,105.5,-74.606,-74.361*1ac57fab
#BESTPOSA,COM1_30,0,63.0,FINESTEERING,1687,419245.000,00000000,6145,3153;SOL_COMPUTED,SINGLE,32.59535966468,-85.29567377314,200.9665,-29.2000,WGS84,1.3053,1.2960,3.1020,"",0.000,0.000,11,10,0,0,0,06,00,03*ce62e364
#TRACKSTATA,COM1_30,0,63.0,FINESTEERING,1687,419245.000,00000000,457c,3153;SOL_COMPUTED,SINGLE,0.0,31,16,0,18109c04,20347577.081,-1129.102,50.193,3819.392,0.178,GOOD,0.247,16,0,11309c0b,20347577.653,-879.824,46.310,3790.920,0.000,OBSL2,0.000,3,0,18109c24,21624135.811,2790.727,49.178,3787.358,-1.064,GOOD,0.247,3,0,11309c2b,21624139.199,2174.594,40.722,3774.500,0.000,OBSL2,0.000,30,0,08109c44,21385774.168,-2444.551,49.334,3813.440,-0.132,GOOD,0.031,30,0,01309c4b,21385776.097,-1904.848,42.271,3792.480,0.000,OBSL2,0.000,20,0,08109c64,22854306.488,-2299.016,46.472,3817.340,-0.733,GOOD,0.247,20,0,01309c6b,22854309.845,-1791.445,37.317,3792.480,0.000,OBSL2,0.000,10,0,08008082,0.000,1257.000,0.000,0.000,0.000,NA,0.000,0,0,01208088,0.000,0.000,0.000,0.000,0.000,NA,0.000,6,0,08109ca4,21507277.374,1705.258,49.394,3820.700,1.093,GOOD,0.247,6,0,01309cab,21507280.275,1328.746,42.377,3790.940,0.000,OBSL2,0.000,0,0,080080c0,0.000,0.000,0.000,0.000,0.000,NA,0.000,0,0,012080c8,0.000,0.000,0.000,0.000,0.000,NA,0.000,13,0,08109ce4,22813286.247,3201.402,46.316,3626.094,0.410,GOOD,0.246,13,0,01309ceb,22813288.939,2494.598,36.327,3342.960,0.000,OBSL2,0.000,7,0,18009d04,24899250.395,2382.750,34.328,215.860,0.000,NOIONOCORR,0.000,7,0,1120990b,0.000,1856.688,17.742,0.000,0.000,NA,0.000,19,0,08109d24,24319663.386,3595.578,43.777,1711.870,1.143,GOOD,0.242,19,0,01309d2b,24319671.975,2801.766,37.372,1674.440,0.000,OBSL2,0.000,31,0,08109d44,23979426.834,-2064.594,47.253,3813.040,-0.770,GOOD,0.246,31,0,01309d4b,23979429.324,-1608.777,38.634,3792.480,0.000,OBSL2,0.000,32,0,08109d64,23386660.698,-2841.754,46.438,3811.500,-0.352,GOOD,0.247,32,0,01309d6b,23386666.030,-2214.363,37.343,3792.480,0.000,OBSL2,0.000,23,0,08109d84,20697186.963,1868.863,51.422,3818.170,0.133,GOOD,0.247,23,0,01309d8b,20697185.849,1456.258,42.773,3792.480,0.000,OBSL2,0.000,0,0,080081a0,0.000,0.000,0.000,0.000,0.000,NA,0.000,0,0,012081a8,0.000,0.000,0.000,0.000,0.000,NA,0.000,0,0,0c0221c0,0.000,0.000,0.000,0.000,0.000,NA,0.000,0,0,0c0221e0,0.000,0.000,0.000,0.000,0.000,NA,0.000,0,0,0ae70200,0.000,0.000,0.000,0.000,0.000,NA,0.000*bf6a5b74
#SATVISA,COM1_30,0,63.0,FINESTEERING,1687,419245.000,00000000,0947,3153;TRUE,TRUE,31,16,0,0,74.1,22.7,-1127.039,-1126.620,23,0,0,60.4,316.3,1866.040,1866.459,30,0,0,45.6,38.9,-2445.948,-2445.529,6,0,0,45.1,127.5,1708.689,1709.108,3,0,0,43.2,152.0,2792.455,2792.874,20,0,0,29.5,234.0,-2298.721,-2298.301,13,0,0,27.6,319.0,3201.885,3202.304,32,0,0,27.0,204.6,-2840.751,-2840.331,31,0,0,18.4,78.4,-2065.840,-2065.420,19,0,0,13.0,175.2,3594.227,3594.647,7,0,0,9.2,284.5,2385.091,2385.510,10,0,0,3.0,322.3,1922.999,1923.418,29,0,0,-6.0,27.3,-2841.051,-2840.632,14,0,0,-9.4,136.8,-3440.431,-3440.012,11,0,0,-9.4,194.8,1041.739,1042.158,21,0,0,-10.7,73.8,1321.621,1322.040,1,0,0,-13.3,208.7,-511.219,-510.799,8,0,0,-18.0,267.4,2093.610,2094.029,4,0,0,-18.8,298.9,-1791.282,-1790.863,2,0,0,-19.0,332.1,-914.018,-913.599,5,0,0,-28.2,357.1,2793.571,2793.990,22,0,0,-29.8,139.8,-1797.510,-1797.090,25,0,0,-31.6,50.0,-2813.000,-2812.581,28,0,0,-35.0,223.5,2732.886,2733.305,18,0,0,-48.6,103.0,-232.084,-231.664,17,0,0,-50.2,244.8,613.337,613.756,12,0,0,-62.5,54.3,-1413.222,-1412.802,26,0,0,-64.9,311.8,1842.272,1842.692,9,0,0,-65.3,144.0,-791.248,-790.829,27,0,0,-70.3,170.1,-127.604,-127.184,15,0,0,-86.4,105.5,-74.259,-73.840*d56456d7
#BESTPOSA,COM1_30,0,66.5,FINESTEERING,1687,419246.000,00000000,6145,3153;SOL_COMPUTED,SINGLE,32.59535967751,-85.29567378959,200.9661,-29.2000,WGS84,1.3054,1.2960,3.1021,"",0.000,0.000,11,10,0,0,0,06,00,03*bbe74570
#TRACKSTATA,COM1_30,0,66.5,FINESTEERING,1687,419246.000,00000000,457c,3153;SOL_COMPUTED,SINGLE,0.0,31,16,0,18109c04,20347791.998,-1129.656,50.181,3820.392,0.176,GOOD,0.247,16,0,11309c0b,20347792.577,-880.254,46.261,3791.920,0.000,OBSL2,0.000,3,0,18109c24,21623604.832,2790.016,49.315,3788.358,-1.071,GOOD,0.247,3,0,11309c2b,21623608.212,2174.039,40.810,3775.500,0.000,OBSL2,0.000,30,0,08109c44,21386239.380,-2444.949,49.305,3814.440,-0.131,GOOD,0.031,30,0,01309c4b,21386241.299,-1905.160,42.641,3793.480,0.000,OBSL2,0.000,20,0,08109c64,22854743.979,-2299.352,46.758,3818.340,-0.725,GOOD,0.247,20,0,01309c6b,22854747.352,-1791.707,36.990,3793.480,0.000,OBSL2,0.000,10,0,08008082,0.000,1675.000,0.000,0.000,0.000,NA,0.000,0,0,01208088,0.000,0.000,0.000,0.000,0.000,NA,0.000,6,0,08109ca4,21506952.946,1704.652,49.421,3821.700,1.100,GOOD,0.247,6,0,01309cab,21506955.843,1328.301,42.473,3791.940,0.000,OBSL2,0.000,0,0,080080c0,0.000,0.000,0.000,0.000,0.000,NA,0.000,0,0,012080c8,0.000,0.000,0.000,0.000,0.000,NA,0.000,13,0,08109ce4,22812677.072,3201.258,46.251,3627.094,0.407,GOOD,0.246,13,0,01309ceb,22812679.752,2494.488,36.486,3343.960,0.000,OBSL2,0.000,7,0,18109d04,24898797.074,2382.828,34.494,216.860,0.000,NOIONOCORR,0.000,7,0,11309d0b,24898799.654,1856.750,32.883,1.420,0.000,OBSL2,0.000,19,0,08109d24,24318979.208,3595.191,43.579,1712.870,1.132,GOOD,0.242,19,0,01309d2b,24318987.789,2801.469,37.039,1675.440,0.000,OBSL2,0.000,31,0,08109d44,23979819.727,-2064.734,47.304,3814.040,-0.765,GOOD,0.246,31,0,01309d4b,23979822.223,-1608.887,38.936,3793.480,0.000,OBSL2,0.000,32,0,08109d64,23387201.519,-2842.074,46.466,3812.500,-0.347,GOOD,0.247,32,0,01309d6b,23387206.869,-2214.609,37.299,3793.480,0.000,OBSL2,0.000,23,0,08109d84,20696831.383,1868.215,51.438,3819.170,0.130,GOOD,0.247,23,0,01309d8b,20696830.267,1455.750,42.838,3793.480,0.000,OBSL2,0.000,0,0,080081a0,0.000,0.000,0.000,0.000,0.000,NA,0.000,0,0,012081a8,0.000,0.000,0.000,0.000,0.000,NA,0.000,0,0,0c0221c0,0.000,0.000,0.000,0.000,0.000,NA,0.000,0,0,0c0221e0,0.000,0.000,0.000,0.000,0.000,NA,0.000,0,0,0ae70200,0.000,0.000,0.000,0.000,0.000,NA,0.000*a2f216a9
#SATVISA,COM1_30,0,66.5,FINESTEERING,1687,419246.000,00000000,0947,3153;TRUE,TRUE,31,16,0,0,74.1,22.7,-1127.493,-1127.058,23,0,0,60.4,316.3,1865.663,1866.098,30,0,0,45.6,38.9,-2446.159,-2445.723,6,0,0,45.1,127.5,1708.075,1708.510,3,0,0,43.2,152.0,2791.933,2792.368,20,0,0,29.5,234.0,-2299.064,-2298.629,13,0,0,27.6,319.0,3201.849,3202.284,32,0,0,27.0,204.6,-2840.997,-2840.562,31,0,0,18.4,78.4,-2065.892,-2065.457,19,0,0,13.0,175.2,3594.128,3594.563,7,0,0,9.2,284.5,2385.191,2385.626,10,0,0,3.0,322.3,1922.673,1923.108,29,0,0,-6.0,27.3,-2841.215,-2840.780,14,0,0,-9.4,136.8,-3440.625,-3440.190,11,0,0,-9.4,194.8,1042.040,1042.475,21,0,0,-10.7,73.7,1321.502,1321.937,1,0,0,-13.3,208.7,-510.898,-510.463,8,0,0,-18.0,267.5,2093.711,2094.146,4,0,0,-18.8,298.9,-1791.310,-1790.875,2,0,0,-19.0,332.1,-914.220,-913.785,5,0,0,-28.2,357.1,2793.612,2794.047,22,0,0,-29.8,139.7,-1797.216,-1796.781,25,0,0,-31.6,50.0,-2812.699,-2812.264,28,0,0,-35.0,223.5,2732.891,2733.326,18,0,0,-48.6,103.0,-231.721,-231.286,17,0,0,-50.2,244.8,613.747,614.182,12,0,0,-62.5,54.3,-1412.882,-1412.447,26,0,0,-64.9,311.8,1842.666,1843.102,9,0,0,-65.3,144.0,-791.198,-790.763,27,0,0,-70.3,170.1,-127.601,-127.166,15,0,0,-86.4,105.4,-73.931,-73.496*08dce86b
#BESTPOSA,COM1_30,0,66.5,FINESTEERING,1687,419247.000,00000000,6145,3153;SOL_COMPUTED,SINGLE,32.59535972777,-85.29567384436,200.9579,-29.2000,WGS84,1.3054,1.2960,3.1021,"",0.000,0.000,11,10,0,0,0,06,00,03*179514f0
#TRACKSTATA,COM1_30,0,66.5,FINESTEERING,1687,419247.000,00000000,457c,3153;SOL_COMPUTED,SINGLE,0.0,31,16,0,18109c04,20348007.006,-1130.051,50.230,3821.392,0.179,GOOD,0.247,16,0,11309c0b,20348007.589,-880.562,46.409,3792.920,0.000,OBSL2,0.000,3,0,18109c24,21623073.931,2789.840,49.349,3789.358,-1.071,GOOD,0.247,3,0,11309c2b,21623077.301,2173.902,41.283,3776.500,0.000,OBSL2,0.000,30,0,08109c44,21386704.645,-2445.199,49.355,3815.440,-0.129,GOOD,0.031,30,0,01309c4b,21386706.572,-1905.355,42.057,3794.480,0.000,OBSL2,0.000,20,0,08109c64,22855181.528,-2299.426,46.603,3819.340,-0.721,GOOD,0.247,20,0,01309c6b,22855184.904,-1791.766,37.045,3794.480,0.000,OBSL2,0.000,10,0,08008082,0.000,2675.000,0.000,0.000,0.000,NA,0.000,0,0,01208088,0.000,0.000,0.000,0.000,0.000,NA,0.000,6,0,08109ca4,21506628.622,1704.094,49.348,3822.700,1.105,GOOD,0.247,6,0,01309cab,21506631.524,1327.840,42.770,3792.940,0.000,OBSL2,0.000,0,0,080080c0,0.000,0.000,0.000,0.000,0.000,NA,0.000,0,0,012080c8,0.000,0.000,0.000,0.000,0.000,NA,0.000,13,0,08109ce4,22812067.917,3201.074,46.215,3628.094,0.412,GOOD,0.246,13,0,01309ceb,22812070.624,2494.344,36.712,3344.960,0.000,OBSL2,0.000,7,0,18109d04,24898343.696,2383.074,34.550,217.860,0.000,NOIONOCORR,0.000,7,0,11309d0b,24898346.862,1856.941,17.181,2.420,0.000,OBSL2,0.000,19,0,08109d24,24318295.008,3595.496,43.679,1713.870,1.128,GOOD,0.242,19,0,01309d2b,24318303.580,2801.703,38.413,1676.440,0.000,OBSL2,0.000,31,0,08109d44,23980212.634,-2064.918,47.469,3815.040,-0.767,GOOD,0.246,31,0,01309d4b,23980215.138,-1609.031,39.161,3794.480,0.000,OBSL2,0.000,32,0,08109d64,23387742.371,-2842.211,46.589,3813.500,-0.346,GOOD,0.247,32,0,01309d6b,23387747.738,-2214.719,37.436,3794.480,0.000,OBSL2,0.000,23,0,08109d84,20696475.896,1867.879,51.445,3820.170,0.119,GOOD,0.247,23,0,01309d8b,20696474.780,1455.484,42.738,3794.480,0.000,OBSL2,0.000,0,0,080081a0,0.000,0.000,0.000,0.000,0.000,NA,0.000,0,0,012081a8,0.000,0.000,0.000,0.000,0.000,NA,0.000,0,0,0c0221c0,0.000,0.000,0.000,0.000,0.000,NA,0.000,0,0,0c0221e0,0.000,0.000,0.000,0.000,0.000,NA,0.000,0,0,0ae70200,0.000,0.000,0.000,0.000,0.000,NA,0.000*69824ba8
#SATVISA,COM1_30,0,66.5,FINESTEERING,1687,419247.000,00000000,0947,3153;TRUE,TRUE,31,16,0,0,74.1,22.7,-1127.873,-1127.536,23,0,0,60.4,316.3,1865.340,1865.677,30,0,0,45.6,38.9,-2446.442,-2446.105,6,0,0,45.1,127.5,1707.672,1708.009,3,0,0,43.2,152.0,2791.695,2792.032,20,0,0,29.5,234.0,-2299.135,-2298.798,13,0,0,27.7,319.0,3201.721,3202.057,32,0,0,27.0,204.6,-2840.907,-2840.570,31,0,0,18.4,78.4,-2066.003,-2065.666,19,0,0,13.0,175.2,3594.350,3594.687,7,0,0,9.2,284.5,2385.298,2385.635,10,0,0,3.0,322.3,1922.154,1922.491,29,0,0,-6.0,27.3,-2841.687,-2841.350,14,0,0,-9.4,136.8,-3440.668,-3440.332,11,0,0,-9.4,194.8,1042.615,1042.952,21,0,0,-10.7,73.7,1321.217,1321.554,1,0,0,-13.3,208.7,-510.333,-509.996,8,0,0,-18.0,267.5,2093.829,2094.166,4,0,0,-18.8,298.9,-1791.479,-1791.142,2,0,0,-19.1,332.1,-914.699,-914.362,5,0,0,-28.2,357.1,2793.316,2793.653,22,0,0,-29.8,139.7,-1796.837,-1796.500,25,0,0,-31.6,50.0,-2812.683,-2812.346,28,0,0,-35.0,223.5,2733.013,2733.349,18,0,0,-48.6,102.9,-231.472,-231.135,17,0,0,-50.2,244.8,614.148,614.485,12,0,0,-62.5,54.3,-1412.787,-1412.451,26,0,0,-64.9,311.8,1842.848,1843.185,9,0,0,-65.3,144.0,-791.207,-790.870,27,0,0,-70.3,170.1,-127.655,-127.318,15,0,0,-86.4,105.3,-73.763,-73.426*b1c77468
#BESTPOSA,COM1_30,0,65.5,FINESTEERING,1687,419248.000,00000000,6145,3153;SOL_COMPUTED,SINGLE,32.59535967306,-85.29567381413,200.9432,-29.2000,WGS84,1.3055,1.2960,3.1022,"",0.000,0.000,11,10,0,0,0,06,00,03*c39e511b
#TRACKSTATA,COM1_30,0,65.5,FINESTEERING,1687,419248.000,00000000,457c,3153;SOL_COMPUTED,SINGLE,0.0,31,16,0,18109c04,20348222.129,-1130.832,50.363,3822.392,0.184,GOOD,0.247,16,0,11309c0b,20348222.723,-881.172,46.307,3793.920,0.000,OBSL2,0.000,3,0,18109c24,21622543.126,2789.102,49.401,3790.358,-1.083,GOOD,0.247,3,0,11309c2b,21622546.497,2173.324,41.041,3777.500,0.000,OBSL2,0.000,30,0,08109c44,21387169.983,-2445.730,49.379,3816.440,-0.123,GOOD,0.031,30,0,01309c4b,21387171.907,-1905.770,42.660,3795.480,0.000,OBSL2,0.000,20,0,08109c64,22855619.152,-2299.953,46.790,3820.340,-0.719,GOOD,0.247,20,0,01309c6b,22855622.551,-1792.176,38.130,3795.480,0.000,OBSL2,0.000,10,0,08008082,0.000,1237.000,0.000,0.000,0.000,NA,0.000,0,0,01208088,0.000,0.000,0.000,0.000,0.000,NA,0.000,6,0,08109ca4,21506304.412,1703.312,49.337,3823.700,1.108,GOOD,0.247,6,0,01309cab,21506307.314,1327.258,41.955,3793.940,0.000,OBSL2,0.000,0,0,080080c0,0.000,0.000,0.000,0.000,0.000,NA,0.000,0,0,012080c8,0.000,0.000,0.000,0.000,0.000,NA,0.000,13,0,08109ce4,22811458.832,3200.605,46.570,3629.094,0.407,GOOD,0.246,13,0,01309ceb,22811461.510,2493.977,36.689,3345.960,0.000,OBSL2,0.000,7,0,18009d04,24897890.396,2381.848,35.238,218.860,0.000,NOIONOCORR,0.000,7,0,1120990b,0.000,1855.984,28.063,0.000,0.000,NA,0.000,19,0,08109d24,24317610.796,3595.289,43.973,1714.870,1.138,GOOD,0.242,19,0,01309d2b,24317619.397,2801.539,37.264,1677.440,0.000,OBSL2,0.000,31,0,08109d44,23980605.561,-2064.969,47.457,3816.040,-0.768,GOOD,0.246,31,0,01309d4b,23980608.064,-1609.070,38.553,3795.480,0.000,OBSL2,0.000,32,0,08109d64,23388283.266,-2842.641,46.683,3814.500,-0.353,GOOD,0.247,32,0,01309d6b,23388288.632,-2215.051,37.252,3795.480,0.000,OBSL2,0.000,23,0,08109d84,20696120.511,1867.262,51.489,3821.170,0.123,GOOD,0.247,23,0,01309d8b,20696119.392,1455.008,42.699,3795.480,0.000,OBSL2,0.000,0,0,080081a0,0.000,0.000,0.000,0.000,0.000,NA,0.000,0,0,012081a8,0.000,0.000,0.000,0.000,0.000,NA,0.000,0,0,0c0221c0,0.000,0.000,0.000,0.000,0.000,NA,0.000,0,0,0c0221e0,0.000,0.000,0.000,0.000,0.000,NA,0.000,0,0,0ae70200,0.000,0.000,0.000,0.000,0.000,NA,0.000*db586e54
#SATVISA,COM1_30,0,65.5,FINESTEERING,1687,419248.000,00000000,0947,3153;TRUE,TRUE,31,16,0,0,74.1,22.7,-1128.505,-1128.284,23,0,0,60.4,316.3,1864.739,1864.960,30,0,0,45.6,38.9,-2446.765,-2446.544,6,0,0,45.1,127.5,1707.032,1707.253,3,0,0,43.2,152.0,2791.140,2791.361,20,0,0,29.5,234.0,-2299.617,-2299.396,13,0,0,27.7,319.0,3201.480,3201.702,32,0,0,26.9,204.6,-2841.222,-2841.000,31,0,0,18.4,78.4,-2066.011,-2065.789,19,0,0,13.0,175.2,3594.291,3594.512,7,0,0,9.2,284.5,2385.234,2385.455,10,0,0,3.0,322.3,1921.685,1921.906,29,0,0,-6.0,27.2,-2841.840,-2841.618,14,0,0,-9.4,136.8,-3440.697,-3440.475,11,0,0,-9.4,194.8,1042.983,1043.205,21,0,0,-10.7,73.7,1321.229,1321.450,1,0,0,-13.3,208.7,-509.966,-509.745,8,0,0,-18.0,267.5,2093.871,2094.092,4,0,0,-18.8,298.9,-1791.584,-1791.363,2,0,0,-19.1,332.1,-914.957,-914.736,5,0,0,-28.2,357.1,2793.372,2793.593,22,0,0,-29.8,139.7,-1796.336,-1796.115,25,0,0,-31.6,50.0,-2812.246,-2812.025,28,0,0,-35.0,223.5,2733.093,2733.315,18,0,0,-48.6,102.9,-230.884,-230.662,17,0,0,-50.2,244.8,614.645,614.866,12,0,0,-62.5,54.3,-1412.261,-1412.040,26,0,0,-64.9,311.8,1843.345,1843.566,9,0,0,-65.3,144.0,-790.939,-790.718,27,0,0,-70.3,170.1,-127.452,-127.231,15,0,0,-86.4,105.3,-73.247,-73.025*c1f0379f
#BESTPOSA,COM1_30,0,65.5,FINESTEERING,1687,419249.000,00000000,6145,3153;SOL_COMPUTED,SINGLE,32.59535960467,-85.29567385544,200.9550,-29.2000,WGS84,1.3056,1.2960,3.1023,"",0.000,0.000,11,10,0,0,0,06,00,03*e083c70d
#TRACKSTATA,COM1_30,0,65.5,FINESTEERING,1687,419249.000,00000000,457c,3153;SOL_COMPUTED,SINGLE,0.0,31,16,0,18109c04,20348437.369,-1131.332,50.300,3823.392,0.186,GOOD,0.247,16,0,11309c0b,20348437.976,-881.562,46.416,3794.920,0.000,OBSL2,0.000,3,0,18109c24,21622012.423,2788.703,49.256,3791.358,-1.091,GOOD,0.247,3,0,11309c2b,21622015.786,2173.016,41.206,3778.500,0.000,OBSL2,0.000,30,0,08109c44,21387635.403,-2445.809,49.234,3817.440,-0.118,GOOD,0.031,30,0,01309c4b,21387637.336,-1905.828,42.730,3796.480,0.000,OBSL2,0.000,20,0,08109c64,22856056.858,-2300.273,46.747,3821.340,-0.714,GOOD,0.247,20,0,01309c6b,22856060.249,-1792.426,37.191,3796.480,0.000,OBSL2,0.000,10,0,08008082,0.000,383.000,0.000,0.000,0.000,NA,0.000,0,0,01208088,0.000,0.000,0.000,0.000,0.000,NA,0.000,6,0,08109ca4,21505980.328,1702.832,49.304,3824.700,1.111,GOOD,0.247,6,0,01309cab,21505983.235,1326.961,42.412,3794.940,0.000,OBSL2,0.000,0,0,080080c0,0.000,0.000,0.000,0.000,0.000,NA,0.000,0,0,012080c8,0.000,0.000,0.000,0.000,0.000,NA,0.000,13,0,08109ce4,22810849.807,3200.539,46.538,3630.094,0.404,GOOD,0.246,13,0,01309ceb,22810852.463,2493.926,35.262,3346.960,0.000,OBSL2,0.000,7,0,18009d04,24897437.096,2381.988,34.823,219.860,0.000,NOIONOCORR,0.000,7,0,1120990b,0.000,1856.094,35.758,0.000,0.000,NA,0.000,19,0,08109d24,24316926.622,3595.508,43.829,1715.870,1.143,GOOD,0.242,19,0,01309d2b,24316935.221,2801.711,36.338,1678.440,0.000,OBSL2,0.000,31,0,08109d44,23980998.540,-2065.137,47.119,3817.040,-0.769,GOOD,0.246,31,0,01309d4b,23981001.022,-1609.203,39.259,3796.480,0.000,OBSL2,0.000,32,0,08109d64,23388824.214,-2842.707,46.582,3815.500,-0.359,GOOD,0.247,32,0,01309d6b,23388829.599,-2215.105,37.190,3796.480,0.000,OBSL2,0.000,23,0,08109d84,20695765.238,1866.867,51.411,3822.170,0.122,GOOD,0.247,23,0,01309d8b,20695764.117,1454.703,43.129,3796.480,0.000,OBSL2,0.000,0,0,080081a0,0.000,0.000,0.000,0.000,0.000,NA,0.000,0,0,012081a8,0.000,0.000,0.000,0.000,0.000,NA,0.000,0,0,0c0221c0,0.000,0.000,0.000,0.000,0.000,NA,0.000,0,0,0c0221e0,0.000,0.000,0.000,0.000,0.000,NA,0.000,0,0,0ae70200,0.000,0.000,0.000,0.000,0.000,NA,0.000*b5333a82
#SATVISA,COM1_30,0,65.5,FINESTEERING,1687,419249.000,00000000,0947,3153;TRUE,TRUE,31,16,0,0,74.1,22.7,-1129.032,-1128.889,23,0,0,60.5,316.3,1864.281,1864.425,30,0,0,45.6,39.0,-2447.105,-2446.962,6,0,0,45.1,127.5,1706.469,1706.612,3,0,0,43.2,152.0,2790.714,2790.858,20,0,0,29.5,234.0,-2299.861,-2299.717,13,0,0,27.7,319.0,3201.320,3201.463,32,0,0,26.9,204.6,-2841.318,-2841.175,31,0,0,18.4,78.4,-2066.127,-2065.984,19,0,0,13.0,175.2,3594.366,3594.509,7,0,0,9.2,284.5,2385.305,2385.449,10,0,0,3.0,322.3,1921.223,1921.366,29,0,0,-6.0,27.2,-2842.177,-2842.034,14,0,0,-9.4,136.8,-3440.766,-3440.623,11,0,0,-9.4,194.8,1043.473,1043.617,21,0,0,-10.7,73.7,1321.042,1321.185,1,0,0,-13.3,208.7,-509.469,-509.326,8,0,0,-18.0,267.5,2094.009,2094.152,4,0,0,-18.8,298.8,-1791.671,-1791.528,2,0,0,-19.1,332.1,-915.298,-915.155,5,0,0,-28.1,357.1,2793.260,2793.403,22,0,0,-29.8,139.7,-1795.918,-1795.775,25,0,0,-31.6,50.0,-2812.049,-2811.906,28,0,0,-35.0,223.5,2733.237,2733.380,18,0,0,-48.6,102.9,-230.489,-230.346,17,0,0,-50.2,244.8,615.138,615.281,12,0,0,-62.6,54.3,-1411.959,-1411.816,26,0,0,-64.9,311.8,1843.715,1843.858,9,0,0,-65.3,144.0,-790.808,-790.665,27,0,0,-70.3,170.1,-127.366,-127.223,15,0,0,-86.4,105.2,-72.892,-72.749*8cf20b88
#WAASECUTOFFA,COM1_30,0,64.5,UNKNOWN,0,6.221,00000000,ed8e,3153;0.000000000*4fb144ff
#ECUTOFFA,COM1_30,0,64.5,UNKNOWN,0,6.211,00000000,06b8,3153;0.0*1c98aced
#BESTPOSA,COM1_30,0,64.5,FINESTEERING,1687,419250.000,00000000,6145,3153;SOL_COMPUTED,SINGLE,32.59535954083,-85.29567381294,200.9549,-29.2000,WGS84,1.3057,1.2960,3.1024,"",0.000,0.000,11,10,0,0,0,06,00,03*50412910
#TRACKSTATA,COM1_30,0,64.5,FINESTEERING,1687,419250.000,00000000,457c,3153;SOL_COMPUTED,SINGLE,0.0,31,16,0,18109c04,20348652.733,-1132.078,50.137,3824.392,0.189,GOOD,0.247,16,0,11309c0b,20348653.342,-882.145,46.659,3795.920,0.000,OBSL2,0.000,3,0,18109c24,21621481.826,2788.090,49.255,3792.358,-1.101,GOOD,0.247,3,0,11309c2b,21621485.189,2172.539,40.605,3779.500,0.000,OBSL2,0.000,30,0,08109c44,21388100.904,-2446.398,49.335,3818.440,-0.116,GOOD,0.031,30,0,01309c4b,21388102.841,-1906.289,42.337,3797.480,0.000,OBSL2,0.000,20,0,08109c64,22856494.645,-2300.770,46.658,3822.340,-0.702,GOOD,0.247,20,0,01309c6b,22856498.041,-1792.812,38.182,3797.480,0.000,OBSL2,0.000,10,0,08008083,0.000,1771.000,0.000,0.000,0.000,NA,0.000,0,0,01208088,0.000,0.000,0.000,0.000,0.000,NA,0.000,6,0,08109ca4,21505656.370,1701.973,49.317,3825.700,1.113,GOOD,0.247,6,0,01309cab,21505659.274,1326.211,41.999,3795.940,0.000,OBSL2,0.000,0,0,080080c0,0.000,0.000,0.000,0.000,0.000,NA,0.000,0,0,012080c8,0.000,0.000,0.000,0.000,0.000,NA,0.000,13,0,08109ce4,22810240.848,3200.086,46.395,3631.094,0.396,GOOD,0.246,13,0,01309ceb,22810243.466,2493.574,35.765,3347.960,0.000,OBSL2,0.000,7,0,18109d04,24896983.798,2381.750,34.723,220.860,0.000,NOIONOCORR,0.000,7,0,11309d0b,24896996.657,1855.910,25.470,1.420,0.000,OBSL2,0.000,19,0,08109d24,24316242.464,3595.121,43.603,1716.870,1.140,GOOD,0.242,19,0,01309d2b,24316251.052,2801.410,38.495,1679.440,0.000,OBSL2,0.000,31,0,08109d44,23981391.532,-2065.293,47.216,3818.040,-0.762,GOOD,0.246,31,0,01309d4b,23981394.032,-1609.324,38.752,3797.480,0.000,OBSL2,0.000,32,0,08109d64,23389365.214,-2843.094,46.624,3816.500,-0.359,GOOD,0.247,32,0,01309d6b,23389370.614,-2215.406,36.848,3797.480,0.000,OBSL2,0.000,23,0,08109d84,20695410.085,1866.113,51.333,3823.170,0.122,GOOD,0.247,23,0,01309d8b,20695408.959,1454.113,42.941,3797.480,0.000,OBSL2,0.000,0,0,080081a0,0.000,0.000,0.000,0.000,0.000,NA,0.000,0,0,012081a8,0.000,0.000,0.000,0.000,0.000,NA,0.000,0,0,0c0221c0,0.000,0.000,0.000,0.000,0.000,NA,0.000,0,0,0c0221e0,0.000,0.000,0.000,0.000,0.000,NA,0.000,0,0,0ae70200,0.000,0.000,0.000,0.000,0.000,NA,0.000*c832ae06
