#SENDA,COM1_30,0,1.0,UNKNOWN,0,0.000,00000000,6121,0;THISPORT,"OK"*2b2bdae6
#BESTPOSA,COM1,0,40.0,FINESTEERING,1687,423996.000,00000000,6145,5587;SOL_COMPUTED,SINGLE,32.59532811063,-85.29565549971,203.5659,-29.2000,WGS84,1.2855,1.4367,2.4617,"",0.000,0.000,19,19,0,0,0,06,00,33*ac869e9f
#BESTUTMA,COM1,0,39.5,FINESTEERING,1687,424001.000,00000000,eb16,5587;SOL_COMPUTED,SINGLE,16,S,3607708.1824,659945.5849,203.5833,-29.2000,WGS84,1.2854,1.4361,2.4609,"",0.000,0.000,19,19,0,0,0,06,0,33*3f8198cc
#BESTXYZA,COM1,0,40.0,FINESTEERING,1687,424005.000,00000000,d821,5587;SOL_COMPUTED,SINGLE,441148.0875,-5360810.4191,3416328.3378,1.3532,2.4648,1.3575,SOL_COMPUTED,DOPPLER_VELOCITY,0.0393,-0.0304,0.0149,0.1617,0.2946,0.1623,"",0.150,0.000,0.000,19,19,0,0,0,06,00,33*e2444fa5
#BESTVELA,COM1,0,38.5,FINESTEERING,1687,424010.000,00000000,827b,5587;SOL_COMPUTED,DOPPLER_VELOCITY,0.150,0.000,0.0155,87.505720,-0.0473,0.0*aeb79704
#PSRXYZA,COM1,0,38.5,FINESTEERING,1687,424014.000,00000000,4a28,5587;SOL_COMPUTED,SINGLE,441148.0912,-5360810.4218,3416328.3570,1.3524,2.4629,1.3578,SOL_COMPUTED,DOPPLER_VELOCITY,-0.0139,0.0201,-0.0055,0.1616,0.2944,0.1623,"",0.150,0.000,0.000,19,19,0,0,0,06,00,33*aff1195d
#PSRVELA,COM1,0,39.5,FINESTEERING,1687,424018.000,00000000,658b,5587;SOL_COMPUTED,DOPPLER_VELOCITY,0.150,0.000,0.0284,10.277343,0.0311,0.0*db917350
#BESTXYZA,COM1,0,34.0,FINESTEERING,1687,424022.000,00000000,d821,5587;SOL_COMPUTED,SINGLE,441148.0889,-5360810.4349,3416328.3630,1.3517,2.4611,1.3583,SOL_COMPUTED,DOPPLER_VELOCITY,-0.0157,-0.0323,-0.0087,0.1616,0.2942,0.1623,"",0.150,0.000,0.000,19,19,0,0,0,06,00,33*d6c8b555
#SENDA,COM1_30,0,1.0,UNKNOWN,0,0.000,00000000,6121,0;THISPORT,"OK"*2b2bdae6
#SENDA,COM1_30,0,1.0,UNKNOWN,0,0.000,00000000,6121,0;THISPORT,"OK"*2b2bdae6
#GPSEPHEMA,COM1,17,41.0,SATTIME,1687,410400.000,00000000,9145,5587;1,410400.0,0,62,62,1687,1687,417600.0,2.656005046e+07,4.701624413e-09,-2.591122451e+00,6.6842383239e-04,3.3505171223e-01,1.063570380e-06,6.912276149e-06,2.47468750e+02,1.93750000e+01,2.235174179e-08,1.043081284e-07,9.5991331983e-01,2.739399821e-10,-8.5954981184e-01,-8.07105048e-09,62,417600.0,8.381903172e-09,2.55728e-04,2.38742e-12,0.00000,TRUE,1.458611304e-04,4.00000000e+00*798378f7
#GPSEPHEMA,COM1,16,41.0,SATTIME,1687,424020.000,00000000,9145,5587;3,424020.0,0,26,26,1687,1687,424800.0,2.656081031e+07,5.226646282e-09,-3.6618264845e-01,1.5222848859e-02,1.185767124e+00,-2.481043339e-06,9.447336197e-06,1.81281250e+02,-4.95312500e+01,-1.043081284e-07,1.639127731e-07,9.3096800370e-01,1.003613233e-10,-2.037010250e+00,-8.60964434e-09,26,424800.0,-4.656612873e-09,4.71822e-05,5.00222e-12,0.00000,TRUE,1.458553965e-04,4.00000000e+00*a5dc5fa8
#GPSEPHEMA,COM1,15,41.0,SATTIME,1687,424020.000,00000000,9145,5587;6,424020.0,0,67,67,1687,1687,424800.0,2.656055709e+07,4.977350184e-09,1.533170020e+00,7.3205671506e-03,-5.5425681136e-01,-2.719461918e-06,9.205192327e-06,1.84562500e+02,-5.51875000e+01,1.154839993e-07,6.519258022e-08,9.3780702430e-01,3.392998475e-11,-1.960509664e+00,-8.15355391e-09,67,424800.0,-5.122274160e-09,2.68952e-05,-2.27374e-12,0.00000,TRUE,1.458572329e-04,4.00000000e+00*06c45a36
#GPSEPHEMA,COM1,14,41.0,SATTIME,1687,424020.000,00000000,9145,5587;7,424020.0,0,72,72,1687,1687,424800.0,2.655967921e+07,4.449113895e-09,-1.930409357e+00,5.3202491254e-03,-3.030705602e+00,1.782551408e-06,3.468245268e-06,3.23062500e+02,3.63437500e+01,4.842877388e-08,-6.705522537e-08,9.7570495288e-01,2.014369621e-10,2.301264219e+00,-8.19891295e-09,72,424800.0,-1.071020961e-08,8.00802e-05,3.41061e-12,0.00000,TRUE,1.458639361e-04,4.00000000e+00*7b0eff41
#GPSEPHEMA,COM1,13,41.0,SATTIME,1687,424020.000,00000000,9145,5587;10,424020.0,0,23,23,1687,1687,424800.0,2.656056914e+07,4.918419158e-09,1.809872238e+00,1.1272672447e-02,7.5011840467e-01,1.266598701e-07,8.305534720e-06,2.12468750e+02,3.65625000e+00,-2.402812243e-07,2.421438694e-08,9.4640779617e-01,-3.750156209e-10,2.1173079759e-01,-8.24427198e-09,23,424800.0,-2.328306437e-09,-3.78611e-05,-1.02318e-12,0.00000,TRUE,1.458570747e-04,4.00000000e+00*a03a78f6
#GPSEPHEMA,COM1,12,41.0,SATTIME,1687,424020.000,00000000,9145,5587;11,424020.0,0,7,7,1687,1687,424784.0,2.656035741e+07,6.205615632e-09,-1.825057231e+00,1.2865401804e-02,1.043813237e+00,1.108273864e-06,7.227063179e-06,1.98812500e+02,2.11250000e+01,2.495944500e-07,-8.754432201e-08,8.8777599548e-01,2.596536728e-10,-1.128394033e+00,-8.67678999e-09,7,424784.0,-1.164153218e-08,-2.59990e-04,-3.75167e-12,0.00000,TRUE,1.458601060e-04,4.00000000e+00*5c9b9f6e
#GPSEPHEMA,COM1,11,41.0,SATTIME,1687,424020.000,00000000,9145,5587;13,424020.0,0,90,90,1687,1687,424800.0,2.656039012e+07,3.826587964e-09,3.5142551060e-01,4.9851604272e-03,1.984824295e+00,3.859400749e-06,8.713454008e-06,2.23312500e+02,7.59062500e+01,-1.676380634e-08,-3.911554813e-08,9.8581307020e-01,6.035965708e-11,1.330299640e+00,-7.81782564e-09,90,424800.0,-1.117587090e-08,2.08205e-04,-2.38742e-12,0.00000,TRUE,1.458574575e-04,4.00000000e+00*3edb1d45
#GPSEPHEMA,COM1,10,41.0,SATTIME,1687,416910.000,00000000,9145,5587;14,416910.0,0,22,22,1687,1687,417600.0,2.655949394e+07,4.124100357e-09,-5.5078572369e-01,6.2661189586e-03,-2.066149843e+00,3.771856427e-06,9.071081877e-06,2.17562500e+02,7.04375000e+01,-5.401670933e-08,9.872019291e-08,9.7867490919e-01,2.571535686e-11,1.303762695e+00,-7.92783023e-09,22,417600.0,-8.847564459e-09,2.02416e-04,1.02318e-12,0.00000,TRUE,1.458651373e-04,4.00000000e+00*7dc65799
#GPSEPHEMA,COM1,9,41.0,SATTIME,1687,424020.000,00000000,9145,5587;16,424020.0,0,48,48,1687,1687,424800.0,2.656030285e+07,4.245891144e-09,1.801006587e+00,6.6314343130e-03,-2.7886874423e-02,-4.163011909e-06,5.818903446e-06,2.78937500e+02,-8.56250000e+01,7.450580597e-08,1.080334187e-07,9.8074608374e-01,-2.210806375e-10,-2.907767881e+00,-8.03247744e-09,48,424800.0,-9.778887033e-09,-2.34420e-04,-1.25056e-12,0.00000,TRUE,1.458585957e-04,4.00000000e+00*2a7aa87a
#GPSEPHEMA,COM1,8,41.0,SATTIME,1687,424020.000,00000000,9145,5587;19,424020.0,0,37,37,1687,1687,424800.0,2.655932229e+07,4.474829252e-09,-1.1350499034e-02,8.2943820162e-03,1.5771371199e-01,-1.963227987e-06,9.490177035e-06,1.95031250e+02,-3.49062500e+01,1.136213541e-07,3.911554813e-08,9.5995249678e-01,1.132190017e-10,-1.814403929e+00,-8.07105048e-09,37,424800.0,-1.443549991e-08,-2.64013e-04,-3.75167e-12,0.00000,TRUE,1.458669020e-04,4.00000000e+00*bc2a907b
#GPSEPHEMA,COM1,7,41.0,SATTIME,1687,424020.000,00000000,9145,5587;20,424020.0,0,49,49,1687,1687,424800.0,2.656067399e+07,5.178072830e-09,2.669531994e+00,5.0053638406e-03,1.291912630e+00,5.401670933e-08,7.448717952e-06,2.18562500e+02,7.187500000e-01,2.607703209e-08,-2.235174179e-08,9.3067527379e-01,-3.060841782e-10,1.4709007990e-01,-8.28534512e-09,49,424800.0,-7.916241884e-09,6.33481e-05,1.13687e-13,0.00000,TRUE,1.458564708e-04,4.00000000e+00*fbdb31d9
#GPSEPHEMA,COM1,6,41.0,SATTIME,1687,410400.000,00000000,9145,5587;22,410400.0,0,69,69,1687,1687,417600.0,2.656038751e+07,5.425583140e-09,4.3885969156e-01,6.0330193955e-03,-2.014451418e+00,-1.490116119e-08,7.713213563e-06,2.14218750e+02,3.125000000e-02,-1.117587090e-07,1.862645149e-08,9.2794913619e-01,-3.367997433e-10,2.0427309430e-01,-8.54035574e-09,69,417600.0,-1.676380634e-08,1.43814e-04,3.41061e-13,0.00000,TRUE,1.458590780e-04,4.00000000e+00*5b31b64d
#GPSEPHEMA,COM1,5,41.0,SATTIME,1687,424020.000,00000000,9145,5587;23,424020.0,0,1,1,1687,1687,424784.0,2.656001362e+07,4.376968033e-09,-4.0366693110e-01,7.8267314238e-03,-3.015782367e+00,3.503635526e-06,8.400529623e-06,2.16343750e+02,6.58437500e+01,1.490116119e-07,3.539025784e-08,9.6028424710e-01,3.000124967e-11,1.251892455e+00,-8.09712299e-09,1,424784.0,-2.002343535e-08,2.06577e-04,-3.63798e-12,0.00000,TRUE,1.458611092e-04,4.00000000e+00*3eb73587
#GPSEPHEMA,COM1,4,41.0,SATTIME,1687,410400.000,00000000,9145,5587;25,410400.0,0,41,41,1687,1687,417600.0,2.656084491e+07,4.440184952e-09,1.830569613e+00,1.6155965859e-03,6.5731723078e-01,-4.502013326e-06,5.425885320e-06,2.79375000e+02,-8.57500000e+01,-1.490116119e-08,7.450580597e-09,9.6875314715e-01,-1.742929743e-10,-2.959704990e+00,-8.14391066e-09,41,417600.0,5.587935448e-09,3.38554e-05,4.54747e-13,0.00000,TRUE,1.458543250e-04,4.00000000e+00*c4172439
#GPSEPHEMA,COM1,3,41.0,SATTIME,1687,416580.000,00000000,9145,5587;29,416580.0,0,97,97,1687,1687,417600.0,2.655946874e+07,4.302322066e-09,2.590084607e+00,2.3039990338e-03,-1.148585821e+00,-2.339482307e-06,9.972602129e-06,1.88218750e+02,-4.46562500e+01,7.450580597e-09,3.539025784e-08,9.6313242571e-01,1.896507569e-10,-1.858879340e+00,-7.78318134e-09,97,417600.0,-9.313225746e-09,3.11738e-04,3.86535e-12,0.00000,TRUE,1.458655231e-04,7.84000000e+00*b8d40f40
#GPSEPHEMA,COM1,2,41.0,SATTIME,1687,424020.000,00000000,9145,5587;30,424020.0,0,29,29,1687,1687,424800.0,2.656011070e+07,4.860559605e-09,7.1196485747e-01,1.1037636315e-02,1.561033594e+00,-3.825873137e-06,5.073845387e-06,2.86968750e+02,-7.34062500e+01,-1.061707735e-07,-4.097819328e-08,9.5998723816e-01,-1.642925577e-10,-3.050460630e+00,-8.51892628e-09,29,424800.0,-4.190951586e-09,-1.73924e-04,-1.94404e-11,0.00000,TRUE,1.458607931e-04,3.24900000e+01*f44ed7be
#GPSEPHEMA,COM1,1,41.0,SATTIME,1687,422340.000,00000000,9145,5587;31,422340.0,0,29,29,1687,1687,424800.0,2.656005406e+07,4.360538777e-09,-2.000572454e+00,7.8014626633e-03,-8.6265397771e-01,2.209097147e-06,4.349276423e-06,3.09031250e+02,3.93125000e+01,-2.142041922e-07,1.303851604e-07,9.8077585412e-01,1.592923495e-10,2.304104998e+00,-8.11319509e-09,29,424800.0,-1.303851604e-08,2.40691e-04,4.09273e-12,0.00000,TRUE,1.458607597e-04,4.00000000e+00*d9117e7a
#GPSEPHEMA,COM1,0,41.0,SATTIME,1687,422430.000,00000000,9145,5587;32,422430.0,0,3,3,1687,1687,424800.0,2.656046842e+07,4.722339562e-09,-1.413041268e+00,1.1817797436e-02,-5.8088733467e-01,1.620501280e-07,8.543953300e-06,2.13281250e+02,3.84375000e+00,-1.750886440e-07,-1.210719347e-07,9.5217127648e-01,-1.817932867e-10,2.7901742206e-01,-8.21284210e-09,3,424800.0,-2.793967724e-09,-4.42364e-04,-4.09273e-12,0.00000,TRUE,1.458577083e-04,4.00000000e+00*d6a4eb56
#SENDA,COM1_30,0,1.0,UNKNOWN,0,0.000,00000000,6121,0;THISPORT,"OK"*2b2bdae6
#SENDA,COM1_30,0,1.0,UNKNOWN,0,0.000,00000000,6121,0;THISPORT,"OK"*2b2bdae6
#SENDA,COM1_30,0,1.0,UNKNOWN,0,0.000,00000000,6121,0;THISPORT,"OK"*2b2bdae6
#SENDA,COM1_30,0,1.0,UNKNOWN,0,0.000,00000000,6121,0;THISPORT,"OK"*2b2bdae6
#SENDA,COM1_30,0,1.0,UNKNOWN,0,0.000,00000000,6121,0;THISPORT,"OK"*2b2bdae6
#SENDA,COM1_30,0,1.0,UNKNOWN,0,0.000,00000000,6121,0;THISPORT,"OK"*2b2bdae6
#SENDA,COM1_30,0,1.0,UNKNOWN,0,0.000,00000000,6121,0;THISPORT,"OK"*2b2bdae6
#SENDA,COM1_30,0,1.0,UNKNOWN,0,0.000,00000000,6121,0;THISPORT,"OK"*2b2bdae6
#SENDA,COM1_30,0,1.0,UNKNOWN,0,0.000,00000000,6121,0;THISPORT,"OK"*2b2bdae6
#VERSIONA,COM1,0,40.0,FINESTEERING,1687,424086.933,00000000,3681,5587;1,GPSCARD,"L12LGRV","DAB06210079","OEMV3G-3.01-2T2","3.701","3.000","2010/Apr/29","16:11:14"*d893787f
#SENDA,COM1_30,0,1.0,UNKNOWN,0,0.000,00000000,6121,0;THISPORT,"OK"*2b2bdae6
